[{"name": "Neverland Tea Salon", "address": "3066 W Broadway, Vancouver, BC V6K 2H1, Canada", "phone": "+1 604-428-3066", "tags": ["cafe", "restaurant", "food", "point_of_interest", "store", "establishment"], "rating": 4.2, "website": "http://neverlandtea.com/", "location": {"lat": 49.2640001, "lng": -123.1733634}, "google_id": "ChIJVbqQbatzhlQRxkq-DCjDKNo"},{"name": "Nuba in Kitsilano", "address": "3116 W Broadway, Vancouver, BC V6K 2G9, Canada", "phone": "+1 604-336-1797", "tags": ["restaurant", "food", "point_of_interest", "establishment"], "rating": 4.2, "website": "http://www.nuba.ca/", "location": {"lat": 49.26404780000001, "lng": -123.1746072}, "google_id": "ChIJFTwcFKtzhlQRMHMSgMHNc3Q"},{"name": "Banana Leaf in Kitsilano", "address": "3005 W Broadway, Vancouver, BC V6K 2G9, Canada", "phone": "+1 604-734-3005", "tags": ["restaurant", "food", "point_of_interest", "establishment"], "rating": 4.2, "website": "http://www.bananaleaf-vancouver.com/", "location": {"lat": 49.2643134, "lng": -123.1722979}, "google_id": "ChIJwXdWeqtzhlQRvhCBn2ZX5kM"},{"name": "The Eatery", "address": "3431 W Broadway, Vancouver, BC V6R 2B4, Canada", "phone": "+1 604-738-5298", "tags": ["restaurant", "food", "point_of_interest", "establishment"], "rating": 4.3, "website": "http://theeatery.ca/", "location": {"lat": 49.2644072, "lng": -123.180761}, "google_id": "ChIJ_6_6UFVyhlQRU7qsR4lh_8k"},{"name": "Yuwa Japanese Cuisine", "address": "2775 W 16th Ave, Vancouver, BC V6K 3X5, Canada", "phone": "+1 604-731-9378", "tags": ["restaurant", "food", "point_of_interest", "establishment"], "rating": 4.3, "website": "http://www.yuwa.ca/", "location": {"lat": 49.2579886, "lng": -123.1678342}, "google_id": "ChIJi6cGiqhzhlQRrVDv7_LlOQQ"},{"name": "Olympia Pizza", "address": "3205 W Broadway, Vancouver, BC V6K 2H5, Canada", "phone": "+1 604-732-5334", "tags": ["restaurant", "food", "point_of_interest", "establishment"], "rating": 4.1, "website": "http://olympiapizzakits.com/", "location": {"lat": 49.2643345, "lng": -123.1760455}, "google_id": "ChIJHzTZIKtzhlQRosAwusWq0uU"},{"name": "East Is East", "address": "3035 W Broadway, Vancouver, BC V6K 2G9, Canada", "phone": "+1 604-734-5881", "tags": ["restaurant", "food", "point_of_interest", "establishment"], "rating": 4.5, "website": "http://www.eastiseast.ca/", "location": {"lat": 49.2642929, "lng": -123.1727212}, "google_id": "ChIJD64_2KpzhlQRZ4c_BsxnnUo"},{"name": "Ridge Garden Restaurant", "address": "4009 Macdonald St, Vancouver, BC V6L 2N9, Canada", "phone": "+1 604-736-5231", "tags": ["restaurant", "food", "point_of_interest", "establishment"], "rating": 4.2, "website": "http://www.ridgegardenrestaurant.ca/", "location": {"lat": 49.2507911, "lng": -123.1680904}, "google_id": "ChIJJ2ni0qRzhlQRMvkbHB2v5k0"},{"name": "Subway", "address": "2640 Arbutus St, Vancouver, BC V6J 5L8, Canada", "phone": "+1 604-737-7421", "tags": ["restaurant", "food", "point_of_interest", "establishment"], "rating": 3.6, "website": "http://www.subway.com/", "location": {"lat": 49.2625438, "lng": -123.1527909}, "google_id": "ChIJv2sWjrBzhlQRo4xFFZWsrFg"},{"name": "White Spot Kitsilano", "address": "2518 W Broadway, Vancouver, BC V6K 2G1, Canada", "phone": "+1 604-731-2434", "tags": ["restaurant", "food", "point_of_interest", "establishment"], "rating": 4, "website": "http://www.whitespot.ca/", "location": {"lat": 49.2637844, "lng": -123.1632964}, "google_id": "ChIJyR2qCq5zhlQRyz1_vsY1ARw"},{"name": "Great Wall Mongolian B.B.Q", "address": "2897 W Broadway, Vancouver, BC V6K 2G6, Canada", "phone": "+1 604-739-4888", "tags": ["restaurant", "food", "point_of_interest", "establishment"], "rating": 4.4, "website": "", "location": {"lat": 49.2642355, "lng": -123.1703428}, "google_id": "ChIJl8UDfaxzhlQR8f8B18Uz33o"},{"name": "Iki Japanese Restaurant", "address": "2756 W Broadway, Vancouver, BC V6K 2G4, Canada", "phone": "+1 604-731-4771", "tags": ["restaurant", "food", "point_of_interest", "establishment"], "rating": 4.4, "website": "https://lazymeal.com/menu/iki", "location": {"lat": 49.26385459999999, "lng": -123.1674147}, "google_id": "ChIJmxjzR6xzhlQRoGHbO57h_gQ"},{"name": "Dairy Queen", "address": "2601 Broadway W, Vancouver, BC V6K 2G2, Canada", "phone": "+1 604-732-3704", "tags": ["restaurant", "food", "point_of_interest", "store", "establishment"], "rating": 3.8, "website": "https://www.dairyqueen.com/ca-en/Locator/Detail/?localechange=1&store-id=7707", "location": {"lat": 49.2642256, "lng": -123.1648875}, "google_id": "ChIJI6yu2q1zhlQRmln2qyfQk-E"},{"name": "Kitstaya Sushi", "address": "3105 W Broadway, Vancouver, BC V6K 2G9, Canada", "phone": "+1 604-737-0181", "tags": ["restaurant", "food", "point_of_interest", "establishment"], "rating": 3.7, "website": "http://www.kitstayasushi.com/", "location": {"lat": 49.2643795, "lng": -123.1741344}, "google_id": "ChIJLdB8E6tzhlQRnfXcONI3dp8"},{"name": "White Spot, Kerrisdale", "address": "5367 West Blvd, Vancouver, BC V6M 3W4, Canada", "phone": "+1 604-266-1288", "tags": ["restaurant", "food", "point_of_interest", "establishment"], "rating": 3.7, "website": "http://www.whitespot.ca/", "location": {"lat": 49.2376869, "lng": -123.1555989}, "google_id": "ChIJkWXK_XlzhlQRxUuv-2x-KME"},{"name": "Gramercy Grill", "address": "2685 Arbutus St, Vancouver, BC V6J 3Y4, Canada", "phone": "+1 604-730-5666", "tags": ["restaurant", "food", "point_of_interest", "establishment"], "rating": 3.6, "website": "http://www.gramercy-grill.com/", "location": {"lat": 49.2620899, "lng": -123.1532481}, "google_id": "ChIJJVnsh7BzhlQRRM7N_4zjs_s"},{"name": "Elwoods", "address": "3357 W Broadway, Vancouver, BC V6R 2B1, Canada", "phone": "+1 604-736-4301", "tags": ["bar", "restaurant", "food", "point_of_interest", "establishment"], "rating": 4.1, "website": "http://facebook.com/elwoods.broadway", "location": {"lat": 49.2644092, "lng": -123.1791054}, "google_id": "ChIJWfPwF6tzhlQRS89LmwYvCQE"},{"name": "Temaki Sushi", "address": "2156 W Broadway, Vancouver, BC V6K 2C8, Canada", "phone": "+1 604-738-4321", "tags": ["restaurant", "food", "point_of_interest", "establishment"], "rating": 4.4, "website": "http://www.temakisushi.ca/", "location": {"lat": 49.2635951, "lng": -123.1542864}, "google_id": "ChIJ7fGl4rBzhlQRW25o2FUeSB0"},{"name": "La Notte Restaurant", "address": "3307 Dunbar St, Vancouver, BC V6S 2C1, Canada", "phone": "+1 604-222-4033", "tags": ["restaurant", "food", "point_of_interest", "establishment"], "rating": 4.1, "website": "http://www.lanotte.ca/", "location": {"lat": 49.2572246, "lng": -123.1853608}, "google_id": "ChIJAad-jgNzhlQRsgL6rD_ICaA"},{"name": "Browns Socialhouse Point Grey", "address": "3651 W 10th Ave, Vancouver, BC V6R 2G2, Canada", "phone": "+1 604-734-3651", "tags": ["restaurant", "night_club", "bar", "food", "point_of_interest", "establishment"], "rating": 4.1, "website": "http://brownssocialhouse.com/point-grey/", "location": {"lat": 49.2635947, "lng": -123.1852698}, "google_id": "ChIJ_dfEyv9yhlQRbkYUfVD_TRg"},{"name": "McDonald's", "address": "3308 W Broadway, Vancouver, BC V6R 2B2, Canada", "phone": "+1 604-718-1017", "tags": ["cafe", "restaurant", "food", "point_of_interest", "establishment"], "rating": 3.5, "website": "https://www.mcdonalds.com/ca/en-ca/restaurant-locator.html", "location": {"lat": 49.26408610000001, "lng": -123.1780689}, "google_id": "ChIJgyy1yKpzhlQRfu6SZXQC9ZM"},{"name": "La Buca Restaurant", "address": "4025 Macdonald St, Vancouver, BC V6L 2N8, Canada", "phone": "+1 604-730-6988", "tags": ["restaurant", "food", "point_of_interest", "establishment"], "rating": 4.5, "website": "http://www.labuca.ca/", "location": {"lat": 49.250659, "lng": -123.1680209}, "google_id": "ChIJxZzsKwpzhlQREDUuhr7YwAU"},{"name": "Subway", "address": "1-2801 W 16th Ave, Vancouver, BC V6K 3C5, Canada", "phone": "+1 604-738-3880", "tags": ["meal_takeaway", "restaurant", "food", "point_of_interest", "establishment"], "rating": 3.7, "website": "http://www.subway.com/", "location": {"lat": 49.258004, "lng": -123.168589}, "google_id": "ChIJS-K_EqtzhlQRH0wC2T3Yhj0"},{"name": "Panago Pizza", "address": "2905 W Broadway, Vancouver, BC V6K 2G6, Canada", "phone": "+1 866-310-0001", "tags": ["meal_delivery", "meal_takeaway", "restaurant", "food", "point_of_interest", "establishment"], "rating": 3.8, "website": "http://www.panago.com/", "location": {"lat": 49.2642903, "lng": -123.1705284}, "google_id": "ChIJt5kxfKxzhlQRyDwcrzFDhAY"},{"name": "Dog's Kitchen", "address": "3433 Trafalgar St, Vancouver, BC V6L 2L7, Canada", "phone": "+1 604-738-3647", "tags": ["restaurant", "food", "point_of_interest", "establishment"], "rating": "", "website": "", "location": {"lat": 49.2560791, "lng": -123.165331}, "google_id": "ChIJJzBhNaZzhlQRo7I6Nbr5SVQ"},{"name": "Domino's Pizza", "address": "4298 Dunbar St, Vancouver, BC V6S 2E9, Canada", "phone": "+1 604-733-0188", "tags": ["meal_delivery", "meal_takeaway", "restaurant", "food", "point_of_interest", "establishment"], "rating": 3.4, "website": "https://pizza.dominos.ca/Vancouver-British-Columbia-10057/", "location": {"lat": 49.248188, "lng": -123.1849629}, "google_id": "ChIJzUOrYcqK6lIR-Fskom2gl04"},{"name": "Stong's Market", "address": "4221 Dunbar St, Vancouver, BC V6S 2G1, Canada", "phone": "+1 604-266-1401", "tags": ["grocery_or_supermarket", "florist", "bakery", "meal_takeaway", "cafe", "restaurant", "food", "point_of_interest", "store", "establishment"], "rating": 4.2, "website": "https://stongs.com/", "location": {"lat": 49.248679, "lng": -123.185481}, "google_id": "ChIJBzogURBzhlQR7aw-oX5kc-w"},{"name": "Moon Sushi Japanese Restaurant", "address": "4385 Dunbar St, Vancouver, BC V6S 2G2, Canada", "phone": "+1 604-221-7874", "tags": ["meal_takeaway", "cafe", "restaurant", "food", "point_of_interest", "establishment"], "rating": 4.2, "website": "http://moonsushi.ca/", "location": {"lat": 49.24729199999999, "lng": -123.185364}, "google_id": "ChIJM1ZdEBFzhlQRetiKKqAJfR0"},{"name": "Baru Latino", "address": "2535 Alma St, Vancouver, BC V6R 3R8, Canada", "phone": "+1 604-222-9171", "tags": ["restaurant", "food", "point_of_interest", "establishment"], "rating": 4.2, "website": "http://www.barulatino.com/", "location": {"lat": 49.26403699999999, "lng": -123.1860784}, "google_id": "ChIJ5yRLs_9yhlQRZzHj48GBeRI"},{"name": "Mamalee", "address": "3144 W Broadway, Vancouver, BC V6K 2H3, Canada", "phone": "+1 604-733-8882", "tags": ["restaurant", "food", "point_of_interest", "establishment"], "rating": 4, "website": "http://www.mamalee.ca/", "location": {"lat": 49.2640558, "lng": -123.175104}, "google_id": "ChIJU48nGKtzhlQRK80MsnfI3us"},{"name": "Tandoori Fusion", "address": "2872 W Broadway, Vancouver, BC V6K 2G7, Canada", "phone": "+1 604-738-2824", "tags": ["restaurant", "food", "point_of_interest", "establishment"], "rating": 4.2, "website": "https://lazymeal.com/menu/tandoorifusion?frame=t", "location": {"lat": 49.2639419, "lng": -123.169529}, "google_id": "ChIJJ6JdZaxzhlQRvV0VXg6k_8g"},{"name": "Cartems Donuts", "address": "3040 W Broadway, Vancouver, BC V6K 2H1, Canada", "phone": "+1 604-428-6372", "tags": ["bakery", "cafe", "restaurant", "food", "point_of_interest", "store", "establishment"], "rating": 4.5, "website": "http://cartems.com/", "location": {"lat": 49.26400919999999, "lng": -123.1729456}, "google_id": "ChIJV5vtcatzhlQRWt7uOCIH-tE"},{"name": "Pho Japolo", "address": "2807 W Broadway, Vancouver, BC V6K 2G7, Canada", "phone": "+1 604-737-1293", "tags": ["restaurant", "food", "point_of_interest", "establishment"], "rating": 4, "website": "http://www.phojapolo.com/", "location": {"lat": 49.2642062, "lng": -123.1686925}, "google_id": "ChIJ7ZJLXaxzhlQRxxQbb2cMfTg"},{"name": "Silk N Spice", "address": "3035 W Broadway, Vancouver, BC V6K 2G9, Canada", "phone": "+1 604-734-5881", "tags": ["restaurant", "food", "point_of_interest", "establishment"], "rating": 4.7, "website": "http://www.eastiseast.ca/", "location": {"lat": 49.2643887, "lng": -123.1726934}, "google_id": "ChIJA6Be2KpzhlQRY-MxCdfNIIE"},{"name": "Pure Delight Caf\u00e9", "address": "3236 W Broadway, Vancouver, BC V6K 2H4, Canada", "phone": "+1 604-568-8812", "tags": ["restaurant", "food", "point_of_interest", "establishment"], "rating": 4, "website": "https://www.puredelightcafe.com/", "location": {"lat": 49.2640653, "lng": -123.1766864}, "google_id": "ChIJi6s62qpzhlQRvICqE4kUZs4"},{"name": "Deacon's Corner Kits", "address": "3189 W Broadway, Vancouver, BC V6K 2H2, Canada", "phone": "+1 778-379-3727", "tags": ["restaurant", "food", "point_of_interest", "establishment"], "rating": 4.2, "website": "https://www.deaconscorner.ca/", "location": {"lat": 49.2643674, "lng": -123.1757517}, "google_id": "ChIJn7YoIqtzhlQR-LVt4GEykwY"},{"name": "Donair Dude", "address": "3209 W Broadway, Vancouver, BC V6K 2H5, Canada", "phone": "+1 604-564-1294", "tags": ["restaurant", "food", "point_of_interest", "establishment"], "rating": 4.3, "website": "http://www.donairdude.com/", "location": {"lat": 49.26433400000001, "lng": -123.176389}, "google_id": "ChIJjWFvJ6tzhlQRb28fkiHy7-U"},{"name": "Minerva Restaurant", "address": "2411 W 41st Ave, Vancouver, BC V6M 2A5, Canada", "phone": "+1 604-263-1774", "tags": ["restaurant", "food", "point_of_interest", "establishment"], "rating": 4.4, "website": "http://www.minervas.ca/", "location": {"lat": 49.2347841, "lng": -123.1615844}, "google_id": "ChIJWSFJtnpzhlQRfhTTUMJTgPU"},{"name": "Cuisine By Design", "address": "5343 Yew St, Vancouver, BC V6M 3X7, Canada", "phone": "+1 604-681-5011", "tags": ["restaurant", "food", "point_of_interest", "establishment"], "rating": "", "website": "http://www.cuisinebydesign.ca/", "location": {"lat": 49.2383286, "lng": -123.1584035}, "google_id": "ChIJgc71t3BzhlQRUUSLXKZ-Pvc"},{"name": "Strike", "address": "3217 W Broadway, Vancouver, BC V6K 2H5, Canada", "phone": "+1 604-558-3217", "tags": ["meal_delivery", "meal_takeaway", "restaurant", "food", "point_of_interest", "establishment"], "rating": 3.8, "website": "http://www.strikerestaurant.ca/", "location": {"lat": 49.2643567, "lng": -123.1765489}, "google_id": "ChIJc4fA2KpzhlQRWokvhT5VkOk"},{"name": "Thai Basil Restaurant", "address": "3271 W Broadway, Vancouver, BC V6K 2H5, Canada", "phone": "+1 778-379-8424", "tags": ["restaurant", "food", "point_of_interest", "establishment"], "rating": 4.2, "website": "http://thaibasilvancouver.ca/", "location": {"lat": 49.2643506, "lng": -123.1772207}, "google_id": "ChIJ11Fv2qpzhlQRmImvfi_fK0A"},{"name": "Green Leaf Sushi", "address": "3416 W Broadway, Vancouver, BC V6R 2B3, Canada", "phone": "+1 604-568-9406", "tags": ["restaurant", "food", "point_of_interest", "establishment"], "rating": 4.4, "website": "", "location": {"lat": 49.264136, "lng": -123.180152}, "google_id": "ChIJ01q5UlVyhlQR7pkkpLz3Pkg"},{"name": "Coppertank Grill", "address": "3162 W Broadway, Vancouver, BC V6K 2H3, Canada", "phone": "+1 778-237-3372", "tags": ["bar", "restaurant", "food", "point_of_interest", "establishment"], "rating": 3.9, "website": "http://coppertankgrill.com/", "location": {"lat": 49.264003, "lng": -123.1753379}, "google_id": "ChIJkVJSFqtzhlQR1yz_rgo4nlc"},{"name": "Gramercy Grill", "address": "2111 W 11th Ave, Vancouver, BC V6K 4V6, Canada", "phone": "+1 604-730-5666", "tags": ["restaurant", "food", "point_of_interest", "establishment"], "rating": 4.3, "website": "http://www.gramercy-grill.com/", "location": {"lat": 49.2620914, "lng": -123.1533469}, "google_id": "ChIJS-H9h7BzhlQRIGQrTzRlGXs"},{"name": "Uncle Fatih's Pizza - KITSILANO", "address": "2778 W Broadway, Vancouver, BC V6K 1V9, Canada", "phone": "+1 604-733-3355", "tags": ["restaurant", "food", "point_of_interest", "establishment"], "rating": 4.2, "website": "http://www.unclefatih.com/", "location": {"lat": 49.2639258, "lng": -123.1676966}, "google_id": "ChIJE00VR6xzhlQRqTQ-CccmpBA"},{"name": "Nourish Cooking School", "address": "2245 W Broadway, Vancouver, BC V6K 2E4, Canada", "phone": "+1 778-389-3411", "tags": ["cafe", "restaurant", "food", "health", "point_of_interest", "store", "establishment"], "rating": 4.9, "website": "http://www.nourishvancouver.ca/", "location": {"lat": 49.2641782, "lng": -123.1563626}, "google_id": "ChIJ8zwkgnhxhlQRYrTjLPqbBGA"},{"name": "Evelyn's Cafe & Bistro", "address": "2176 W Broadway, Vancouver, BC V6K 2C8, Canada", "phone": "+1 604-731-7117", "tags": ["cafe", "restaurant", "food", "point_of_interest", "establishment"], "rating": 4.2, "website": "", "location": {"lat": 49.26368220000001, "lng": -123.1545922}, "google_id": "ChIJz0QF_bBzhlQRnIQjfGVUQZY"},{"name": "Nat's New York Pizzeria", "address": "2684 W Broadway, Vancouver, BC V6K 2G3, Canada", "phone": "+1 604-737-0707", "tags": ["restaurant", "food", "point_of_interest", "establishment"], "rating": 4.5, "website": "http://www.natspizza.com/", "location": {"lat": 49.2638609, "lng": -123.1659229}, "google_id": "ChIJOahPM6xzhlQR8nwX09KxOiE"},{"name": "Yagger's Kitsilano Restaurant", "address": "2884 W Broadway, Vancouver, BC V6K 2G7, Canada", "phone": "+1 604-733-3002", "tags": ["bar", "restaurant", "food", "point_of_interest", "establishment"], "rating": 4.3, "website": "http://www.yaggers.com/", "location": {"lat": 49.263948, "lng": -123.1696233}, "google_id": "ChIJW7VOZaxzhlQRrD4pdCKVajI"},{"name": "Silk Project The", "address": "1541 W 6th Ave, Vancouver, BC V6J 1R1, Canada", "phone": "+1 604-732-3314", "tags": ["restaurant", "food", "point_of_interest", "establishment"], "rating": "", "website": "", "location": {"lat": 49.2665784, "lng": -123.1622946}, "google_id": "ChIJk0Z0e8hzhlQRRgcECWnnUi4"},{"name": "Subway", "address": "4665 Arbutus St, Vancouver, BC V6K 4A3, Canada", "phone": "+1 604-267-7775", "tags": ["restaurant", "food", "point_of_interest", "establishment"], "rating": 3.6, "website": "http://www.subway.com/", "location": {"lat": 49.2445573, "lng": -123.1538758}, "google_id": "ChIJpS5y-51zhlQRi-ewR0hCzYA"},{"name": "The PokeMan Kakigori Cafe & Poke Shop", "address": "3742 W 10th Ave, Vancouver, BC V6R 2G4, Canada", "phone": "+1 604-428-7653", "tags": ["restaurant", "food", "point_of_interest", "establishment"], "rating": 4.5, "website": "http://www.pokemanvancouver.com/", "location": {"lat": 49.2633865, "lng": -123.1866765}, "google_id": "ChIJHdPBSP5yhlQR9Y-4PMzTXpI"},{"name": "Dunbar Pizza & Indian Food", "address": "3348 Dunbar St, Vancouver, BC V6S 2C1, Canada", "phone": "+1 604-732-4999", "tags": ["meal_delivery", "meal_takeaway", "restaurant", "food", "point_of_interest", "establishment"], "rating": 4.3, "website": "http://www.dunbarpizzaindianfood.com/", "location": {"lat": 49.25703739999999, "lng": -123.1849109}, "google_id": "ChIJCb4WYgRzhlQRzjQuBSuSamg"},{"name": "COLONY", "address": "3255 W Broadway, Vancouver, BC V6K 2H5, Canada", "phone": "+1 604-559-6070", "tags": ["restaurant", "bar", "food", "point_of_interest", "establishment"], "rating": 4.2, "website": "http://colonykits.com/", "location": {"lat": 49.2644181, "lng": -123.1769327}, "google_id": "ChIJObmF2apzhlQRXFzy45lL4yQ"},{"name": "Wild Sushi", "address": "4288 Dunbar St, Vancouver, BC V6S 2G1, Canada", "phone": "+1 604-568-9668", "tags": ["restaurant", "food", "point_of_interest", "establishment"], "rating": 3.8, "website": "", "location": {"lat": 49.2483133, "lng": -123.185019}, "google_id": "ChIJIUDCVBBzhlQRHVIhkOO6TWQ"},{"name": "Kokopelli Caf\u00e9 Ltd.", "address": "4593 Dunbar St, Vancouver, BC V6S 2G7, Canada", "phone": "+1 604-559-7020", "tags": ["cafe", "restaurant", "food", "point_of_interest", "store", "establishment"], "rating": 4.4, "website": "http://www.kokopellicafe.ca/", "location": {"lat": 49.24540020000001, "lng": -123.1854527}, "google_id": "ChIJxyxP_RNzhlQRdg3uMbVn2HY"},{"name": "The Cheese Inn", "address": "4585 Dunbar St, Vancouver, BC V6S 2G7, Canada", "phone": "+1 604-620-1951", "tags": ["bar", "restaurant", "food", "point_of_interest", "establishment"], "rating": 4.1, "website": "https://www.cheeseinn.com/", "location": {"lat": 49.2454633, "lng": -123.1854497}, "google_id": "ChIJWeksWBFzhlQRVCurx0ms_QE"},{"name": "SAFERhome Standards Society", "address": "2006 W 10th Ave #205, Vancouver, BC V6J 2B3, Canada", "phone": "+1 250-546-6775", "tags": ["cafe", "restaurant", "food", "point_of_interest", "establishment"], "rating": 5, "website": "http://saferhomesociety.com/", "location": {"lat": 49.2626933, "lng": -123.1509871}, "google_id": "ChIJb2jmpLBzhlQRy2fh0hDRt1U"},{"name": "Sunshine Diner", "address": "2649 W Broadway, Vancouver, BC V6K 2G2, Canada", "phone": "+1 604-733-7717", "tags": ["restaurant", "food", "point_of_interest", "establishment"], "rating": 4.3, "website": "", "location": {"lat": 49.26422700000001, "lng": -123.165399}, "google_id": "ChIJW0Mtya1zhlQRLI5-bJxEaLY"},{"name": "Dharma Kitchen", "address": "3667 W Broadway, Vancouver, BC V6R 2B8, Canada", "phone": "+1 604-738-3899", "tags": ["restaurant", "food", "point_of_interest", "establishment"], "rating": 4.5, "website": "http://www.dharmakitchen.ca/", "location": {"lat": 49.26448370000001, "lng": -123.1852538}, "google_id": "ChIJU0kOJf9yhlQRnIUqtk9rSFY"}]