[{"name": "Subway", "address": "3026 Edgemont Blvd, North Vancouver, BC V7R 2X4, Canada", "phone": "+1 604-904-5338", "tags": ["restaurant", "food", "point_of_interest", "establishment"], "rating": 3.3, "website": "http://www.subway.com/", "location": {"lat": 49.336913, "lng": -123.1008444}, "google_id": "ChIJqVYjs9dvhlQRnoc-Fta059g"},{"name": "Tomahawk Restaurant", "address": "1550 Philip Ave, North Vancouver, BC V7P 2V8, Canada", "phone": "+1 604-988-2612", "tags": ["restaurant", "food", "point_of_interest", "establishment"], "rating": 4.1, "website": "http://www.tomahawkrestaurant.com/", "location": {"lat": 49.3227535, "lng": -123.1131716}, "google_id": "ChIJkeAKWtBxhlQR0AUTQQQH9N4"},{"name": "Cactus Club Cafe North Vancouver", "address": "1598 Pemberton Ave, North Vancouver, BC V7P 2S2, Canada", "phone": "+1 604-986-5776", "tags": ["restaurant", "bar", "food", "point_of_interest", "establishment"], "rating": 4.3, "website": "https://www.cactusclubcafe.com/?utm_source=google-maps&utm_medium=organic&utm_campaign=north-vancouver/", "location": {"lat": 49.3227746, "lng": -123.1075299}, "google_id": "ChIJu1hPHtJxhlQR5X3gOhBzS00"},{"name": "Denny's", "address": "2050 Marine Dr, North Vancouver, BC V7P 1V7, Canada", "phone": "+1 604-980-8210", "tags": ["restaurant", "food", "point_of_interest", "establishment"], "rating": 3.8, "website": "https://locations.dennys.ca/BC/NORTH-VANCOUVER/247773", "location": {"lat": 49.32518599999999, "lng": -123.123645}, "google_id": "ChIJlbtYS9hxhlQReocGJf8oBeg"},{"name": "Pho Japolo", "address": "2070 Marine Dr, North Vancouver, BC V7P 1V7, Canada", "phone": "+1 604-985-3993", "tags": ["restaurant", "food", "point_of_interest", "establishment"], "rating": 4.2, "website": "http://www.phojapolo.com/", "location": {"lat": 49.3251374, "lng": -123.1242858}, "google_id": "ChIJG1iGTNhxhlQRql-FdLT8Ltc"},{"name": "Sushi Town", "address": "1227 Marine Dr, North Vancouver, BC V7P 1T3, Canada", "phone": "+1 604-984-6155", "tags": ["restaurant", "food", "point_of_interest", "establishment"], "rating": 3.8, "website": "", "location": {"lat": 49.32375390000001, "lng": -123.108407}, "google_id": "ChIJyxNTLtJxhlQRvlp5ck2SDOk"},{"name": "Kypriaki Mediterranean Grill", "address": "1346 Marine Dr #106, North Vancouver, BC V7P 1T4, Canada", "phone": "+1 604-985-7955", "tags": ["restaurant", "food", "point_of_interest", "establishment"], "rating": 4.1, "website": "http://www.kypriaki.ca/", "location": {"lat": 49.32413699999999, "lng": -123.1119572}, "google_id": "ChIJXcL0bNFxhlQRwval1UMi4Wc"},{"name": "Pizza Hut", "address": "640-879 Marine Dr, North Vancouver, BC V7P 1R7, Canada", "phone": "+1 604-985-5883", "tags": ["meal_delivery", "meal_takeaway", "restaurant", "food", "point_of_interest", "establishment"], "rating": 3, "website": "https://www.pizzahut.ca/store-details/store-R31117/pizza-hut-N.-Vancouver", "location": {"lat": 49.3216338, "lng": -123.0981337}, "google_id": "ChIJAfbZLc1xhlQRC73f84urZ8I"},{"name": "Edgemont Gourmet Meats", "address": "3109 Edgemont Blvd, North Vancouver, BC V7R 2N7, Canada", "phone": "+1 604-988-6328", "tags": ["restaurant", "food", "point_of_interest", "establishment"], "rating": 5, "website": "", "location": {"lat": 49.3375662, "lng": -123.1023221}, "google_id": "ChIJJdwCANdvhlQRFzPRojbmH1Y"},{"name": "Boston Pizza", "address": "1078 Marine Dr, North Vancouver, BC V7P 1S5, Canada", "phone": "+1 604-984-0407", "tags": ["restaurant", "food", "point_of_interest", "establishment"], "rating": 3.8, "website": "https://bostonpizza.com/north-vancouver", "location": {"lat": 49.3242583, "lng": -123.1039841}, "google_id": "ChIJ0Qt0mdJxhlQRrgxI-XZp7UM"},{"name": "Panago Pizza", "address": "1821 Capilano Rd, North Vancouver, BC V7P 3B5, Canada", "phone": "+1 866-310-0001", "tags": ["meal_delivery", "meal_takeaway", "restaurant", "food", "point_of_interest", "establishment"], "rating": 4.1, "website": "http://www.panago.com/", "location": {"lat": 49.3263903, "lng": -123.1204353}, "google_id": "ChIJDRozn9dxhlQRcRAt2Au3dxM"},{"name": "Halima Grill", "address": "935 Marine Dr, North Vancouver, BC V7P 1S1, Canada", "phone": "+1 604-984-7733", "tags": ["restaurant", "food", "point_of_interest", "establishment"], "rating": 3.8, "website": "http://www.halima-grill.com/", "location": {"lat": 49.32162109999999, "lng": -123.1011939}, "google_id": "ChIJsV8VMM1xhlQRqTgBSghEujk"},{"name": "A&W Canada", "address": "935 Marine Dr, North Vancouver, BC V7P 1S3, Canada", "phone": "+1 604-984-0809", "tags": ["restaurant", "food", "point_of_interest", "establishment"], "rating": 3.9, "website": "http://aw.ca/", "location": {"lat": 49.321901, "lng": -123.101114}, "google_id": "ChIJe18VMM1xhlQRXpC-BB8ZWOg"},{"name": "Taco Time", "address": "CAPILANO MALL, 935 Marine Dr, North Vancouver, BC V7P 1S1, Canada", "phone": "+1 604-980-1322", "tags": ["restaurant", "food", "point_of_interest", "establishment"], "rating": 2.8, "website": "http://www.tacotimecanada.com/", "location": {"lat": 49.32188970000001, "lng": -123.1014126}, "google_id": "ChIJsV8VMM1xhlQRu7B5CfiVjVw"},{"name": "Daisy Sandwiches & Such", "address": "1089 Roosevelt Crescent, North Vancouver, BC V7P 1M4, Canada", "phone": "+1 604-982-0883", "tags": ["restaurant", "food", "point_of_interest", "establishment"], "rating": 4.7, "website": "http://www.daisysandwiches.com/", "location": {"lat": 49.32190199999999, "lng": -123.104581}, "google_id": "ChIJf6F78s1xhlQRovrtM_Ab3xc"},{"name": "Jade Garden Kitchen", "address": "1195 Marine Dr, North Vancouver, BC V7P 1S8, Canada", "phone": "+1 604-980-9138", "tags": ["restaurant", "food", "point_of_interest", "establishment"], "rating": 4, "website": "http://www.jadegardenkitchen.ca/", "location": {"lat": 49.323709, "lng": -123.1073251}, "google_id": "ChIJ54BQN9JxhlQR6YQMnoQhnQc"},{"name": "White Spot Pemberton Plaza", "address": "1226 Marine Dr #107, North Vancouver, BC V7P 1T2, Canada", "phone": "+1 604-990-0440", "tags": ["restaurant", "food", "point_of_interest", "establishment"], "rating": 3.9, "website": "http://www.whitespot.ca/", "location": {"lat": 49.3241323, "lng": -123.1086044}, "google_id": "ChIJQYXLMtJxhlQRlJldoeVWVNU"},{"name": "One More Szechuan Chinese Cuisine \u4e00\u805a\u5c0f\u9928", "address": "1262 Marine Dr, North Vancouver, BC V7P 1T2, Canada", "phone": "+1 604-929-3000", "tags": ["meal_delivery", "meal_takeaway", "restaurant", "food", "point_of_interest", "establishment"], "rating": 4.2, "website": "http://onemoreszechuan.ca/", "location": {"lat": 49.32493329999999, "lng": -123.109875}, "google_id": "ChIJF7i7f9FxhlQRyDo3nIbB9z4"},{"name": "Subway", "address": "1034 Marine Dr, North Vancouver, BC V7P 1S6, Canada", "phone": "+1 604-984-7821", "tags": ["restaurant", "food", "point_of_interest", "establishment"], "rating": 3.7, "website": "https://www.subway.com/en-IN/FindAStore", "location": {"lat": 49.3240072, "lng": -123.1027367}, "google_id": "ChIJpcEamdJxhlQRoppChz93cpU"},{"name": "Orto Artisan Pasta", "address": "1600 Mackay Rd, North Vancouver, BC V7P 2M4, Canada", "phone": "+1 604-929-0203", "tags": ["restaurant", "food", "point_of_interest", "establishment"], "rating": 4.6, "website": "http://www.ortoartisanpasta.com/", "location": {"lat": 49.3231169, "lng": -123.1019663}, "google_id": "ChIJcSlWY81xhlQRtBJb9FGq6PY"},{"name": "Ming's Garden", "address": "965 Marine Drive North, North Vancouver, BC V7P 1S4, Canada", "phone": "+1 604-985-8115", "tags": ["restaurant", "food", "point_of_interest", "establishment"], "rating": 4.3, "website": "http://mingsgarden.ca/", "location": {"lat": 49.3232508, "lng": -123.1010248}, "google_id": "ChIJR-wsMfh0hlQRvBDJu-XTzHw"},{"name": "Subway", "address": "935 Marine Dr Unit 13, North Vancouver, BC V7P 1S3, Canada", "phone": "+1 778-340-8869", "tags": ["restaurant", "food", "point_of_interest", "establishment"], "rating": 3.4, "website": "http://www.subway.com/", "location": {"lat": 49.3219252, "lng": -123.1013262}, "google_id": "ChIJ6bDcGs1xhlQRfT2xkPpUJ3M"},{"name": "MOOYAH Burgers Fries & Shakes", "address": "1431 Marine Dr, North Vancouver, BC V7P 1T5, Canada", "phone": "+1 604-971-4611", "tags": ["restaurant", "food", "point_of_interest", "establishment"], "rating": 4, "website": "http://www.mooyah.com/", "location": {"lat": 49.32339109999999, "lng": -123.1139212}, "google_id": "ChIJmzAmGdFxhlQR56ykQJI-vNg"},{"name": "The Workshop Vegetarian Caf\u00e9", "address": "296 Pemberton Ave, North Vancouver, BC V7P 2R5, Canada", "phone": "+1 604-973-0163", "tags": ["cafe", "restaurant", "food", "point_of_interest", "store", "establishment"], "rating": 4.7, "website": "https://theworkshopvegetariancafe.com/", "location": {"lat": 49.320107, "lng": -123.1075809}, "google_id": "ChIJWYQ2R85xhlQRyy4ON7iW_vI"},{"name": "Gillaneh Grill House", "address": "222 Pemberton Ave, North Vancouver, BC V7P 2R5, Canada", "phone": "+1 604-904-3904", "tags": ["restaurant", "food", "point_of_interest", "establishment"], "rating": 3.7, "website": "", "location": {"lat": 49.3196474, "lng": -123.1075995}, "google_id": "ChIJ2SOgT85xhlQR11hU5eVvDvc"},{"name": "Donair Dude", "address": "Capilano Mall, 935 Marine Dr, North Vancouver, BC V7P 1S3, Canada", "phone": "+1 604-770-0550", "tags": ["restaurant", "food", "point_of_interest", "establishment"], "rating": 4, "website": "https://www.donairdude.com/", "location": {"lat": 49.3217529, "lng": -123.1001628}, "google_id": "ChIJi9xACM1xhlQR2ix1RO1N-LU"},{"name": "Crispy Delight", "address": "950 Marine Dr, North Vancouver, BC V7P 1R9, Canada", "phone": "+1 778-340-3142", "tags": ["restaurant", "food", "point_of_interest", "establishment"], "rating": 4.3, "website": "http://crispydelight.com/index.html", "location": {"lat": 49.3229398, "lng": -123.0990781}, "google_id": "ChIJwXi9YDNwhlQRVkfb1BZVJxY"},{"name": "A&W Canada", "address": "920 Marine Dr, North Vancouver, BC V7P 1R9, Canada", "phone": "+1 604-985-2733", "tags": ["restaurant", "food", "point_of_interest", "establishment"], "rating": 3.9, "website": "http://aw.ca/", "location": {"lat": 49.32290700000001, "lng": -123.098565}, "google_id": "ChIJnzYhNM1xhlQRDug7haR5Ut8"},{"name": "AFC SUSHI", "address": "845 Marine Dr #120, North Vancouver, BC V7P 0A8, Canada", "phone": "+1 604-929-2299", "tags": ["restaurant", "food", "point_of_interest", "establishment"], "rating": "", "website": "http://pickup.thriftyfoods.com/category.php?id=4", "location": {"lat": 49.3205545, "lng": -123.0962154}, "google_id": "ChIJ1-O_sMxxhlQR7GswHRuuDv0"},{"name": "Capilano Market", "address": "1847 Capilano Rd, North Vancouver, BC V7P 3B5, Canada", "phone": "+1 604-971-5999", "tags": ["grocery_or_supermarket", "restaurant", "food", "point_of_interest", "store", "establishment"], "rating": 4.6, "website": "https://www.facebook.com/CapilanoMarket", "location": {"lat": 49.3266228, "lng": -123.1201525}, "google_id": "ChIJxT6vo9dxhlQR_8xs1vb2LBY"},{"name": "Harbourside Cafe", "address": "108-828 Harbourside Dr, North Vancouver, BC V7P 3R9, Canada", "phone": "+1 604-980-7377", "tags": ["restaurant", "food", "point_of_interest", "establishment"], "rating": 4.5, "website": "", "location": {"lat": 49.314684, "lng": -123.0956159}, "google_id": "ChIJ180kE8pxhlQRZM-9KefD554"},{"name": "Hamaei Japanese Restaurant", "address": "2601 Westview Dr, North Vancouver, BC V7N 3X3, Canada", "phone": "+1 604-987-0080", "tags": ["restaurant", "food", "point_of_interest", "establishment"], "rating": 4.5, "website": "", "location": {"lat": 49.33317520000001, "lng": -123.0885321}, "google_id": "ChIJmXWK2CVwhlQRlCRLEcEC2-I"},{"name": "BjornBar Bakery", "address": "102-3053 Edgemont Blvd, North Vancouver, BC V7R 2N5, Canada", "phone": "+1 604-986-6886", "tags": ["bakery", "cafe", "restaurant", "food", "point_of_interest", "store", "establishment"], "rating": 4.5, "website": "https://www.bjornbarbakery.com/", "location": {"lat": 49.33691940000001, "lng": -123.1015856}, "google_id": "ChIJv2ektddvhlQRRG8d7Mtbe90"},{"name": "Freshslice Pizza", "address": "3111 Edgemont Blvd, North Vancouver, BC V7R 2N7, Canada", "phone": "+1 604-770-3475", "tags": ["meal_delivery", "meal_takeaway", "restaurant", "food", "point_of_interest", "establishment"], "rating": 3.5, "website": "http://www.freshslice.com/", "location": {"lat": 49.337615, "lng": -123.102352}, "google_id": "ChIJK8BeANdvhlQRTS67iiFF2gk"},{"name": "Edgemont Village", "address": "3145 Edgemont Blvd, North Vancouver, BC V7R 2N6, Canada", "phone": "", "tags": ["bakery", "post_office", "library", "finance", "park", "restaurant", "food", "point_of_interest", "store", "establishment"], "rating": 3.5, "website": "http://www.edgemontvillage.ca/", "location": {"lat": 49.33751389999999, "lng": -123.1016617}, "google_id": "ChIJZ-Ci_dZvhlQRIwJL1EbC5lk"},{"name": "Freshslice Pizza", "address": "WESTVIEW SHOPPING CENTRE, 2601 Westview Dr #608, North Vancouver, BC V7N 3X3, Canada", "phone": "+1 604-971-5161", "tags": ["meal_delivery", "meal_takeaway", "restaurant", "food", "point_of_interest", "establishment"], "rating": 3.8, "website": "http://www.freshslice.com/", "location": {"lat": 49.333019, "lng": -123.0884851}, "google_id": "ChIJmXWK2CVwhlQRuQZlhu2uacQ"},{"name": "La Cucina", "address": "1509 Marine Dr, North Vancouver, BC V7P 1T8, Canada", "phone": "+1 604-986-1334", "tags": ["restaurant", "food", "point_of_interest", "establishment"], "rating": 4.3, "website": "http://www.lacucinarestaurant.net/", "location": {"lat": 49.32374970000001, "lng": -123.1150398}, "google_id": "ChIJbdzM3tBxhlQRkb3moWZZ0f8"},{"name": "McDonald's", "address": "925 Marine Dr, North Vancouver, BC V7P 1S2, Canada", "phone": "+1 604-985-6757", "tags": ["cafe", "restaurant", "food", "point_of_interest", "establishment"], "rating": 3.6, "website": "https://www.mcdonalds.com/ca/en-ca/restaurant-locator.html", "location": {"lat": 49.32096129999999, "lng": -123.0995927}, "google_id": "ChIJ2V7BLs1xhlQREOaQm6Z24IE"},{"name": "Two Rivers Specialty Meats Ltd", "address": "180 Donaghy Ave, North Vancouver, BC V7P 2L5, Canada", "phone": "+1 604-990-5288", "tags": ["restaurant", "food", "point_of_interest", "establishment"], "rating": 4.6, "website": "http://www.tworiversmeats.ca/", "location": {"lat": 49.319022, "lng": -123.0964442}, "google_id": "ChIJjxrDYstxhlQRrkD3lLOhuzY"},{"name": "McDonald's", "address": "1219 Marine Dr, North Vancouver, BC V7P 1T3, Canada", "phone": "+1 604-904-4390", "tags": ["cafe", "restaurant", "food", "point_of_interest", "establishment"], "rating": 3.5, "website": "https://www.mcdonalds.com/ca/en-ca/restaurant-locator.html", "location": {"lat": 49.3237329, "lng": -123.1080083}, "google_id": "ChIJ71DFL9JxhlQRfXuH77D0Fp0"},{"name": "Louis Gervais Fine Foods & Catering", "address": "850 Harbourside Dr, North Vancouver, BC V7P 0A3, Canada", "phone": "+1 604-904-7720", "tags": ["restaurant", "food", "point_of_interest", "store", "establishment"], "rating": 4.7, "website": "https://www.louisgervaiscatering.com/", "location": {"lat": 49.3147479, "lng": -123.0971194}, "google_id": "ChIJ9eavHspxhlQRDeeK9ZY8C5s"},{"name": "Burger King", "address": "801 Marine Dr, North Vancouver, BC V7P 3K6, Canada", "phone": "+1 604-971-5100", "tags": ["restaurant", "food", "point_of_interest", "establishment"], "rating": 3.7, "website": "https://locations.burgerking.ca/bc/north-vancouver/801-marine-dr.html", "location": {"lat": 49.320729, "lng": -123.0957031}, "google_id": "ChIJlY0pSTNwhlQR9bErUzmmU8o"},{"name": "Florentine Pastry & cafe", "address": "1305 Welch St, North Vancouver, BC V7P 3B1, Canada", "phone": "+1 604-618-5720", "tags": ["restaurant", "food", "point_of_interest", "establishment"], "rating": "", "website": "", "location": {"lat": 49.3173688, "lng": -123.1120927}, "google_id": "ChIJNRr9fc9xhlQRKlum9GINnWY"},{"name": "Westview Oriental Restaurant Ltd", "address": "2609 Westview Dr #108, North Vancouver, BC V7N 4M2, Canada", "phone": "+1 604-987-7799", "tags": ["restaurant", "food", "point_of_interest", "establishment"], "rating": 3.5, "website": "http://www.westviewchinese.com/", "location": {"lat": 49.3334236, "lng": -123.0888578}, "google_id": "ChIJmXWK2CVwhlQRLqVkw3z5HFQ"},{"name": "Capilano Sushi", "address": "1240 Marine Dr, North Vancouver, BC V7P 1T2, Canada", "phone": "+1 604-929-7366", "tags": ["restaurant", "food", "point_of_interest", "establishment"], "rating": 4.1, "website": "https://capilano-sushi.com/", "location": {"lat": 49.3244271, "lng": -123.1081755}, "google_id": "ChIJRyYNK9JxhlQRrr7byP78R_A"},{"name": "De Dutch Pannekoek House", "address": "657 3rd St W, North Vancouver, BC V7M 1H1, Canada", "phone": "+1 604-988-7658", "tags": ["restaurant", "food", "point_of_interest", "establishment"], "rating": 4.2, "website": "http://www.dedutch.com/", "location": {"lat": 49.31927719999999, "lng": -123.0905731}, "google_id": "ChIJzQxc4TRwhlQROvuYzxakJlo"},{"name": "De Dutch Pannekoek House", "address": "1634 Capilano Rd, North Vancouver, BC V7P 3B4, Canada", "phone": "+1 604-985-0328", "tags": ["restaurant", "food", "point_of_interest", "store", "establishment"], "rating": 4, "website": "http://dedutch.com/", "location": {"lat": 49.3248567, "lng": -123.121643}, "google_id": "ChIJY0_S2tlxhlQRpSkRdttPOtg"},{"name": "McDonald's", "address": "2601 Westview Dr C600, North Vancouver, BC V7M 3X3, Canada", "phone": "+1 604-985-0203", "tags": ["cafe", "restaurant", "food", "point_of_interest", "establishment"], "rating": 3.4, "website": "https://www.mcdonalds.com/ca/en-ca/restaurant-locator.html", "location": {"lat": 49.3329599, "lng": -123.0884767}, "google_id": "ChIJmXWK2CVwhlQRMiR-Lf6pLQo"},{"name": "Delany's Coffee House", "address": "3099 Edgemont Blvd, North Vancouver, BC V7R 2N5, Canada", "phone": "+1 604-985-3385", "tags": ["cafe", "restaurant", "food", "point_of_interest", "store", "establishment"], "rating": 4.4, "website": "https://www.delanyscoffee.com/", "location": {"lat": 49.3373576, "lng": -123.1019334}, "google_id": "ChIJw2Baq9dvhlQRdWnIrrpvIcs"},{"name": "Sushi Man Restaurant", "address": "1307 Marine Dr, North Vancouver, BC V7P 3E5, Canada", "phone": "+1 604-990-8821", "tags": ["restaurant", "food", "point_of_interest", "establishment"], "rating": 4, "website": "", "location": {"lat": 49.3237315, "lng": -123.1110381}, "google_id": "ChIJ-TMqd9FxhlQROPRGzXnJ7Tk"},{"name": "C-Lovers Fish & Chips", "address": "1660 Pemberton Ave, North Vancouver, BC V7P 3M1, Canada", "phone": "+1 604-980-9993", "tags": ["restaurant", "food", "point_of_interest", "establishment"], "rating": 4.3, "website": "http://c-lovers.com/", "location": {"lat": 49.32450499999999, "lng": -123.1075486}, "google_id": "ChIJNTkdMdJxhlQRcJH_6Ta39SA"},{"name": "Domino's Pizza", "address": "1182 Marine Dr, North Vancouver, BC V7P 1S8, Canada", "phone": "+1 604-770-3300", "tags": ["meal_delivery", "meal_takeaway", "restaurant", "food", "point_of_interest", "establishment"], "rating": 3.9, "website": "https://pizza.dominos.ca/North-Vancouver-British-Columbia-39025/", "location": {"lat": 49.32430859999999, "lng": -123.1065528}, "google_id": "ChIJtxR6SNJxhlQRrUdX1M9QA6I"},{"name": "Cazba Commissary", "address": "1059 Churchill Crescent, North Vancouver, BC V7P 1P9, Canada", "phone": "+1 778-851-2313", "tags": ["restaurant", "food", "point_of_interest", "establishment"], "rating": "", "website": "http://cazbarestaurant.com/", "location": {"lat": 49.3228081, "lng": -123.1038594}, "google_id": "ChIJFW3HI_NxhlQRMvkpLldsgu8"},{"name": "Quiznos", "address": "1303 Marine Dr, North Vancouver, BC V7P 3E5, Canada", "phone": "+1 604-987-8208", "tags": ["restaurant", "food", "point_of_interest", "store", "establishment"], "rating": 4.5, "website": "http://www.quiznos.ca/en/", "location": {"lat": 49.3237226, "lng": -123.1109001}, "google_id": "ChIJDd3pcNFxhlQR2MGgHYsjIvI"},{"name": "Douce Diner", "address": "1490 Pemberton Ave, North Vancouver, BC V7P 2S1, Canada", "phone": "+1 604-980-2510", "tags": ["restaurant", "food", "point_of_interest", "establishment"], "rating": 4.7, "website": "http://www.doucediner.com/", "location": {"lat": 49.321964, "lng": -123.1076348}, "google_id": "ChIJM2MeLFNxhlQRrmUibcvmQqE"},{"name": "Hearthstone Brewery", "address": "1015 Marine Dr, North Vancouver, BC V7P 1S6, Canada", "phone": "+1 604-984-1842", "tags": ["liquor_store", "restaurant", "food", "point_of_interest", "store", "establishment"], "rating": 4, "website": "http://www.hearthstonebrewery.ca/", "location": {"lat": 49.323552, "lng": -123.1025112}, "google_id": "ChIJgxVKmdJxhlQRmlvO_zyEE5w"},{"name": "Smoke and Bones BBQ", "address": "999 Marine Dr, North Vancouver, BC V7P 1S4, Canada", "phone": "+1 604-770-1394", "tags": ["restaurant", "food", "point_of_interest", "establishment"], "rating": 4.4, "website": "http://www.smokeandbones.ca/", "location": {"lat": 49.32357599999999, "lng": -123.101946}, "google_id": "ChIJZ4bQMpFvhlQR-KfWP0Z8ib8"},{"name": "Lion hot pot Ltd", "address": "1356 Marine Dr, North Vancouver, BC V7P 1T4, Canada", "phone": "+1 604-770-0977", "tags": ["restaurant", "food", "point_of_interest", "establishment"], "rating": 4.6, "website": "http://lion-hot-pot-ltd.business.site/", "location": {"lat": 49.32404039999999, "lng": -123.1121942}, "google_id": "ChIJk5hZE9FxhlQR9_RoiLRznyc"},{"name": "Edo Japan", "address": "935 Marine Dr, North Vancouver, BC V7P 1S3, Canada", "phone": "+1 604-986-9573", "tags": ["restaurant", "food", "point_of_interest", "establishment"], "rating": 1.6, "website": "https://www.edojapan.com/", "location": {"lat": 49.3219358, "lng": -123.1012547}, "google_id": "ChIJe18VMM1xhlQRGFujewfpXXw"},{"name": "Manchu Wok", "address": "#11, 935 Marine Drive, Capilano Mall, North Vancouver, BC V7P 1S3, Canada", "phone": "+1 604-980-4129", "tags": ["restaurant", "food", "point_of_interest", "establishment"], "rating": 1.7, "website": "http://www.manchuwok.com/?utm_source=G&utm_medium=LPM&utm_campaign=MTY", "location": {"lat": 49.32193090000001, "lng": -123.1011697}, "google_id": "ChIJsV8VMM1xhlQRZzQJffupYLE"}]