[{"name": "Fairmont Hotel Vancouver", "address": "900 W Georgia St, Vancouver, BC V6C 2W6, Canada", "phone": "+1 604-684-3131", "tags": ["lodging", "restaurant", "food", "point_of_interest", "establishment"], "rating": 4.5, "website": "https://www.fairmont.com/hotel-vancouver/", "location": {"lat": 49.2837928, "lng": -123.1209888}, "google_id": "ChIJHbH93TGoqEwRMwrQGCOk9B4"},{"name": "Hotel Fairmont Pacific Rim", "address": "1038 Canada Pl, Vancouver, BC V6C 0B9, Canada", "phone": "+1 604-695-5300", "tags": ["lodging", "restaurant", "food", "point_of_interest", "establishment"], "rating": 4.6, "website": "https://www.fairmont.com/pacific-rim-vancouver/", "location": {"lat": 49.2880938, "lng": -123.1165232}, "google_id": "ChIJgzLyCINxhlQRkHq8urzYQ2Y"},{"name": "Italian Kitchen", "address": "860 Burrard St, Vancouver, BC V6Z 1X9, Canada", "phone": "+1 604-687-2858", "tags": ["bar", "restaurant", "food", "point_of_interest", "store", "establishment"], "rating": 4.1, "website": "http://www.glowbalgroup.com/italiankitchen", "location": {"lat": 49.2825272, "lng": -123.123559}, "google_id": "ChIJxRdotIFxhlQRY7DFe7zRkho"},{"name": "Subway", "address": "T1 Food Court, Royal Centre, 1055 W Georgia St Unit 232, Vancouver, BC V6E 3P3, Canada", "phone": "+1 604-622-7787", "tags": ["restaurant", "food", "point_of_interest", "establishment"], "rating": 3.2, "website": "http://www.subway.com/", "location": {"lat": 49.2853401, "lng": -123.1215685}, "google_id": "ChIJwzHipIFxhlQRSKY9IKkeNks"},{"name": "Caffe Artigiano", "address": "740 W Hastings St, Vancouver, BC V6C 1A3, Canada", "phone": "+1 604-915-7200", "tags": ["cafe", "restaurant", "food", "point_of_interest", "establishment"], "rating": 4.2, "website": "http://www.caffeartigiano.com/", "location": {"lat": 49.28571079999999, "lng": -123.1147683}, "google_id": "ChIJWSTLYoJxhlQRwhZ0jy-0xS4"},{"name": "Joe Fortes Seafood & Chop House", "address": "777 Thurlow St, Vancouver, BC V6E 3V5, Canada", "phone": "+1 604-669-1940", "tags": ["restaurant", "food", "point_of_interest", "establishment"], "rating": 4.5, "website": "http://www.joefortes.ca/", "location": {"lat": 49.2849522, "lng": -123.1245634}, "google_id": "ChIJiUwIWIBxhlQRzKG3k_9C-T8"},{"name": "Shabusen Yakiniku House", "address": "755 Burrard St #202, Vancouver, BC V6Z 1X6, Canada", "phone": "+1 604-669-3883", "tags": ["restaurant", "food", "point_of_interest", "establishment"], "rating": 3.8, "website": "http://www.shabusenyakiniku.com/", "location": {"lat": 49.2839983, "lng": -123.1223368}, "google_id": "ChIJ5Ts9M4BxhlQR_rjCXBU5V_M"},{"name": "JOEY Burrard", "address": "820 Burrard St, Vancouver, BC V6Z 1X9, Canada", "phone": "+1 604-683-5639", "tags": ["restaurant", "bar", "food", "point_of_interest", "establishment"], "rating": 4.3, "website": "https://joeyrestaurants.com/location/joey-burrard/menu#food", "location": {"lat": 49.2826099, "lng": -123.1231885}, "google_id": "ChIJx8zDGIBxhlQRU-OFjaGa-6Q"},{"name": "Cactus Club Cafe", "address": "588 Burrard St, Vancouver, BC V6C 0A8, Canada", "phone": "+1 604-682-0933", "tags": ["restaurant", "bar", "food", "point_of_interest", "establishment"], "rating": 4.3, "website": "https://www.cactusclubcafe.com/?utm_source=google-maps&utm_medium=organic&utm_campaign=bentall-5", "location": {"lat": 49.2855293, "lng": -123.1186381}, "google_id": "ChIJLwP4IIJxhlQRN41rdASKST0"},{"name": "Coast", "address": "1054 Alberni St, Vancouver, BC V6E 1A3, Canada", "phone": "+1 604-685-5010", "tags": ["night_club", "bar", "restaurant", "food", "point_of_interest", "establishment"], "rating": 4.2, "website": "http://www.glowbalgroup.com/coast/", "location": {"lat": 49.2847379, "lng": -123.1231543}, "google_id": "ChIJ_cDEUoBxhlQRCIVLWrVfO0A"},{"name": "Prestons Restaurant + Lounge Vancouver", "address": "1177 W Pender St, Vancouver, BC V6E 2P4, Canada", "phone": "+1 604-673-2173", "tags": ["restaurant", "food", "point_of_interest", "establishment"], "rating": 3.9, "website": "http://www.prestonsrestaurant.ca/vancouver/", "location": {"lat": 49.2882533, "lng": -123.1222934}, "google_id": "ChIJ1-V8VYFxhlQRrV7eXCmKzDg"},{"name": "Cafe Crepe", "address": "574 Granville St, Vancouver, BC V6C 1W6, Canada", "phone": "+1 604-428-0936", "tags": ["restaurant", "food", "point_of_interest", "store", "establishment"], "rating": 3.9, "website": "http://www.cafecrepe.com/", "location": {"lat": 49.2837828, "lng": -123.1158762}, "google_id": "ChIJscRIzH9xhlQRoaVFekF8YZU"},{"name": "Cactus Club Cafe Coal Harbour", "address": "1085 Canada Pl, Vancouver, BC V6C 3E1, Canada", "phone": "+1 604-620-7410", "tags": ["restaurant", "bar", "food", "point_of_interest", "establishment"], "rating": 4.4, "website": "https://www.cactusclubcafe.com/?utm_source=google-maps&utm_medium=organic&utm_campaign=coal-harbour", "location": {"lat": 49.28951659999999, "lng": -123.1178751}, "google_id": "ChIJ9efnfINxhlQRKovtjwKKJGA"},{"name": "Trees Organic Coffee", "address": "450 Granville St, Vancouver, BC V6C 1V4, Canada", "phone": "+1 604-684-5022", "tags": ["cafe", "restaurant", "food", "point_of_interest", "store", "establishment"], "rating": 4.2, "website": "http://www.treescoffee.com/", "location": {"lat": 49.28484419999999, "lng": -123.1142989}, "google_id": "ChIJx19lhHhxhlQR00Wyx2MBMZc"},{"name": "Showcase Restaurant & Bar", "address": "1122 W Hastings St, Vancouver, BC V6E 4J6, Canada", "phone": "+1 604-639-4040", "tags": ["restaurant", "bar", "food", "point_of_interest", "establishment"], "rating": 4.1, "website": "http://www.showcaserestaurant.com/", "location": {"lat": 49.28792410000001, "lng": -123.120156}, "google_id": "ChIJUwY964NxhlQRslxEl4a2VZM"},{"name": "YEW seafood + bar", "address": "791 W Georgia St, Vancouver, BC V6C 2T4, Canada", "phone": "+1 604-692-4939", "tags": ["night_club", "bar", "restaurant", "food", "point_of_interest", "establishment"], "rating": 4.3, "website": "http://www.yewseafood.com/?seo=google_local_vcr2_amer", "location": {"lat": 49.2837763, "lng": -123.1179759}, "google_id": "ChIJ0dIfXX9xhlQR8w5AVyxVNq0"},{"name": "Hawksworth Restaurant", "address": "801 W Georgia St, Vancouver, BC V6C 1P7, Canada", "phone": "+1 604-673-7000", "tags": ["restaurant", "food", "point_of_interest", "establishment"], "rating": 4.5, "website": "https://hawksworthrestaurant.com/", "location": {"lat": 49.2834532, "lng": -123.1192387}, "google_id": "ChIJSQDA8oZ0hlQR_IFn3VHeS4w"},{"name": "Black+Blue", "address": "1032 Alberni St, Vancouver, BC V6E 1A3, Canada", "phone": "+1 604-637-0777", "tags": ["bar", "restaurant", "food", "point_of_interest", "establishment"], "rating": 4.2, "website": "http://www.glowbalgroup.com/blackblue", "location": {"lat": 49.28454499999999, "lng": -123.122855}, "google_id": "ChIJu1r9tIFxhlQRsfy5cILqdDs"},{"name": "Market by Jean-Georges", "address": "1115 Alberni St, Vancouver, BC V6E 0A8, Canada", "phone": "+1 604-695-1115", "tags": ["restaurant", "bar", "food", "point_of_interest", "establishment"], "rating": 4.4, "website": "http://marketkitchen.com/market_by_jean_georges_vancouver", "location": {"lat": 49.28570800000001, "lng": -123.1240551}, "google_id": "ChIJRyf0AoFxhlQR6lSCeRI1EWw"},{"name": "Hy's Steakhouse & Cocktail Bar", "address": "637 Hornby St, Vancouver, BC V6C 2G3, Canada", "phone": "+1 604-683-7671", "tags": ["night_club", "bar", "restaurant", "food", "point_of_interest", "establishment"], "rating": 4.5, "website": "http://www.hyssteakhouse.com/", "location": {"lat": 49.2845532, "lng": -123.1191216}, "google_id": "ChIJac8y5YFxhlQREyXwwjAHohw"},{"name": "Gotham Steakhouse & Cocktail Bar", "address": "615 Seymour St, Vancouver, BC V6B 3K3, Canada", "phone": "+1 604-605-8282", "tags": ["restaurant", "food", "point_of_interest", "establishment"], "rating": 4.5, "website": "http://www.gothamsteakhouse.com/", "location": {"lat": 49.282868, "lng": -123.11585}, "google_id": "ChIJVQQVMn9xhlQRfFSHaGDN_EY"},{"name": "Kirin Restaurant", "address": "1172 Alberni St, Vancouver, BC V6E 1A5, Canada", "phone": "+1 604-682-8833", "tags": ["restaurant", "food", "point_of_interest", "establishment"], "rating": 3.7, "website": "http://www.kirinrestaurants.com/", "location": {"lat": 49.2862703, "lng": -123.1256525}, "google_id": "ChIJVZxs3oBxhlQRmEIXUlNTCEQ"},{"name": "Guu Original Thurlow", "address": "838 Thurlow St, Vancouver, BC V6E 1W2, Canada", "phone": "+1 604-685-8817", "tags": ["restaurant", "food", "point_of_interest", "establishment"], "rating": 4.4, "website": "http://guu-izakaya.com/location/#Original", "location": {"lat": 49.2840076, "lng": -123.1254334}, "google_id": "ChIJOeYve4BxhlQRfPFG8Wik9YI"},{"name": "CinCin Ristorante + Bar", "address": "1154 Robson St, Vancouver, BC V6E 1B2, Canada", "phone": "+1 604-688-7338", "tags": ["bar", "restaurant", "food", "point_of_interest", "establishment"], "rating": 4.4, "website": "http://cincin.net/", "location": {"lat": 49.285261, "lng": -123.1261391}, "google_id": "ChIJ7WzZ7IBxhlQRSVRBfdNFvfQ"},{"name": "Caf\u00e9 Cr\u00eape", "address": "1032 Robson St, Vancouver, BC V6E 1A7, Canada", "phone": "+1 604-488-0045", "tags": ["cafe", "restaurant", "food", "point_of_interest", "establishment"], "rating": 4, "website": "http://www.cafecrepe.com/", "location": {"lat": 49.2836699, "lng": -123.1236402}, "google_id": "ChIJ66GqQIBxhlQR52A12EoHwfo"},{"name": "Kobe Japanese Steakhouse", "address": "1042 Alberni St, Vancouver, BC V6E 1A3, Canada", "phone": "+1 604-684-2451", "tags": ["bar", "restaurant", "food", "point_of_interest", "establishment"], "rating": 4.2, "website": "https://koberestaurant.com/kobe-reservations/", "location": {"lat": 49.2845269, "lng": -123.122775}, "google_id": "ChIJOfngsoFxhlQRhPYhX-9xsNs"},{"name": "Urban Fare", "address": "1133 Alberni St, Vancouver, BC V6E 4T9, Canada", "phone": "+1 604-648-2053", "tags": ["grocery_or_supermarket", "meal_takeaway", "restaurant", "food", "point_of_interest", "store", "establishment"], "rating": 4.1, "website": "http://www.urbanfare.com/", "location": {"lat": 49.2859472, "lng": -123.1243284}, "google_id": "ChIJEeP1HYFxhlQRQe5IxZwviV8"},{"name": "The Keg Steakhouse + Bar - Dunsmuir", "address": "688 Dunsmuir St, Vancouver, BC V6B 1N3, Canada", "phone": "+1 604-685-7502", "tags": ["bar", "restaurant", "food", "point_of_interest", "establishment"], "rating": 4.3, "website": "http://www.kegsteakhouse.com/en/locations/BC/downtown-vancouver/dunsmuir_keg/", "location": {"lat": 49.28337459999999, "lng": -123.1164458}, "google_id": "ChIJGdCptHhxhlQR5OKcIP64od4"},{"name": "Sciu\u00e9 Italian Bakery Caff\u00e9", "address": "800 W Pender St #110, Vancouver, BC V6C 2V6, Canada", "phone": "+1 604-602-7263", "tags": ["cafe", "restaurant", "food", "point_of_interest", "store", "establishment"], "rating": 3.8, "website": "http://www.sciue.ca/", "location": {"lat": 49.285351, "lng": -123.116258}, "google_id": "ChIJYbJpbYJxhlQRDKoke4V3Pl4"},{"name": "Cactus Club Cafe", "address": "1136 Robson St, Vancouver, BC V6E 1B2, Canada", "phone": "+1 604-687-3278", "tags": ["restaurant", "bar", "food", "point_of_interest", "establishment"], "rating": 4.3, "website": "https://www.cactusclubcafe.com/?utm_source=google-maps&utm_medium=organic&utm_campaign=robson", "location": {"lat": 49.28511150000001, "lng": -123.1258742}, "google_id": "ChIJ-0To8oBxhlQR2naspDbPUb4"},{"name": "Mink Chocolates Cafe", "address": "863 W Hastings St, Vancouver, BC V6C 3N9, Canada", "phone": "+1 604-633-2451", "tags": ["cafe", "restaurant", "food", "point_of_interest", "store", "establishment"], "rating": 4.3, "website": "http://www.minkchocolates.com/", "location": {"lat": 49.28667669999999, "lng": -123.1154294}, "google_id": "ChIJPxF7YIJxhlQR2GV7dekt2xM"},{"name": "SalaThai", "address": "888 Burrard St #102, Vancouver, BC V6Z 1X9, Canada", "phone": "+1 604-683-7999", "tags": ["restaurant", "food", "point_of_interest", "establishment"], "rating": 4, "website": "http://www.salathai.ca/", "location": {"lat": 49.2822067, "lng": -123.1238037}, "google_id": "ChIJjazkAoBxhlQRsji4QtkMoN0"},{"name": "Bacchus Restaurant", "address": "845 Hornby St, Vancouver, BC V6Z 1V1, Canada", "phone": "+1 604-608-5319", "tags": ["bar", "restaurant", "food", "point_of_interest", "establishment"], "rating": 4.5, "website": "http://www.wedgewoodhotel.com/files_2/dining.php/?utm_source=GoogleMapsBA&utm_medium=organic&utm_content=Businesslisting", "location": {"lat": 49.282297, "lng": -123.1225563}, "google_id": "ChIJC-yI8X9xhlQRn6JOG3CpMKY"},{"name": "Urban Fare", "address": "305 Bute St, Vancouver, BC V6C 3T6, Canada", "phone": "+1 604-669-5831", "tags": ["restaurant", "grocery_or_supermarket", "food", "point_of_interest", "store", "establishment"], "rating": 4.1, "website": "http://www.urbanfare.com/store/coal-harbour", "location": {"lat": 49.28910399999999, "lng": -123.1226393}, "google_id": "ChIJGxDGGoRxhlQR-o4BAj-H0eQ"},{"name": "Diva at the Met", "address": "645 Howe St, Vancouver, BC V6C 2Y9, Canada", "phone": "+1 604-602-7788", "tags": ["restaurant", "bar", "food", "point_of_interest", "establishment"], "rating": 4, "website": "https://www.marriott.com/hotels/hotel-information/restaurant/yvrbr-metropolitan-hotel-vancouver/?scid=bb1a189a-fec3-4d19-a255-54ba596febe2", "location": {"lat": 49.28394769999999, "lng": -123.1182951}, "google_id": "ChIJVTmSWX9xhlQRj3wKEpEEbOU"},{"name": "Bellaggio Cafe", "address": "773 Hornby St, Vancouver, BC V6Z 1S4, Canada", "phone": "+1 604-408-1281", "tags": ["restaurant", "food", "point_of_interest", "establishment"], "rating": 3.9, "website": "http://www.bellaggiocafe.com/", "location": {"lat": 49.2829855, "lng": -123.1216161}, "google_id": "ChIJk00Zh39xhlQRjRnoDJVznSQ"},{"name": "Rogue Kitchen & Wetbar", "address": "Waterfront Building, 200 Burrard St, Vancouver, BC V6C 3L6, Canada", "phone": "+1 604-428-2555", "tags": ["restaurant", "night_club", "bar", "food", "point_of_interest", "establishment"], "rating": 4, "website": "http://www.roguewetbar.com/conventioncentre", "location": {"lat": 49.2876838, "lng": -123.1151242}, "google_id": "ChIJHRFE4oJxhlQRUdvy3wUKWng"},{"name": "Earls Kitchen + Bar", "address": "1185 Robson St, Vancouver, BC V6E 1B5, Canada", "phone": "+1 604-669-0020", "tags": ["restaurant", "night_club", "bar", "food", "point_of_interest", "establishment"], "rating": 4.1, "website": "https://earls.ca/locations/robson", "location": {"lat": 49.2860217, "lng": -123.1267622}, "google_id": "ChIJ2X2rwYBxhlQRqMhKr3Op5hE"},{"name": "Kamei Baru", "address": "990 Smithe St, Vancouver, BC V6Z 0A4, Canada", "phone": "+1 604-559-8588", "tags": ["restaurant", "food", "point_of_interest", "establishment"], "rating": 4, "website": "https://kameibaru.ca/", "location": {"lat": 49.28190499999999, "lng": -123.1241268}, "google_id": "ChIJ_VZd_n9xhlQRP_yUAqtTiLo"},{"name": "Copper Chimney Restaurant - Indian Grill & Bar", "address": "567 Hornby St, Vancouver, BC V6C 2E8, Canada", "phone": "+1 604-689-8862", "tags": ["bar", "restaurant", "food", "point_of_interest", "establishment"], "rating": 3.8, "website": "http://www.copperchimney.ca/", "location": {"lat": 49.28519290000001, "lng": -123.1181968}, "google_id": "ChIJacCgHoJxhlQR8UFZH7KoGSo"},{"name": "Cafe Il Nido", "address": "780 Thurlow St, Vancouver, BC V6E 1V8, Canada", "phone": "+1 604-685-6436", "tags": ["bar", "restaurant", "food", "point_of_interest", "establishment"], "rating": 3.9, "website": "http://www.cafeilnido.ca/", "location": {"lat": 49.2846106, "lng": -123.1241497}, "google_id": "ChIJjx8r94BxhlQRwYW-BIoHApg"},{"name": "Victoria Chinese Restaurant", "address": "1055 W Georgia St, Vancouver, BC V6E 3P3, Canada", "phone": "+1 604-669-8383", "tags": ["restaurant", "food", "point_of_interest", "establishment"], "rating": 3.6, "website": "", "location": {"lat": 49.2853422, "lng": -123.121564}, "google_id": "ChIJwzHipIFxhlQR2wWVB5AOSfg"},{"name": "Konbiniya Japan Centre", "address": "1238 Robson St, Vancouver, BC V6E 1C1, Canada", "phone": "+1 604-682-3634", "tags": ["grocery_or_supermarket", "restaurant", "food", "point_of_interest", "store", "establishment"], "rating": 4.4, "website": "http://konbiniya.com/", "location": {"lat": 49.286265, "lng": -123.1279143}, "google_id": "ChIJCSPFtYBxhlQRviYL4-cxaJU"},{"name": "mahony | Burrard Landing", "address": "Burrard Landing, Vancouver Convention Centre West Building, 1055 Canada Pl #36, Vancouver, BC V6C 0C3, Canada", "phone": "+1 604-647-7513", "tags": ["restaurant", "bar", "food", "point_of_interest", "establishment"], "rating": 4, "website": "https://www.discovermahony.com/", "location": {"lat": 49.28917879999999, "lng": -123.1146915}, "google_id": "ChIJqUjxNINxhlQR4Lx01oYf6H8"},{"name": "Shenanigans on Robson", "address": "1227 Robson St, Vancouver, BC V6E 1C3, Canada", "phone": "+1 604-688-1411", "tags": ["bar", "restaurant", "food", "point_of_interest", "establishment"], "rating": 3.6, "website": "https://www.facebook.com/pages/Shenanigans/133904779991525", "location": {"lat": 49.2866138, "lng": -123.1276882}, "google_id": "ChIJPQaRyYBxhlQRTbhprX1ZqOg"},{"name": "Five Sails Restaurant", "address": "999 Canada Pl, Vancouver, BC V6C 3E1, Canada", "phone": "+1 604-844-2855", "tags": ["restaurant", "food", "point_of_interest", "establishment"], "rating": 4.6, "website": "http://www.fivesails.ca/", "location": {"lat": 49.2880237, "lng": -123.1133905}, "google_id": "ChIJ18-j2oJxhlQRcq-nkLQ528w"},{"name": "Sushi Go", "address": "570 Bute St, Vancouver, BC V6E 4T7, Canada", "phone": "+1 604-677-4758", "tags": ["restaurant", "food", "point_of_interest", "establishment"], "rating": 3.7, "website": "http://www.sushigo.ca/", "location": {"lat": 49.2879701, "lng": -123.1237441}, "google_id": "ChIJf6XLsoZxhlQRIDWrUheUoCg"},{"name": "Red Robin Gourmet Burgers and Brews", "address": "803 Thurlow St, Vancouver, BC V6E 1W1, Canada", "phone": "+1 604-662-8288", "tags": ["restaurant", "food", "point_of_interest", "establishment"], "rating": 4.1, "website": "https://www.redrobin.com/", "location": {"lat": 49.2845252, "lng": -123.1251934}, "google_id": "ChIJX405X4BxhlQRuNnCIzK47E4"},{"name": "A Taste Of India Restaurant", "address": "1282 Robson St, Vancouver, BC V6E 1C1, Canada", "phone": "+1 604-682-3894", "tags": ["restaurant", "food", "point_of_interest", "establishment"], "rating": 3.5, "website": "http://www.tasteofindiarestaurant.ca/", "location": {"lat": 49.2866919, "lng": -123.1283441}, "google_id": "ChIJP0b6NYdxhlQRla-WNRG_MDk"},{"name": "Bellaggio Cafe", "address": "Vancouver Convention Centre West Building, 1055 Canada Pl #26, Vancouver, BC V6C 3T4, Canada", "phone": "+1 604-647-7524", "tags": ["bar", "restaurant", "food", "point_of_interest", "establishment"], "rating": 3.8, "website": "http://www.bellaggiocafe.com/", "location": {"lat": 49.2889113, "lng": -123.1152525}, "google_id": "ChIJY1zJE4NxhlQR-7jW8k80JTQ"},{"name": "McDonald's", "address": "ROYAL CENTRE, 1055 W Georgia St #120, Vancouver, BC V6E 3P2, Canada", "phone": "+1 604-718-1115", "tags": ["cafe", "restaurant", "food", "point_of_interest", "establishment"], "rating": 3.5, "website": "https://www.mcdonalds.com/ca/en-ca/restaurant-locator.html", "location": {"lat": 49.2848025, "lng": -123.1210423}, "google_id": "ChIJwzHipIFxhlQRxElqKULGPnI"},{"name": "ChongQing on Robson", "address": "1260 Robson St, Vancouver, BC V6E 1C2, Canada", "phone": "+1 604-568-0303", "tags": ["restaurant", "food", "point_of_interest", "establishment"], "rating": 4, "website": "http://www.cqrestaurant.com/", "location": {"lat": 49.28654, "lng": -123.128112}, "google_id": "ChIJMxdNNYdxhlQR4u3BiMkq4n4"},{"name": "Sapporo Ramen Shogun Restaurant", "address": "518 Hornby St, Vancouver, BC V6C 2E7, Canada", "phone": "+1 604-689-2922", "tags": ["restaurant", "food", "point_of_interest", "establishment"], "rating": 3.7, "website": "", "location": {"lat": 49.28545829999999, "lng": -123.1172869}, "google_id": "ChIJdVyJFIJxhlQRCeWPeScTmYg"},{"name": "Goldies Pizza", "address": "605 W Pender St, Vancouver, BC V6B 1W7, Canada", "phone": "", "tags": ["restaurant", "food", "point_of_interest", "establishment"], "rating": 3.9, "website": "http://goldiespizza.com/", "location": {"lat": 49.2842028, "lng": -123.1139754}, "google_id": "ChIJt8umk3hxhlQRns1Nu5YOPfk"},{"name": "Vina", "address": "701 W Georgia St, Vancouver, BC V7Y 1G5, Canada", "phone": "+1 604-682-8016", "tags": ["restaurant", "food", "point_of_interest", "establishment"], "rating": 2.8, "website": "http://vinarestaurant.com/", "location": {"lat": 49.2828288, "lng": -123.1179361}, "google_id": "ChIJrU6fCYJxhlQRu5XVukBdgiI"},{"name": "The Butcher and Bullock", "address": "911 W Pender St, Vancouver, BC V6C 1L6, Canada", "phone": "+1 604-662-8866", "tags": ["restaurant", "bar", "food", "point_of_interest", "establishment"], "rating": 4, "website": "http://donnellygroup.ca/the-butcher-bullock/", "location": {"lat": 49.2861921, "lng": -123.116991}, "google_id": "ChIJc6oZR4JxhlQRRoI_dkj6Jko"},{"name": "Bay Sushi Cafe Express", "address": "678 Seymour St, Vancouver, BC V6B 3K4, Canada", "phone": "+1 604-806-0363", "tags": ["restaurant", "food", "point_of_interest", "establishment"], "rating": 4, "website": "http://www.baysushicafe.com/", "location": {"lat": 49.2820833, "lng": -123.1165378}, "google_id": "ChIJg7XcI39xhlQRddv_yrzbb7k"},{"name": "Zefferelli's", "address": "1136 Robson St, Vancouver, BC V6E 1B2, Canada", "phone": "+1 604-687-0655", "tags": ["restaurant", "food", "point_of_interest", "establishment"], "rating": 4.3, "website": "http://zefferellis.com/", "location": {"lat": 49.285039, "lng": -123.1260593}, "google_id": "ChIJq3Oa7YBxhlQRem0xTbStpTo"},{"name": "Eh! Restaurant", "address": "2nd, 1050 Alberni St, Vancouver, BC V6E 1A3, Canada", "phone": "+1 604-568-9915", "tags": ["bar", "restaurant", "food", "point_of_interest", "establishment"], "rating": 3.9, "website": "http://www.ehrestaurant.com/", "location": {"lat": 49.2846246, "lng": -123.1232245}, "google_id": "ChIJnYm4UoBxhlQRPQqYCXQENhI"},{"name": "Subway", "address": "505 Burrard St Bentall Centre #104, Tower I, Vancouver, BC V7X 1B1, Canada", "phone": "+1 604-689-4396", "tags": ["restaurant", "food", "point_of_interest", "establishment"], "rating": 3.3, "website": "http://www.subway.com/", "location": {"lat": 49.2866046, "lng": -123.118327}, "google_id": "ChIJUSBJNoJxhlQRNiz1dWV8dG8"}]