[{"name": "Gyu-Kaku Japanese BBQ", "address": "888 Nelson St g3, Vancouver, BC V6Z 2H1, Canada", "phone": "+1 604-558-3885", "tags": ["restaurant", "food", "point_of_interest", "establishment"], "rating": 4.5, "website": "http://www.gyu-kaku.com/", "location": {"lat": 49.2800315, "lng": -123.1251829}, "google_id": "ChIJJzFAF9VzhlQRENeLwMlDVl8"},{"name": "Italian Kitchen", "address": "860 Burrard St, Vancouver, BC V6Z 1X9, Canada", "phone": "+1 604-687-2858", "tags": ["bar", "restaurant", "food", "point_of_interest", "store", "establishment"], "rating": 4.1, "website": "http://www.glowbalgroup.com/italiankitchen", "location": {"lat": 49.2825272, "lng": -123.123559}, "google_id": "ChIJxRdotIFxhlQRY7DFe7zRkho"},{"name": "The Templeton", "address": "1087 Granville St, Vancouver, BC V6Z 1L2, Canada", "phone": "+1 604-685-4612", "tags": ["restaurant", "food", "point_of_interest", "establishment"], "rating": 4.4, "website": "http://www.thetempleton.ca/", "location": {"lat": 49.2784339, "lng": -123.1245228}, "google_id": "ChIJ8w0ms9VzhlQRsjs1jGEh4is"},{"name": "Moxie's Grill & Bar", "address": "1160 Davie St, Vancouver, BC V6E 1N1, Canada", "phone": "+1 604-678-8043", "tags": ["night_club", "bar", "restaurant", "food", "point_of_interest", "establishment"], "rating": 3.9, "website": "https://moxies.com/restaurant-locations/bc/vancouver-davie-street", "location": {"lat": 49.28105679999999, "lng": -123.1327804}, "google_id": "ChIJz4p-ZityhlQRSOe6rxx7PrY"},{"name": "La Belle Patate Vancouver", "address": "1215 Davie St, Vancouver, BC V6E 1N4, Canada", "phone": "+1 604-569-1215", "tags": ["restaurant", "food", "point_of_interest", "establishment"], "rating": 4.5, "website": "http://www.iwantpoutine.com/", "location": {"lat": 49.2820333, "lng": -123.1335487}, "google_id": "ChIJmVHtgityhlQR0mJeJBfU24E"},{"name": "Donair Dude", "address": "1172 Davie St, Vancouver, BC V6E 1N1, Canada", "phone": "+1 604-681-1801", "tags": ["restaurant", "food", "point_of_interest", "establishment"], "rating": 4.1, "website": "http://www.donairdude.com/", "location": {"lat": 49.28137, "lng": -123.132953}, "google_id": "ChIJY8uiZCtyhlQR2Pkv-OwFBKk"},{"name": "Joe's Grill", "address": "1031 Davie St, Vancouver, BC V6E 1M5, Canada", "phone": "+1 604-682-3683", "tags": ["restaurant", "food", "point_of_interest", "establishment"], "rating": 4.4, "website": "http://www.joes-grill.ca/", "location": {"lat": 49.2797502, "lng": -123.1299447}, "google_id": "ChIJ5dQ7sNRzhlQRw5Rl7W8hoig"},{"name": "The Pawn Shop YVR", "address": "1117 Granville St, Vancouver, BC V6Z 1M1, Canada", "phone": "+1 604-687-7474", "tags": ["bar", "restaurant", "food", "point_of_interest", "establishment"], "rating": 4.4, "website": "http://thepawnshopyvr.com/", "location": {"lat": 49.2781493, "lng": -123.1252321}, "google_id": "ChIJM_-yTtRzhlQRwNVRKfJH3Gc"},{"name": "Megabite Granville St.", "address": "1005 Granville St, Vancouver, BC V6Z 1L4, Canada", "phone": "+1 604-687-0002", "tags": ["restaurant", "food", "point_of_interest", "establishment"], "rating": 3.7, "website": "http://www.megabitepizza.com/", "location": {"lat": 49.2792602, "lng": -123.1232875}, "google_id": "ChIJZTTj0n9xhlQRQrsfxMoiCYE"},{"name": "Kamei Baru", "address": "990 Smithe St, Vancouver, BC V6Z 0A4, Canada", "phone": "+1 604-559-8588", "tags": ["restaurant", "food", "point_of_interest", "establishment"], "rating": 4, "website": "https://kameibaru.ca/", "location": {"lat": 49.28190499999999, "lng": -123.1241268}, "google_id": "ChIJ_VZd_n9xhlQRP_yUAqtTiLo"},{"name": "Twisted Fork Bistro", "address": "1147 Granville St, Vancouver, BC V6Z 1M1, Canada", "phone": "+1 604-568-0749", "tags": ["restaurant", "food", "point_of_interest", "establishment"], "rating": 4.4, "website": "http://www.twistedforkbistro.ca/", "location": {"lat": 49.2778455, "lng": -123.1255582}, "google_id": "ChIJM4XXRdRzhlQRU5tJVe7D8xY"},{"name": "JOEY Burrard", "address": "820 Burrard St, Vancouver, BC V6Z 1X9, Canada", "phone": "+1 604-683-5639", "tags": ["restaurant", "bar", "food", "point_of_interest", "establishment"], "rating": 4.3, "website": "https://joeyrestaurants.com/location/joey-burrard/menu#food", "location": {"lat": 49.2826099, "lng": -123.1231885}, "google_id": "ChIJx8zDGIBxhlQRU-OFjaGa-6Q"},{"name": "Guu Original Thurlow", "address": "838 Thurlow St, Vancouver, BC V6E 1W2, Canada", "phone": "+1 604-685-8817", "tags": ["restaurant", "food", "point_of_interest", "establishment"], "rating": 4.4, "website": "http://guu-izakaya.com/location/#Original", "location": {"lat": 49.2840076, "lng": -123.1254334}, "google_id": "ChIJOeYve4BxhlQRfPFG8Wik9YI"},{"name": "Domino's Pizza", "address": "1138 Granville St, Vancouver, BC V6Z 1L8, Canada", "phone": "+1 604-683-5800", "tags": ["meal_delivery", "meal_takeaway", "restaurant", "food", "point_of_interest", "establishment"], "rating": 3.5, "website": "https://pizza.dominos.ca/Vancouver-British-Columbia-10017/", "location": {"lat": 49.2777035, "lng": -123.1249807}, "google_id": "ChIJy-O7IH5xhlQRNVgKxIcrTFw"},{"name": "Giardino Restaurant", "address": "1328 Hornby St, Vancouver, BC V6Z 1W5, Canada", "phone": "+1 604-669-2422", "tags": ["bar", "restaurant", "food", "point_of_interest", "establishment"], "rating": 4.6, "website": "http://www.umberto.com/giardino", "location": {"lat": 49.27697819999999, "lng": -123.1300609}, "google_id": "ChIJdd9ipdNzhlQRTeCkanpMc8s"},{"name": "SalaThai", "address": "888 Burrard St #102, Vancouver, BC V6Z 1X9, Canada", "phone": "+1 604-683-7999", "tags": ["restaurant", "food", "point_of_interest", "establishment"], "rating": 4, "website": "http://www.salathai.ca/", "location": {"lat": 49.2822067, "lng": -123.1238037}, "google_id": "ChIJjazkAoBxhlQRsji4QtkMoN0"},{"name": "India Bistro", "address": "1157 Davie St, Vancouver, BC V6E 1N2, Canada", "phone": "+1 604-684-6342", "tags": ["restaurant", "food", "point_of_interest", "establishment"], "rating": 3.8, "website": "http://indiabistro.ca/", "location": {"lat": 49.281439, "lng": -123.132448}, "google_id": "ChIJp4l4bytyhlQRXtYlG5vyhsw"},{"name": "Alpha Sushi Bar", "address": "1265 Granville St, Vancouver, BC V6Z 3B4, Canada", "phone": "+1 604-633-0355", "tags": ["restaurant", "food", "point_of_interest", "establishment"], "rating": 4.5, "website": "http://www.alphasushibar.com/", "location": {"lat": 49.2765216, "lng": -123.1274632}, "google_id": "ChIJpzOu1dVzhlQRPZ-fVVdKsQE"},{"name": "White Spot Granville & Drake", "address": "718 Drake St, Vancouver, BC V6Z 2W6, Canada", "phone": "+1 604-605-0045", "tags": ["restaurant", "food", "point_of_interest", "establishment"], "rating": 3.5, "website": "http://www.whitespot.ca/", "location": {"lat": 49.2761059, "lng": -123.1281917}, "google_id": "ChIJWUoK7tNzhlQR9inDtjC8lc8"},{"name": "Tokyo Joe's", "address": "955 Helmcken St, Vancouver, BC V6Z 2S5, Canada", "phone": "+1 604-689-0073", "tags": ["restaurant", "food", "point_of_interest", "establishment"], "rating": 4.4, "website": "http://www.tokyo-joes.com/", "location": {"lat": 49.2797478, "lng": -123.1267408}, "google_id": "ChIJxe0X3tRzhlQRVnT15TlsW3w"},{"name": "Junction", "address": "1138 Davie St, Vancouver, BC V6E 4L7, Canada", "phone": "+1 604-669-2013", "tags": ["bar", "restaurant", "food", "point_of_interest", "establishment"], "rating": 3.5, "website": "", "location": {"lat": 49.2807283, "lng": -123.1322799}, "google_id": "ChIJnwAUXStyhlQRSqCQXVD1lZM"},{"name": "Grade A Steaks & Seafoods Restaurant", "address": "1175 Granville St, Vancouver, BC V6Z 1M1, Canada", "phone": "+1 604-669-7495", "tags": ["restaurant", "food", "point_of_interest", "establishment"], "rating": 4.2, "website": "", "location": {"lat": 49.27746310000001, "lng": -123.1260016}, "google_id": "ChIJ3XhpQNRzhlQRUfXaowBchgg"},{"name": "Pho Goodness", "address": "1150 Davie St, Vancouver, BC V6E 1N1, Canada", "phone": "+1 604-568-3253", "tags": ["restaurant", "food", "point_of_interest", "establishment"], "rating": 4.1, "website": "http://www.phogoodness.com/", "location": {"lat": 49.28092299999999, "lng": -123.132268}, "google_id": "ChIJ5aV6eityhlQRc9F3UQMXDI0"},{"name": "The Morrissey", "address": "1227 Granville St, Vancouver, BC V6Z 1M5, Canada", "phone": "+1 604-682-0909", "tags": ["bar", "restaurant", "food", "point_of_interest", "establishment"], "rating": 4, "website": "http://themorrisseypub.ca/", "location": {"lat": 49.276912, "lng": -123.1268604}, "google_id": "ChIJ3zv7EtRzhlQRPaN-KmydHiM"},{"name": "KFC", "address": "1147 Davie St, Vancouver, BC V6E 1N2, Canada", "phone": "+1 604-689-1402", "tags": ["meal_delivery", "meal_takeaway", "restaurant", "food", "point_of_interest", "establishment"], "rating": 3.4, "website": "https://www.kfc.ca/menu/for-sharing?utm_source=Google&utm_medium=LocalSearch", "location": {"lat": 49.28131109999999, "lng": -123.1322331}, "google_id": "ChIJFY9CZityhlQRROGvHMu9Iqs"},{"name": "Thai Basil Restaurant", "address": "1215 Thurlow St, Vancouver, BC V6E 1X4, Canada", "phone": "+1 604-685-6754", "tags": ["restaurant", "food", "point_of_interest", "establishment"], "rating": 4.1, "website": "http://www.thaibasilvancouver.ca/home", "location": {"lat": 49.28028459999999, "lng": -123.1315649}, "google_id": "ChIJJQDfUCtyhlQR0K2uk6kbROM"},{"name": "Freshslice Pizza", "address": "771 Davie St, Vancouver, BC V6Z 2S7, Canada", "phone": "+1 604-669-0001", "tags": ["meal_delivery", "meal_takeaway", "restaurant", "food", "point_of_interest", "establishment"], "rating": 4, "website": "http://www.freshslice.com/", "location": {"lat": 49.277638, "lng": -123.1266791}, "google_id": "ChIJN2oub9RzhlQR218WSMvc5pI"},{"name": "Shizenya", "address": "965 Hornby St, Vancouver, BC V6Z 3G5, Canada", "phone": "+1 604-568-0013", "tags": ["restaurant", "food", "point_of_interest", "establishment"], "rating": 4.4, "website": "http://shizenya.ca/", "location": {"lat": 49.28102070000001, "lng": -123.1247524}, "google_id": "ChIJ3WSkQdVzhlQRf-936T0TOv0"},{"name": "Takis' Taverna", "address": "1106 Davie St, Vancouver, BC V6E 1N1, Canada", "phone": "+1 604-682-1336", "tags": ["restaurant", "food", "point_of_interest", "establishment"], "rating": 4.1, "website": "http://www.takistaverna.com/", "location": {"lat": 49.2805251, "lng": -123.1316638}, "google_id": "ChIJFVDAWityhlQRuAsjZIPzdhE"},{"name": "The Mexican Antojitos y Cantina", "address": "1049 Granville St, Vancouver, BC V6Z 1L4, Canada", "phone": "+1 604-569-0955", "tags": ["restaurant", "food", "point_of_interest", "establishment"], "rating": 4.5, "website": "http://www.themexican.ca/", "location": {"lat": 49.27885699999999, "lng": -123.12407}, "google_id": "ChIJSa1PpdVzhlQRmKSfG7q1eYQ"},{"name": "Thida Thai Restaurant", "address": "1193 Davie St, Vancouver, BC V6E 1N2, Canada", "phone": "+1 604-669-3588", "tags": ["restaurant", "food", "point_of_interest", "establishment"], "rating": 4.1, "website": "http://www.thidathairestaurant.com/", "location": {"lat": 49.2817304, "lng": -123.1330547}, "google_id": "ChIJbYoEeityhlQRBtGQoDJztdg"},{"name": "Granville Warehouse", "address": "989 Granville St, Vancouver, BC V6Z 2A8, Canada", "phone": "+1 604-677-8080", "tags": ["restaurant", "food", "point_of_interest", "establishment"], "rating": 4, "website": "http://www.warehousegroup.ca/el-furniture-warehouse-granville", "location": {"lat": 49.2796089, "lng": -123.1228884}, "google_id": "ChIJczYGnNVzhlQRTtmLygm3sGk"},{"name": "Musette Caff\u00e8 and Bar", "address": "1325 Burrard St, Vancouver, BC V6Z 2B7, Canada", "phone": "+1 778-379-4150", "tags": ["cafe", "restaurant", "food", "point_of_interest", "establishment"], "rating": 4.5, "website": "http://www.musettecaffe.com/", "location": {"lat": 49.27778999999999, "lng": -123.131299}, "google_id": "ChIJrTa5fNNzhlQRY-C7_ox9kfs"},{"name": "One Saigon", "address": "979 Hornby St, Vancouver, BC V6Z 1V3, Canada", "phone": "+1 604-669-6764", "tags": ["restaurant", "food", "point_of_interest", "establishment"], "rating": 4, "website": "http://www.onesaigon.com/", "location": {"lat": 49.2808894, "lng": -123.1248595}, "google_id": "ChIJUUNlQdVzhlQRehIWk6iytc0"},{"name": "Guu Garden", "address": "888 Nelson St m101, Vancouver, BC V6Z 2H2, Canada", "phone": "+1 604-899-0855", "tags": ["restaurant", "food", "point_of_interest", "establishment"], "rating": 4.2, "website": "http://guu-izakaya.com/garden", "location": {"lat": 49.2800364, "lng": -123.1252786}, "google_id": "ChIJvzgBQNVzhlQRBgxEakaQcjk"},{"name": "Basil Pasta Bar", "address": "636 Davie St, Vancouver, BC V6B 2G5, Canada", "phone": "+1 604-568-3106", "tags": ["meal_delivery", "meal_takeaway", "bar", "restaurant", "food", "point_of_interest", "store", "establishment"], "rating": 4, "website": "http://www.basilpastabar.com/", "location": {"lat": 49.27676109999999, "lng": -123.1258767}, "google_id": "ChIJl53YENRzhlQRgKUXfBQ9VLE"},{"name": "Mucho Burrito Fresh Mexican Grill", "address": "988 Davie St, Vancouver, BC V6Z 1B8, Canada", "phone": "+1 604-669-6666", "tags": ["restaurant", "food", "point_of_interest", "establishment"], "rating": 3.9, "website": "https://locations.muchoburrito.com/ll/CA/BC/Vancouver/988-Davie-St", "location": {"lat": 49.278727, "lng": -123.1289479}, "google_id": "ChIJLSmGkNRzhlQRemSQRV00Ir4"},{"name": "Samurai Japanese Restaurant", "address": "1108 Davie St, Vancouver, BC V6E 1N1, Canada", "phone": "+1 604-609-0078", "tags": ["restaurant", "food", "point_of_interest", "establishment"], "rating": 4.2, "website": "http://www.samuraisushi.ca/", "location": {"lat": 49.2805439, "lng": -123.1317481}, "google_id": "ChIJE_foWityhlQRdRxQblaz3a0"},{"name": "Romano's Pizza", "address": "995 Granville St, Vancouver, BC V6Z 1L3, Canada", "phone": "+1 604-568-5470", "tags": ["meal_delivery", "grocery_or_supermarket", "meal_takeaway", "restaurant", "food", "point_of_interest", "store", "establishment"], "rating": 4.4, "website": "https://www.romanospizza.ca/", "location": {"lat": 49.2794945, "lng": -123.1229894}, "google_id": "ChIJ0_WB039xhlQR5T1hWsUKec4"},{"name": "CinCin Ristorante + Bar", "address": "1154 Robson St, Vancouver, BC V6E 1B2, Canada", "phone": "+1 604-688-7338", "tags": ["bar", "restaurant", "food", "point_of_interest", "establishment"], "rating": 4.4, "website": "http://cincin.net/", "location": {"lat": 49.285261, "lng": -123.1261391}, "google_id": "ChIJ7WzZ7IBxhlQRSVRBfdNFvfQ"},{"name": "Cactus Club Cafe", "address": "1136 Robson St, Vancouver, BC V6E 1B2, Canada", "phone": "+1 604-687-3278", "tags": ["restaurant", "bar", "food", "point_of_interest", "establishment"], "rating": 4.3, "website": "https://www.cactusclubcafe.com/?utm_source=google-maps&utm_medium=organic&utm_campaign=robson", "location": {"lat": 49.28511150000001, "lng": -123.1258742}, "google_id": "ChIJ-0To8oBxhlQR2naspDbPUb4"},{"name": "Caf\u00e9 Cr\u00eape", "address": "1032 Robson St, Vancouver, BC V6E 1A7, Canada", "phone": "+1 604-488-0045", "tags": ["cafe", "restaurant", "food", "point_of_interest", "establishment"], "rating": 4, "website": "http://www.cafecrepe.com/", "location": {"lat": 49.2836699, "lng": -123.1236402}, "google_id": "ChIJ66GqQIBxhlQR52A12EoHwfo"},{"name": "Megabite Pizza Davie St.", "address": "1112 Davie St, Vancouver, BC V6E 1N1, Canada", "phone": "+1 604-620-2400", "tags": ["meal_delivery", "meal_takeaway", "restaurant", "food", "point_of_interest", "establishment"], "rating": 3.7, "website": "http://www.megabitepizza.com/", "location": {"lat": 49.2805685, "lng": -123.1317623}, "google_id": "ChIJZ0XgWityhlQRKn5XIhcFCho"},{"name": "Red Robin Gourmet Burgers and Brews", "address": "803 Thurlow St, Vancouver, BC V6E 1W1, Canada", "phone": "+1 604-662-8288", "tags": ["restaurant", "food", "point_of_interest", "establishment"], "rating": 4.1, "website": "https://www.redrobin.com/", "location": {"lat": 49.2845252, "lng": -123.1251934}, "google_id": "ChIJX405X4BxhlQRuNnCIzK47E4"},{"name": "Zefferelli's", "address": "1136 Robson St, Vancouver, BC V6E 1B2, Canada", "phone": "+1 604-687-0655", "tags": ["restaurant", "food", "point_of_interest", "establishment"], "rating": 4.3, "website": "http://zefferellis.com/", "location": {"lat": 49.285039, "lng": -123.1260593}, "google_id": "ChIJq3Oa7YBxhlQRem0xTbStpTo"},{"name": "Yummy Pizza", "address": "1168 Davie St, Vancouver, BC V6E 1N1, Canada", "phone": "+1 604-569-2565", "tags": ["restaurant", "food", "point_of_interest", "establishment"], "rating": 3.4, "website": "https://www.yummypizzeria.com/", "location": {"lat": 49.281362, "lng": -123.1329409}, "google_id": "ChIJTUHhZCtyhlQRA-Qpx0maEmI"},{"name": "Medley's Restaurant", "address": "1110 Howe St, Vancouver, BC V6Z 1R2, Canada", "phone": "+1 604-623-6862", "tags": ["restaurant", "food", "point_of_interest", "establishment"], "rating": "", "website": "http://www.holidayinnvancouverdowntown.com/", "location": {"lat": 49.2784324, "lng": -123.125628}, "google_id": "ChIJ617TVtRzhlQRYWPsgeYSGO4"},{"name": "Denny's", "address": "1098 Davie St, Vancouver, BC V6E 1M3, Canada", "phone": "+1 604-689-0509", "tags": ["restaurant", "food", "point_of_interest", "establishment"], "rating": 3.7, "website": "https://locations.dennys.ca/BC/VANCOUVER/246786", "location": {"lat": 49.2802275, "lng": -123.1312114}, "google_id": "ChIJ3frRUStyhlQR8wzBdhiZGM0"},{"name": "Los Amigos Taqueria", "address": "1118 Davie St, Vancouver, BC V6E 1N1, Canada", "phone": "+1 604-559-0220", "tags": ["restaurant", "food", "point_of_interest", "establishment"], "rating": 4.3, "website": "https://los-amigos-taqueria.business.site/", "location": {"lat": 49.28064550000001, "lng": -123.1318125}, "google_id": "ChIJOTZqWytyhlQR_GleG7a3izE"},{"name": "Stepho's Souvlaki Greek Taverna", "address": "1124 Davie St, Vancouver, BC V6E 1N1, Canada", "phone": "+1 604-683-2555", "tags": ["restaurant", "food", "point_of_interest", "establishment"], "rating": 3.9, "website": "https://www.facebook.com/pages/Stephos-Souvlaki-Greek-Taverna/178614675571229", "location": {"lat": 49.28070280000001, "lng": -123.1320222}, "google_id": "ChIJleKGWytyhlQRuB0tYj43P0o"},{"name": "Cazba Restaurant", "address": "1103 Davie St, Vancouver, BC V6E 1N2, Canada", "phone": "+1 604-428-4747", "tags": ["restaurant", "food", "point_of_interest", "establishment"], "rating": 4, "website": "http://cazbarestaurant.com/", "location": {"lat": 49.28067799999999, "lng": -123.1311}, "google_id": "ChIJrS9gRStyhlQRH906N6at-tE"},{"name": "Kadoya Japanese Restaurant", "address": "1063 Davie St, Vancouver, BC V6E 1M5, Canada", "phone": "+1 604-608-1115", "tags": ["restaurant", "food", "point_of_interest", "establishment"], "rating": 4.1, "website": "http://kadoya.ca/", "location": {"lat": 49.2802127, "lng": -123.1306525}, "google_id": "ChIJ77AITStyhlQRE6rx5V10g6U"},{"name": "The Capital", "address": "1178 Davie St, Vancouver, BC V6E 1N1, Canada", "phone": "+1 604-620-2201", "tags": ["bar", "restaurant", "food", "point_of_interest", "establishment"], "rating": 4.2, "website": "http://www.warehousegroup.ca/the-capital", "location": {"lat": 49.2814302, "lng": -123.1330671}, "google_id": "ChIJuekueytyhlQRVlHzMj9r2x4"},{"name": "Sushi Bar Maumi", "address": "1226 Bute St, Vancouver, BC V6E 1Z8, Canada", "phone": "+1 604-609-2286", "tags": ["restaurant", "food", "point_of_interest", "establishment"], "rating": 4.4, "website": "http://www.sushibarmaumi.ca/", "location": {"lat": 49.2813645, "lng": -123.1336464}, "google_id": "ChIJq62cfStyhlQRAiYn2kRoXEY"},{"name": "Molli Caf\u00e9", "address": "1225 Burrard St, Vancouver, BC V6Z 1Z5, Canada", "phone": "+1 604-336-6554", "tags": ["cafe", "restaurant", "food", "point_of_interest", "establishment"], "rating": 4.6, "website": "http://relayfy.com/c/b.htm?e=1124", "location": {"lat": 49.2787827, "lng": -123.1299875}, "google_id": "ChIJSUoOn9RzhlQR7_JAj_43fKw"},{"name": "Al-Basha", "address": "1206 Davie St, Vancouver, BC V6E 1N3, Canada", "phone": "+1 604-620-5831", "tags": ["restaurant", "food", "point_of_interest", "establishment"], "rating": 4.4, "website": "http://albashafalafel.com/", "location": {"lat": 49.2818556, "lng": -123.1337269}, "google_id": "ChIJC2pOfytyhlQRZfyZKO8v3Lw"},{"name": "Sushi Coen", "address": "1306 Burrard St, Vancouver, BC V6Z 2B7, Canada", "phone": "+1 778-379-1523", "tags": ["restaurant", "food", "point_of_interest", "establishment"], "rating": 4, "website": "https://sushicoen.com/", "location": {"lat": 49.2777732, "lng": -123.130862}, "google_id": "ChIJM4I5ctNzhlQRIkFd01nsCTE"},{"name": "Number e food", "address": "1308 Burrard St, Vancouver, BC V6Z 2B7, Canada", "phone": "+1 604-559-6863", "tags": ["restaurant", "food", "point_of_interest", "establishment"], "rating": 4.7, "website": "http://www.numefood.com/", "location": {"lat": 49.277715, "lng": -123.1309297}, "google_id": "ChIJm4D0bdNzhlQRwU4eqgatSo8"},{"name": "Butter Kitchen", "address": "1355 Hornby St, Vancouver, BC V6Z 1W7, Canada", "phone": "+1 604-548-2436", "tags": ["restaurant", "food", "point_of_interest", "establishment"], "rating": 4.3, "website": "http://butterkitchen.ca/", "location": {"lat": 49.2768694, "lng": -123.1308482}, "google_id": "ChIJ0RxLodNzhlQR041FBUNSMNg"},{"name": "Earls Kitchen + Bar", "address": "905 Hornby St, Vancouver, BC V6Z 1V3, Canada", "phone": "+1 604-682-6700", "tags": ["restaurant", "night_club", "bar", "food", "point_of_interest", "establishment"], "rating": 4.2, "website": "https://earls.ca/locations/test-kitchen", "location": {"lat": 49.2815372, "lng": -123.123683}, "google_id": "ChIJDe-U4n9xhlQRHe5feMqgXwM"}]