[{"name": "Minerva Restaurant", "address": "2411 W 41st Ave, Vancouver, BC V6M 2A5, Canada", "phone": "+1 604-263-1774", "tags": ["restaurant", "food", "point_of_interest", "establishment"], "rating": 4.4, "website": "http://www.minervas.ca/", "location": {"lat": 49.2347841, "lng": -123.1615844}, "google_id": "ChIJWSFJtnpzhlQRfhTTUMJTgPU"},{"name": "Q Coffee", "address": "5607 Dunbar St, Vancouver, BC V6N 1W5, Canada", "phone": "+1 604-261-8188", "tags": ["bakery", "cafe", "restaurant", "food", "point_of_interest", "store", "establishment"], "rating": 3.8, "website": "http://instagram.com/user/qcoffeephonatic", "location": {"lat": 49.2356307, "lng": -123.1855271}, "google_id": "ChIJZXbyw0FzhlQRNH_XBTsAAtY"},{"name": "Red Tuna Japanese Restaurant", "address": "3592 W 41st Ave, Vancouver, BC V6N 3E6, Canada", "phone": "+1 604-266-7355", "tags": ["meal_delivery", "meal_takeaway", "restaurant", "food", "point_of_interest", "establishment"], "rating": 3.8, "website": "http://www.redtuna.ca/", "location": {"lat": 49.2345528, "lng": -123.1844881}, "google_id": "ChIJ676Q80FzhlQRNJxnVzIi2Jw"},{"name": "Creekside Cafe", "address": "3904 51st Ave W, Vancouver, BC V6N 3W1, Canada", "phone": "+1 604-266-2334", "tags": ["restaurant", "food", "point_of_interest", "establishment"], "rating": "", "website": "http://www.musqueamgolf.com", "location": {"lat": 49.22501879999999, "lng": -123.1922131}, "google_id": "ChIJaStUBVBzhlQR1h2qwlEFD-0"},{"name": "Moon Sushi Japanese Restaurant", "address": "4385 Dunbar St, Vancouver, BC V6S 2G2, Canada", "phone": "+1 604-221-7874", "tags": ["meal_takeaway", "cafe", "restaurant", "food", "point_of_interest", "establishment"], "rating": 4.2, "website": "http://moonsushi.ca/", "location": {"lat": 49.24729199999999, "lng": -123.185364}, "google_id": "ChIJM1ZdEBFzhlQRetiKKqAJfR0"},{"name": "Domino's Pizza", "address": "4298 Dunbar St, Vancouver, BC V6S 2E9, Canada", "phone": "+1 604-733-0188", "tags": ["meal_delivery", "meal_takeaway", "restaurant", "food", "point_of_interest", "establishment"], "rating": 3.4, "website": "https://pizza.dominos.ca/Vancouver-British-Columbia-10057/", "location": {"lat": 49.248188, "lng": -123.1849629}, "google_id": "ChIJzUOrYcqK6lIR-Fskom2gl04"},{"name": "Stong's Market", "address": "4221 Dunbar St, Vancouver, BC V6S 2G1, Canada", "phone": "+1 604-266-1401", "tags": ["grocery_or_supermarket", "florist", "bakery", "meal_takeaway", "cafe", "restaurant", "food", "point_of_interest", "store", "establishment"], "rating": 4.2, "website": "https://stongs.com/", "location": {"lat": 49.248679, "lng": -123.185481}, "google_id": "ChIJBzogURBzhlQR7aw-oX5kc-w"},{"name": "Crepe & Cafe", "address": "3500 W 41st Ave, Vancouver, BC V6N 3E6, Canada", "phone": "+1 604-566-9787", "tags": ["restaurant", "cafe", "food", "point_of_interest", "establishment"], "rating": 3.7, "website": "http://www.crepeandcafe.com/", "location": {"lat": 49.2346202, "lng": -123.1822015}, "google_id": "ChIJMVvu_mlzhlQRrQ0J-GSY6aw"},{"name": "Kokopelli Caf\u00e9 Ltd.", "address": "4593 Dunbar St, Vancouver, BC V6S 2G7, Canada", "phone": "+1 604-559-7020", "tags": ["cafe", "restaurant", "food", "point_of_interest", "store", "establishment"], "rating": 4.4, "website": "http://www.kokopellicafe.ca/", "location": {"lat": 49.24540020000001, "lng": -123.1854527}, "google_id": "ChIJxyxP_RNzhlQRdg3uMbVn2HY"},{"name": "The Cheese Inn", "address": "4585 Dunbar St, Vancouver, BC V6S 2G7, Canada", "phone": "+1 604-620-1951", "tags": ["bar", "restaurant", "food", "point_of_interest", "establishment"], "rating": 4.1, "website": "https://www.cheeseinn.com/", "location": {"lat": 49.2454633, "lng": -123.1854497}, "google_id": "ChIJWeksWBFzhlQRVCurx0ms_QE"},{"name": "Moki's Pizza", "address": "5530 Dunbar St, Vancouver, BC V6N 1W6, Canada", "phone": "+1 604-263-4440", "tags": ["meal_delivery", "restaurant", "food", "point_of_interest", "establishment"], "rating": 4.6, "website": "http://www.mokispizza.com/", "location": {"lat": 49.23625329999999, "lng": -123.1851281}, "google_id": "ChIJE-sz10FzhlQRiO6xnshty1g"},{"name": "Wild Sushi", "address": "4288 Dunbar St, Vancouver, BC V6S 2G1, Canada", "phone": "+1 604-568-9668", "tags": ["restaurant", "food", "point_of_interest", "establishment"], "rating": 3.8, "website": "", "location": {"lat": 49.2483133, "lng": -123.185019}, "google_id": "ChIJIUDCVBBzhlQRHVIhkOO6TWQ"},{"name": "Irashai Sushi", "address": "2260 W 41st Ave, Vancouver, BC V6M 1Z8, Canada", "phone": "+1 604-266-9332", "tags": ["restaurant", "food", "point_of_interest", "establishment"], "rating": 3.3, "website": "https://irashai-sushi.com/", "location": {"lat": 49.2344862, "lng": -123.1593285}, "google_id": "ChIJL2-f6HpzhlQRWH5kBaTfxA4"},{"name": "Cosy Inn Cafe", "address": "4455 Dunbar St, Vancouver, BC V6S 2G4, Canada", "phone": "+1 604-224-3133", "tags": ["cafe", "restaurant", "food", "point_of_interest", "establishment"], "rating": 4, "website": "https://business.google.com/site/l/10202750672762535860", "location": {"lat": 49.246589, "lng": -123.1854191}, "google_id": "ChIJq52maxFzhlQR4g-Bzy5MbMI"},{"name": "Browns", "address": "3540 W 41st Ave, Vancouver, BC V6N 3H5, Canada", "phone": "", "tags": ["restaurant", "food", "point_of_interest", "establishment"], "rating": "", "website": "https://www.brownsshoes.com/", "location": {"lat": 49.23447110000001, "lng": -123.1833399}, "google_id": "ChIJbdMAA29zhlQRiB2NQ-1wd9Y"},{"name": "The Nectar", "address": "2993 W 41st Ave, Vancouver, BC V6N 1J4, Canada", "phone": "+1 604-789-3000", "tags": ["restaurant", "food", "point_of_interest", "establishment"], "rating": "", "website": "https://suncure.ca/", "location": {"lat": 49.2349012, "lng": -123.172791}, "google_id": "ChIJJdR1gexzhlQRq36LGiPZKBQ"},{"name": "Lok's Chinese Restaurant", "address": "2436 W 41st Ave, Vancouver, BC V6M 2A7, Canada", "phone": "+1 604-266-0788", "tags": ["restaurant", "food", "point_of_interest", "establishment"], "rating": 3.1, "website": "http://www.loksrestaurant.com/", "location": {"lat": 49.23447899999999, "lng": -123.1618424}, "google_id": "ChIJzdOktXpzhlQR98yq-XVJCaE"},{"name": "t.cup", "address": "4495 Dunbar St, Vancouver, BC V6S 2G4, Canada", "phone": "+1 604-423-4495", "tags": ["cafe", "restaurant", "food", "point_of_interest", "establishment"], "rating": 4.1, "website": "https://t-cup.ca/", "location": {"lat": 49.24636270000001, "lng": -123.1855381}, "google_id": "ChIJjXXv0YZzhlQRleAfChgmNlY"},{"name": "Windsor Market", "address": "4889 MacKenzie St, Vancouver, BC V6L 2R7, Canada", "phone": "+1 604-638-2470", "tags": ["grocery_or_supermarket", "restaurant", "food", "point_of_interest", "store", "establishment"], "rating": 4.3, "website": "http://www.windsormeats.com/", "location": {"lat": 49.2425667, "lng": -123.1704175}, "google_id": "ChIJGR_JknJzhlQRGlrTenU4AgE"},{"name": "Bento Sushi", "address": "4221 Dunbar St, Vancouver, BC V6S 2G1, Canada", "phone": "", "tags": ["meal_takeaway", "restaurant", "food", "point_of_interest", "establishment"], "rating": "", "website": "https://www.bentosushi.com/", "location": {"lat": 49.24867930000001, "lng": -123.1854813}, "google_id": "ChIJ155yfqVzhlQRqrmln-PikVY"},{"name": "BIGSBY THE BAKEHOUSE", "address": "4894 MacKenzie St, Vancouver, BC V6N 2G5, Canada", "phone": "+1 604-267-2253", "tags": ["restaurant", "food", "point_of_interest", "establishment"], "rating": 4.6, "website": "", "location": {"lat": 49.24256860000001, "lng": -123.1700933}, "google_id": "ChIJkehfjXJzhlQRVm_pumRqPqU"},{"name": "McCleery Golf Restaurant", "address": "7188 Macdonald St, Vancouver, BC V6N 1G2, Canada", "phone": "", "tags": ["restaurant", "food", "point_of_interest", "establishment"], "rating": 4, "website": "", "location": {"lat": 49.2209779, "lng": -123.1680979}, "google_id": "ChIJ71orYqJ0hlQR7mTXCRvhtQ8"},{"name": "Jiu Jiang Japanese Restaurant", "address": "5707 Balsam St, Vancouver, BC V6M 4B8, Canada", "phone": "+1 778-379-8858", "tags": ["restaurant", "food", "point_of_interest", "establishment"], "rating": 4.2, "website": "http://www.jiujiangrestaurant.com/", "location": {"lat": 49.2343947, "lng": -123.1615086}, "google_id": "ChIJw_TIt3pzhlQRR7uqa4lPEgE"},{"name": "One Bowl", "address": "5687 Balsam St, Vancouver, BC V6M 4B5, Canada", "phone": "+1 604-423-4616", "tags": ["cafe", "restaurant", "food", "point_of_interest", "establishment"], "rating": 4.6, "website": "http://onebowlvancouver.com/", "location": {"lat": 49.23507490000001, "lng": -123.1615748}, "google_id": "ChIJYW5DZTJzhlQRg564NPWGtn8"},{"name": "Barra 41", "address": "2407 W 41st Ave, Vancouver, BC V6M 2A5, Canada", "phone": "+1 604-267-7475", "tags": ["bar", "restaurant", "food", "point_of_interest", "establishment"], "rating": 4.5, "website": "http://www.barra41.com/", "location": {"lat": 49.2348749, "lng": -123.1615139}, "google_id": "ChIJrSK0t3pzhlQRJzlIwv4Rsc8"},{"name": "bob", "address": "Fraser River Trail, Vancouver, BC, Canada", "phone": "", "tags": ["restaurant", "food", "point_of_interest", "establishment"], "rating": 3.7, "website": "", "location": {"lat": 49.2161164, "lng": -123.1704971}, "google_id": "ChIJMUWGkSl1hlQRiimdT6WXYkI"},{"name": "Sofra Mediterranean Kitchen", "address": "2277 W 41st Ave, Vancouver, BC V6M 2A3, Canada", "phone": "+1 604-558-3287", "tags": ["restaurant", "food", "point_of_interest", "establishment"], "rating": 4.2, "website": "http://www.sofrakitchen.ca/", "location": {"lat": 49.2348041, "lng": -123.1591358}, "google_id": "ChIJS4fi7npzhlQRW2nOPuxpDwI"},{"name": "Orange Corner", "address": "2257 W 41st Ave, Vancouver, BC V6M 2A3, Canada", "phone": "+1 604-266-7388", "tags": ["restaurant", "food", "point_of_interest", "establishment"], "rating": 3.6, "website": "", "location": {"lat": 49.2347804, "lng": -123.1587608}, "google_id": "ChIJLVUT5XpzhlQR1-whMReNvH4"},{"name": "La Vita", "address": "2285 W 41st Ave, Vancouver, BC V6M 2A3, Canada", "phone": "+1 604-428-6966", "tags": ["restaurant", "food", "point_of_interest", "establishment"], "rating": 4.5, "website": "", "location": {"lat": 49.2348408, "lng": -123.15932}, "google_id": "ChIJK5Coj-NzhlQRuEyXiXNJsxI"},{"name": "41 Noodle & Rice Pot House", "address": "2279 W 41st Ave, Vancouver, BC V6M 2A3, Canada", "phone": "+1 778-371-2376", "tags": ["restaurant", "food", "point_of_interest", "establishment"], "rating": 4, "website": "", "location": {"lat": 49.2347879, "lng": -123.1592864}, "google_id": "ChIJiY787npzhlQRBF38KCx3UwQ"},{"name": "Sip Bowl", "address": "2255 W 41st Ave, Vancouver, BC V6M 4L3, Canada", "phone": "+1 778-737-3999", "tags": ["restaurant", "food", "point_of_interest", "establishment"], "rating": 3.8, "website": "http://www.sipbowl.com/", "location": {"lat": 49.2348048, "lng": -123.1587418}, "google_id": "ChIJtWPIRQRzhlQRm5oNzANnLJA"}]