[{"name": "The Beach House Restaurant", "address": "150 25th St, West Vancouver, BC V7V 4H8, Canada", "phone": "+1 604-922-1414", "tags": ["restaurant", "bar", "food", "point_of_interest", "establishment"], "rating": "", "website": "https://www.thebeachhouserestaurant.ca/", "location": {"lat": 49.3332327, "lng": -123.1822073}, "google_id": "ChIJT0qWYnNuhlQR9Gph2yQpfHU"},{"name": "Feast Neighbourhood Table", "address": "2423 Marine Dr, West Vancouver, BC V7V 1L3, Canada", "phone": "+1 604-922-1155", "tags": ["restaurant", "food", "point_of_interest", "establishment"], "rating": 4.3, "website": "http://feastdining.ca/", "location": {"lat": 49.3345658, "lng": -123.1801308}, "google_id": "ChIJIyRFCXNuhlQRstjiLmXZVlI"},{"name": "The Truffle House & Cafe", "address": "2452 Marine Dr, West Vancouver, BC V7V 1L1, Canada", "phone": "+1 604-922-4222", "tags": ["cafe", "restaurant", "food", "point_of_interest", "establishment"], "rating": 4.6, "website": "http://trufflehousecafe.com/", "location": {"lat": 49.3344022, "lng": -123.180858}, "google_id": "ChIJLff-DHNuhlQRJ7fLoAK65-0"},{"name": "Dundarave Sushi", "address": "2459 Marine Dr, West Vancouver, BC V7V 1L3, Canada", "phone": "+1 604-922-5588", "tags": ["restaurant", "food", "point_of_interest", "establishment"], "rating": 3.5, "website": "", "location": {"lat": 49.33477509999999, "lng": -123.1810659}, "google_id": "ChIJF5EIC3NuhlQRD0t82fGxa0k"},{"name": "The Red Lion Bar & Grill", "address": "2427 Marine Dr, West Vancouver, BC V7V 1L3, Canada", "phone": "+1 604-926-8838", "tags": ["bar", "restaurant", "food", "point_of_interest", "establishment"], "rating": 3.9, "website": "http://www.redlionbarandgrill.com/", "location": {"lat": 49.334655, "lng": -123.180291}, "google_id": "ChIJBU87DnNuhlQRPP_cLzqd7YE"},{"name": "Sorrento Pizza", "address": "2385 Marine Dr, West Vancouver, BC V7V 1K9, Canada", "phone": "+1 604-926-6060", "tags": ["restaurant", "food", "point_of_interest", "establishment"], "rating": 4, "website": "http://www.sorrentopizzaltd.com/", "location": {"lat": 49.334164, "lng": -123.1786137}, "google_id": "ChIJPVmxIXNuhlQRlIGregKaxt8"},{"name": "Vina Vietnamese Cuisine", "address": "2508 Marine Dr, West Vancouver, BC V7V 1L4, Canada", "phone": "+1 604-926-6001", "tags": ["restaurant", "food", "point_of_interest", "establishment"], "rating": 4, "website": "http://vinarestaurant.com/", "location": {"lat": 49.334784, "lng": -123.182965}, "google_id": "ChIJVYBHmnNuhlQRFji8Xz2xTlE"},{"name": "The Bakehouse", "address": "2453 Marine Dr, West Vancouver, BC V7V 1L3, Canada", "phone": "+1 604-925-3031", "tags": ["bakery", "cafe", "restaurant", "food", "point_of_interest", "store", "establishment"], "rating": 4.5, "website": "http://www.bakehousedundarave.com/", "location": {"lat": 49.33477000000001, "lng": -123.1809311}, "google_id": "ChIJDTO-C3NuhlQR6tz6n8jTCnM"}]