[{"name": "Sylvia Hotel and Restaurant", "address": "1154 Gilford St, Vancouver, BC V6G 2P6, Canada", "phone": "+1 604-681-9321", "tags": ["lodging", "restaurant", "food", "point_of_interest", "establishment"], "rating": 4.2, "website": "http://sylviahotel.com/", "location": {"lat": 49.28857109999999, "lng": -123.142681}, "google_id": "ChIJQxM6DCZyhlQRCMLwTITyWEE"},{"name": "Fatburger Denman", "address": "1101 Denman St, Vancouver, BC V6G 2M7, Canada", "phone": "+1 604-689-8858", "tags": ["restaurant", "food", "point_of_interest", "establishment"], "rating": 4, "website": "https://www.fatburgercanada.com/locations/fatburger-denman", "location": {"lat": 49.2883435, "lng": -123.1404509}, "google_id": "ChIJLaZooChyhlQR1IAK72UfpKk"},{"name": "Cactus Club Cafe", "address": "1790 Beach Ave, Vancouver, BC V6E 1V3, Canada", "phone": "+1 604-681-2582", "tags": ["restaurant", "bar", "food", "point_of_interest", "establishment"], "rating": 4.3, "website": "https://www.cactusclubcafe.com/?utm_source=google-maps&utm_medium=organic&utm_campaign=english-bay", "location": {"lat": 49.2867816, "lng": -123.1426963}, "google_id": "ChIJX0kLQy9yhlQR_mic2Fqppc0"},{"name": "Hokkaido Ramen Santouka", "address": "1690 Robson St, Vancouver, BC V6G 1C7, Canada", "phone": "+1 604-681-8121", "tags": ["restaurant", "food", "point_of_interest", "establishment"], "rating": 4.4, "website": "http://www.santouka.co.jp/en/", "location": {"lat": 49.2901915, "lng": -123.133696}, "google_id": "ChIJjxB444dxhlQR5NsHCTpfrHw"},{"name": "Subway", "address": "1725 Robson St #3, Vancouver, BC V6G 1C9, Canada", "phone": "+1 604-684-7827", "tags": ["meal_takeaway", "restaurant", "food", "point_of_interest", "establishment"], "rating": 3.3, "website": "http://www.subway.com/en-ca", "location": {"lat": 49.2908775, "lng": -123.1342456}, "google_id": "ChIJL2XpDohxhlQRk2qn771H-CM"},{"name": "Akira Sushi", "address": "1069 Denman St, Vancouver, BC V6G 2M7, Canada", "phone": "+1 604-806-6321", "tags": ["restaurant", "food", "point_of_interest", "establishment"], "rating": 3.9, "website": "https://akirasushirestaurant.com/", "location": {"lat": 49.2885214, "lng": -123.1401394}, "google_id": "ChIJHVCFICZyhlQR4mED64JxecE"},{"name": "Zakkushi on Denman", "address": "823 Denman St, Vancouver, BC V6G 2L7, Canada", "phone": "+1 604-685-1136", "tags": ["restaurant", "food", "point_of_interest", "establishment"], "rating": 4.3, "website": "https://zakkushi-japanese-restaurant.business.site/", "location": {"lat": 49.2912, "lng": -123.136293}, "google_id": "ChIJ77z7IYhxhlQRYq44T6nqqB0"},{"name": "Guu with Garlic", "address": "1698 Robson St, Vancouver, BC V6G 1C7, Canada", "phone": "+1 604-685-8678", "tags": ["restaurant", "food", "point_of_interest", "establishment"], "rating": 4.4, "website": "http://guu-izakaya.com/Garlic", "location": {"lat": 49.29023999999999, "lng": -123.133893}, "google_id": "ChIJwy3kCYhxhlQRVNbXqCU6bo0"},{"name": "Kingyo", "address": "871 Denman St, Vancouver, BC V6G 2L9, Canada", "phone": "+1 604-608-1677", "tags": ["restaurant", "food", "point_of_interest", "establishment"], "rating": 4.5, "website": "http://www.kingyo-izakaya.ca/", "location": {"lat": 49.290612, "lng": -123.1371415}, "google_id": "ChIJd4CF7SdyhlQRoqTdwPGmzJo"},{"name": "Banana Leaf on Denman", "address": "1096 Denman St, Vancouver, BC V6G 2M8, Canada", "phone": "+1 604-683-3333", "tags": ["restaurant", "food", "point_of_interest", "establishment"], "rating": 4.3, "website": "http://www.bananaleaf-vancouver.com/", "location": {"lat": 49.2882788, "lng": -123.1400756}, "google_id": "ChIJte_JnyhyhlQRXyb6ua6PvOk"},{"name": "Kitaya Japanese", "address": "1088 Denman St, Vancouver, BC V6G 2M8, Canada", "phone": "+1 604-683-0218", "tags": ["restaurant", "food", "point_of_interest", "establishment"], "rating": 3.7, "website": "https://lazymeal.com/menu/kitayajapanese", "location": {"lat": 49.288342, "lng": -123.1399053}, "google_id": "ChIJzzMYnihyhlQRBkCj5UHPxWs"},{"name": "Espana Restaurant", "address": "1118 Denman St, Vancouver, BC V6G 1T2, Canada", "phone": "+1 604-558-4040", "tags": ["bar", "restaurant", "food", "point_of_interest", "establishment"], "rating": 4.4, "website": "http://www.espanarestaurant.ca/", "location": {"lat": 49.288068, "lng": -123.140406}, "google_id": "ChIJcfQaoShyhlQRMi0PP9FMUsw"},{"name": "Kintaro Ramen", "address": "788 Denman St, Vancouver, BC V6G 1C9, Canada", "phone": "+1 604-682-7568", "tags": ["restaurant", "food", "point_of_interest", "establishment"], "rating": 4.3, "website": "", "location": {"lat": 49.2915486, "lng": -123.1349856}, "google_id": "ChIJJYzxPohxhlQRFHN7EYdtbZE"},{"name": "Hida Takayama Ramen", "address": "1610 Robson St #203, Vancouver, BC V6G 1C7, Canada", "phone": "+1 604-633-1884", "tags": ["restaurant", "food", "point_of_interest", "establishment"], "rating": 4.3, "website": "http://hidaramen.com/", "location": {"lat": 49.2894178, "lng": -123.1329097}, "google_id": "ChIJhdX87IdxhlQRaL821lhlARQ"},{"name": "Ukrainian Village", "address": "815 Denman St, Vancouver, BC V6G 2L7, Canada", "phone": "+1 604-687-7440", "tags": ["restaurant", "food", "point_of_interest", "establishment"], "rating": 4.2, "website": "http://ukrainianvillage.wix.com/canada", "location": {"lat": 49.2914077, "lng": -123.1358246}, "google_id": "ChIJ1y0YI4hxhlQRXIEmfZiXgEw"},{"name": "AlHadbah Donair", "address": "1610 Robson St Unit #105, Vancouver, BC V6G 1C7, Canada", "phone": "+1 604-568-6324", "tags": ["restaurant", "food", "point_of_interest", "establishment"], "rating": 4.5, "website": "http://alhadbahdonair.com/", "location": {"lat": 49.2895386, "lng": -123.132799}, "google_id": "ChIJhdX87IdxhlQRaPEShBeVjqc"},{"name": "Pizza Hut", "address": "#4, 1725 Robson St Unit 4, Vancouver, BC V6G 1C9, Canada", "phone": "+1 604-689-5908", "tags": ["meal_delivery", "meal_takeaway", "restaurant", "food", "point_of_interest", "establishment"], "rating": 2.9, "website": "https://www.pizzahut.ca/store-details/store-R31125/pizza-hut-Vancouver", "location": {"lat": 49.2909587, "lng": -123.1341273}, "google_id": "ChIJ40loDohxhlQR8cE6kVn890Q"},{"name": "Mediterranean Grill", "address": "1152 Denman St, Vancouver, BC V6G 2M9, Canada", "phone": "+1 604-689-1112", "tags": ["meal_delivery", "meal_takeaway", "restaurant", "food", "point_of_interest", "establishment"], "rating": 4, "website": "https://www.mediterranean-grill.ca/", "location": {"lat": 49.28774639999999, "lng": -123.1409009}, "google_id": "ChIJYwRQryhyhlQRcFek5w_qOr4"},{"name": "Domino's Pizza", "address": "777 Denman St, Vancouver, BC V6G 2L6, Canada", "phone": "+1 604-662-3030", "tags": ["meal_delivery", "meal_takeaway", "restaurant", "food", "point_of_interest", "establishment"], "rating": 3.2, "website": "https://pizza.dominos.ca/Vancouver-British-Columbia-10066/", "location": {"lat": 49.291793, "lng": -123.135216}, "google_id": "ChIJvZngOIhxhlQRDXvzGvDLVno"},{"name": "Ginger Garlic Indian Cuisine", "address": "1738 Davie St, Vancouver, BC V6G 1W3, Canada", "phone": "", "tags": ["meal_takeaway", "bar", "restaurant", "food", "point_of_interest", "establishment"], "rating": 3.9, "website": "", "location": {"lat": 49.2865389, "lng": -123.1410132}, "google_id": "ChIJG-HPNS9yhlQRbEflklqdzPs"},{"name": "McDonald's", "address": "1701 Robson St, Vancouver, BC V6G 1C9, Canada", "phone": "+1 604-718-1020", "tags": ["cafe", "restaurant", "food", "point_of_interest", "establishment"], "rating": 3.3, "website": "https://www.mcdonalds.com/ca/en-ca/restaurant-locator.html", "location": {"lat": 49.29065190000001, "lng": -123.1338727}, "google_id": "ChIJQ13qC4hxhlQR1fbnIdZ41WE"},{"name": "Sura Korean Royal Cuisine Restaurant Vancouver", "address": "1518 Robson St, Vancouver, BC V6G 1C3, Canada", "phone": "+1 604-687-7872", "tags": ["restaurant", "food", "point_of_interest", "establishment"], "rating": 4.4, "website": "http://www.surakoreancuisine.com/", "location": {"lat": 49.288871, "lng": -123.131738}, "google_id": "ChIJcw7-mYdxhlQRxq9ZD4tvuH0"},{"name": "Zeitoon Restaurant", "address": "1795 Pendrell St, Vancouver, BC V6G 1T2, Canada", "phone": "+1 604-899-0700", "tags": ["meal_delivery", "meal_takeaway", "restaurant", "food", "point_of_interest", "establishment"], "rating": 3.7, "website": "http://www.zeitoonrestaurant.ca/", "location": {"lat": 49.28792430000001, "lng": -123.1404905}, "google_id": "ChIJMYMDpChyhlQRu37tlv6qDUI"},{"name": "A&W Canada", "address": "991 Denman St, Vancouver, BC V6G 2M3, Canada", "phone": "+1 604-681-0466", "tags": ["restaurant", "food", "point_of_interest", "establishment"], "rating": 4, "website": "http://aw.ca/", "location": {"lat": 49.289595, "lng": -123.138552}, "google_id": "ChIJLWAyzidyhlQR2PjBgFfH4S4"},{"name": "Ongba Vietnamese Eatery ( Caf\u00e9 Phin And Pho)", "address": "976 Denman St, Vancouver, BC V6G 2M1, Canada", "phone": "+1 604-620-5595", "tags": ["meal_delivery", "meal_takeaway", "cafe", "restaurant", "food", "point_of_interest", "establishment"], "rating": 4.1, "website": "https://www.ongba.ca/", "location": {"lat": 49.28954969999999, "lng": -123.1380672}, "google_id": "ChIJMXAeXMlzhlQRZZpqQjvb_Wg"},{"name": "Panago Pizza", "address": "969 Denman St, Vancouver, BC V6G 2M1, Canada", "phone": "+1 866-310-0001", "tags": ["meal_delivery", "meal_takeaway", "restaurant", "food", "point_of_interest", "establishment"], "rating": 3.7, "website": "http://www.panago.com/", "location": {"lat": 49.28978, "lng": -123.1383661}, "google_id": "ChIJ6_EwxSdyhlQR3Zo2haeFRvA"},{"name": "Damso Restaurant Ltd on denman st.", "address": "867 Denman St, Vancouver, BC V6G 2L9, Canada", "phone": "+1 604-632-0022", "tags": ["restaurant", "food", "point_of_interest", "establishment"], "rating": 4.2, "website": "", "location": {"lat": 49.29061519999999, "lng": -123.1369367}, "google_id": "ChIJO_P18idyhlQR1DvHQxqvypY"},{"name": "Greenhorn", "address": "994 Nicola St, Vancouver, BC V6G 2C8, Canada", "phone": "+1 604-428-2912", "tags": ["restaurant", "food", "point_of_interest", "establishment"], "rating": 4.4, "website": "http://www.greenhorncafe.com/", "location": {"lat": 49.28663599999999, "lng": -123.1340199}, "google_id": "ChIJ1YmSuilyhlQR_lLrbGUzv-M"},{"name": "Ma Dang Goul", "address": "847 Denman St, Vancouver, BC V6G 2L7, Canada", "phone": "+1 604-688-3585", "tags": ["restaurant", "food", "point_of_interest", "establishment"], "rating": 4.2, "website": "https://www.facebook.com/mdgvancouver/", "location": {"lat": 49.2909606, "lng": -123.1364642}, "google_id": "ChIJ3TcD9SdyhlQR0oZJEJ_jZAs"},{"name": "Buckstop", "address": "833 Denman St, Vancouver, BC V6G 2L7, Canada", "phone": "+1 604-428-2528", "tags": ["restaurant", "food", "point_of_interest", "establishment"], "rating": 3.8, "website": "http://buckstop.ca/", "location": {"lat": 49.2910152, "lng": -123.1363737}, "google_id": "ChIJi6H4H4hxhlQRJd2LHY0gxMY"},{"name": "Sushiholic", "address": "836 Denman St, Vancouver, BC V6G 2L8, Canada", "phone": "+1 604-559-4888", "tags": ["restaurant", "food", "point_of_interest", "establishment"], "rating": 4.1, "website": "http://www.sushiholic.ca/", "location": {"lat": 49.29095880000001, "lng": -123.1360842}, "google_id": "ChIJXXHG8rd9C0ERxNdBWUEffLc"},{"name": "Hongdae Pocha Cafe", "address": "1642 Robson St, Vancouver, BC V6G 1C7, Canada", "phone": "+1 604-681-8252", "tags": ["restaurant", "food", "point_of_interest", "establishment"], "rating": 3.6, "website": "https://www.hongdaepochacafe.com/", "location": {"lat": 49.28982369999999, "lng": -123.1331976}, "google_id": "ChIJc6pL74dxhlQRahC9kBV9N2c"},{"name": "Flower & Horse in Spring \u82b1\u99ac\u6625\u5929\u96f2\u5357\u904e\u6a4b\u7c73\u7dda", "address": "1741 Robson St, Vancouver, BC V6G 1E1, Canada", "phone": "+1 778-379-6198", "tags": ["restaurant", "food", "point_of_interest", "establishment"], "rating": 3.9, "website": "https://www.facebook.com/pg/flowerandhorseinspring/photos/?tab=albums#", "location": {"lat": 49.2910565, "lng": -123.1344748}, "google_id": "ChIJN8MuEohxhlQRnPb0SnLjn4U"},{"name": "Dinesty Dumpling House", "address": "1719 Robson St, Vancouver, BC V6G 1C9, Canada", "phone": "+1 604-669-7769", "tags": ["restaurant", "food", "point_of_interest", "establishment"], "rating": 4.1, "website": "http://dinesty.ca/", "location": {"lat": 49.2907799, "lng": -123.1340727}, "google_id": "ChIJz9lHDIhxhlQR1QbrG2lIwBc"},{"name": "Kosoo Korean Restaurant", "address": "832 Cardero St, Vancouver, BC V6G 2G5, Canada", "phone": "+1 604-563-5556", "tags": ["restaurant", "food", "point_of_interest", "establishment"], "rating": 4.1, "website": "http://www.kosoorestaurant.ca/", "location": {"lat": 49.28906440000001, "lng": -123.1323716}, "google_id": "ChIJnV8LkodxhlQRTNTwh1mtxyo"},{"name": "Olympia Pizza & Pasta Restaurant", "address": "998 Denman St, Vancouver, BC V6G 2M1, Canada", "phone": "+1 604-688-8333", "tags": ["meal_delivery", "meal_takeaway", "restaurant", "food", "point_of_interest", "establishment"], "rating": 3.9, "website": "http://www.olympiapizza.com/", "location": {"lat": 49.2893586, "lng": -123.1383977}, "google_id": "ChIJJe0U0SdyhlQRH0BPwVr4JoA"},{"name": "The Holy Crab", "address": "1588 Robson St, Vancouver, BC V6G 2G5, Canada", "phone": "+1 604-661-8533", "tags": ["restaurant", "food", "point_of_interest", "establishment"], "rating": 3.9, "website": "http://www.theholycrab.ca/", "location": {"lat": 49.28922999999999, "lng": -123.132312}, "google_id": "ChIJb02mk4dxhlQReyoDtEXxoRg"},{"name": "McDonald's", "address": "1610 Davie St, Vancouver, BC V6G 1V9, Canada", "phone": "+1 604-718-1175", "tags": ["cafe", "restaurant", "food", "point_of_interest", "establishment"], "rating": 3.4, "website": "https://www.mcdonalds.com/ca/en-ca/restaurant-locator.html", "location": {"lat": 49.2852383, "lng": -123.1389968}, "google_id": "ChIJpwSY0i5yhlQRlMe-bWiZwys"},{"name": "Nat's New York Pizzeria", "address": "1080 Denman St, Vancouver, BC V6G 2M8, Canada", "phone": "+1 604-642-0777", "tags": ["restaurant", "food", "point_of_interest", "establishment"], "rating": 4.3, "website": "http://www.natspizza.com/", "location": {"lat": 49.2884149, "lng": -123.1398527}, "google_id": "ChIJdZ34nShyhlQRR5UQwrergII"},{"name": "The Three Brits Public House", "address": "1780 Davie St, Vancouver, BC V6G 1W2, Canada", "phone": "+1 604-801-6681", "tags": ["bar", "restaurant", "food", "point_of_interest", "establishment"], "rating": 4.2, "website": "http://donnellygroup.ca/three-brits/", "location": {"lat": 49.28710419999999, "lng": -123.1418124}, "google_id": "ChIJ2UToTS9yhlQR6Z5RjV4B3W0"},{"name": "Nook", "address": "781 Denman St, Vancouver, BC V6G 2L6, Canada", "phone": "+1 604-568-4554", "tags": ["restaurant", "food", "point_of_interest", "establishment"], "rating": 4.5, "website": "http://nookrestaurant.ca/", "location": {"lat": 49.291747, "lng": -123.1353434}, "google_id": "ChIJWX04OYhxhlQRrj8ua53qkZc"},{"name": "Legendary Noodle", "address": "1074 Denman St, Vancouver, BC V6G 2M8, Canada", "phone": "+1 604-669-8551", "tags": ["restaurant", "food", "point_of_interest", "establishment"], "rating": 4.4, "website": "http://www.legendarynoodle.ca/", "location": {"lat": 49.288466, "lng": -123.1397939}, "google_id": "ChIJ7XLSAvpzhlQRWZY1PCngALY"},{"name": "Joe's Grill", "address": "948 Denman St, Vancouver, BC V6G 2M1, Canada", "phone": "+1 604-642-6588", "tags": ["restaurant", "food", "point_of_interest", "establishment"], "rating": 4.2, "website": "http://joes-grill.com/", "location": {"lat": 49.28988899999999, "lng": -123.1376668}, "google_id": "ChIJNV3TwidyhlQRD6PwcfiNWEQ"},{"name": "Rio Brazilian Steakhouse", "address": "1122 Denman St, Vancouver, BC V6G 1T2, Canada", "phone": "+1 604-568-7722", "tags": ["restaurant", "food", "point_of_interest", "establishment"], "rating": 3.8, "website": "http://riobraziliansteakhouse.ca/", "location": {"lat": 49.28795579999999, "lng": -123.140518}, "google_id": "ChIJN67OWohxhlQR099NKHp2SVE"},{"name": "Red Umbrella Cafe", "address": "1707 Davie St, Vancouver, BC V6G 1W5, Canada", "phone": "+1 604-688-7818", "tags": ["cafe", "restaurant", "food", "point_of_interest", "establishment"], "rating": 4.3, "website": "https://www.facebook.com/redumbrellacafe/", "location": {"lat": 49.28640199999999, "lng": -123.1403028}, "google_id": "ChIJI6ImMy9yhlQRddvgxWmTi4A"},{"name": "Babylon Cafe", "address": "1156 Denman St, Vancouver, BC V6G 2N1, Canada", "phone": "+1 604-568-7010", "tags": ["restaurant", "food", "point_of_interest", "establishment"], "rating": 4.1, "website": "http://www.babyloncafe.ca/", "location": {"lat": 49.28767819999999, "lng": -123.1410182}, "google_id": "ChIJ2aU3ryhyhlQRqKLWuJvrXGY"},{"name": "Yummy To Go", "address": "1711 Davie St, Vancouver, BC V6G 1W5, Canada", "phone": "+1 604-688-1870", "tags": ["restaurant", "food", "point_of_interest", "establishment"], "rating": 4.2, "website": "", "location": {"lat": 49.2864488, "lng": -123.140363}, "google_id": "ChIJeblKMy9yhlQRMwx1BCpAJEw"},{"name": "MOMO SUSHI BIDWELL", "address": "833 Bidwell St, Vancouver, BC V6G 1E1, Canada", "phone": "+1 604-569-2001", "tags": ["restaurant", "food", "point_of_interest", "establishment"], "rating": 4.3, "website": "http://www.momo-sushi.com/", "location": {"lat": 49.2903934, "lng": -123.1344141}, "google_id": "ChIJx8Ts_YdxhlQRltXu3n3Fv6A"},{"name": "Won More Szechuan Cuisine", "address": "1184 Denman St, Vancouver, BC V6G 2M9, Canada", "phone": "+1 604-688-8856", "tags": ["restaurant", "food", "point_of_interest", "establishment"], "rating": 4.3, "website": "https://wonmore.ca/", "location": {"lat": 49.28725730000001, "lng": -123.1412277}, "google_id": "ChIJkxmvrihyhlQRxzunRAfHN5Q"},{"name": "Nero Belgian Waffle Bar", "address": "1703 Robson St, Vancouver, BC V6G 1C8, Canada", "phone": "+1 604-839-1239", "tags": ["restaurant", "food", "point_of_interest", "establishment"], "rating": 4.5, "website": "http://www.nerowafflebar.com/", "location": {"lat": 49.2906656, "lng": -123.1339521}, "google_id": "ChIJub9tCYhxhlQR8lH56EfLSpc"},{"name": "Desi Downtown", "address": "911 Denman St, Vancouver, BC V6G 2L9, Canada", "phone": "+1 604-647-0911", "tags": ["restaurant", "food", "point_of_interest", "establishment"], "rating": "", "website": "", "location": {"lat": 49.29036740000001, "lng": -123.1373611}, "google_id": "ChIJ5fcG7CdyhlQRD5D7u4FBm9c"},{"name": "Falafel King", "address": "1110 Denman St, Vancouver, BC V6G 2M8, Canada", "phone": "+1 604-669-7278", "tags": ["restaurant", "food", "point_of_interest", "establishment"], "rating": 4.3, "website": "", "location": {"lat": 49.2882094, "lng": -123.1402122}, "google_id": "ChIJ2XUWoChyhlQR0JjHw1UUPwY"},{"name": "Tavola", "address": "1829 Robson St, Vancouver, BC V6G 1E4, Canada", "phone": "+1 604-606-4680", "tags": ["restaurant", "food", "point_of_interest", "establishment"], "rating": 4.5, "website": "https://tavolavancouver.com/", "location": {"lat": 49.2918584, "lng": -123.1357745}, "google_id": "ChIJfZnyOohxhlQRAX10LargB0E"},{"name": "Amici Miei Italian", "address": "1114 Denman St, Vancouver, BC V6G 2M8, Canada", "phone": "+1 604-563-6610", "tags": ["restaurant", "food", "point_of_interest", "establishment"], "rating": 4.4, "website": "http://www.amicimieidenman.com/", "location": {"lat": 49.2881286, "lng": -123.1403324}, "google_id": "ChIJiW5KoChyhlQRExRrWPXCgM4"},{"name": "Gillaneh Grill House", "address": "1072 Denman St, Vancouver, BC V6G 2M8, Canada", "phone": "+1 604-564-6699", "tags": ["restaurant", "food", "point_of_interest", "establishment"], "rating": 3.9, "website": "", "location": {"lat": 49.2884421, "lng": -123.1396485}, "google_id": "ChIJ3TRgwR1zhlQRUlKFZENBcms"},{"name": "Buffalo's World Famous Wings", "address": "Vancouver, BC V6G 2M7, Canada", "phone": "", "tags": ["restaurant", "food", "point_of_interest", "establishment"], "rating": "", "website": "", "location": {"lat": 49.288344, "lng": -123.1404375}, "google_id": "ChIJSwnyHyZyhlQRE3TeiV07G1U"},{"name": "Big Bang Sushi", "address": "1103 Denman St, Vancouver, BC V6G 2M7, Canada", "phone": "+1 604-336-9622", "tags": ["restaurant", "food", "point_of_interest", "establishment"], "rating": 5, "website": "http://www.bigbangsushi.ca/", "location": {"lat": 49.2883088, "lng": -123.1405025}, "google_id": "ChIJVT7TCzNzhlQRDkJurE2XeRg"},{"name": "Shizenya Restaurant on Denman", "address": "1059 Denman St, Vancouver, BC V6G 2M7, Canada", "phone": "+1 778-379-0159", "tags": ["restaurant", "food", "point_of_interest", "establishment"], "rating": 4.4, "website": "http://shizenya.ca/", "location": {"lat": 49.288627, "lng": -123.1400016}, "google_id": "ChIJ6aIoKtVzhlQRjydz25k6HSI"},{"name": "Horn Ok Please", "address": "1162 Denman St, Vancouver, BC V6G 2M9, Canada", "phone": "+1 604-559-9206", "tags": ["restaurant", "food", "point_of_interest", "establishment"], "rating": 4, "website": "http://orderhornokplease.ca/", "location": {"lat": 49.2876346, "lng": -123.1410015}, "google_id": "ChIJvyGaUexzhlQRG1LhJ6uJ_lA"},{"name": "Pasture To Plate Grill, Broths & Deli", "address": "1061 Denman St, Vancouver, BC V6G 2M7, Canada", "phone": "+1 604-689-0202", "tags": ["restaurant", "food", "point_of_interest", "establishment"], "rating": 3.5, "website": "http://www.pasturetoplate.ca/grill-broths-deli/", "location": {"lat": 49.2886899, "lng": -123.1401114}, "google_id": "ChIJpwg4JyZyhlQR3GFF4CsBT-w"}]