[{"name": "Chambar Restaurant", "address": "568 Beatty St, Vancouver, BC V6B 2L3, Canada", "phone": "+1 604-879-7119", "tags": ["restaurant", "bar", "food", "point_of_interest", "establishment"], "rating": 4.4, "website": "http://www.chambar.com/", "location": {"lat": 49.2801271, "lng": -123.1099351}, "google_id": "ChIJq2tI6HtxhlQRBaKUv59cS9E"},{"name": "Jules Bistro", "address": "216 Abbott St, Vancouver, BC V6B 2K8, Canada", "phone": "+1 604-669-0033", "tags": ["restaurant", "food", "point_of_interest", "establishment"], "rating": 4.3, "website": "http://www.julesbistro.ca/", "location": {"lat": 49.2834354, "lng": -123.1063868}, "google_id": "ChIJi9Ix4HlxhlQRR9d6rVYjsFA"},{"name": "Moxie's Grill & Bar", "address": "180 W Georgia St, Vancouver, BC V6B 4P4, Canada", "phone": "+1 604-684-8434", "tags": ["night_club", "bar", "restaurant", "food", "point_of_interest", "establishment"], "rating": 3.5, "website": "https://moxies.com/restaurant-locations/bc/vancouver-west-georgia-street", "location": {"lat": 49.27889039999999, "lng": -123.1130896}, "google_id": "ChIJqXfGF3xxhlQRAvL-tqjuoZk"},{"name": "Catch 122 Cafe Bistro", "address": "122 W Hastings St, Vancouver, BC V6B 1G8, Canada", "phone": "+1 604-731-3474", "tags": ["bar", "restaurant", "food", "point_of_interest", "establishment"], "rating": 4.2, "website": "http://www.catch122.ca/", "location": {"lat": 49.2820093, "lng": -123.1080514}, "google_id": "ChIJ3QdMiXlxhlQRp3roxm24JZ4"},{"name": "The Old Spaghetti Factory (Gastown)", "address": "53 Water St, Vancouver, BC V6B 1A1, Canada", "phone": "+1 604-684-1288", "tags": ["restaurant", "food", "point_of_interest", "establishment"], "rating": 4.3, "website": "http://www.oldspaghettifactory.ca/locations/gastown", "location": {"lat": 49.2838051, "lng": -123.1053723}, "google_id": "ChIJEwXWQndxhlQRRKy4phazLq0"},{"name": "Pourhouse Restaurant", "address": "162 Water St, Vancouver, BC V6B 1B2, Canada", "phone": "+1 604-568-7022", "tags": ["restaurant", "bar", "food", "point_of_interest", "establishment"], "rating": 4.3, "website": "http://www.pourhousevancouver.com/", "location": {"lat": 49.28405, "lng": -123.1083399}, "google_id": "ChIJB3AAznlxhlQRnidXy4IF-TU"},{"name": "Guilt & Co", "address": "1 Alexander St, Vancouver, BC V6A 1B2, Canada", "phone": "+1 604-288-1704", "tags": ["night_club", "bar", "restaurant", "food", "point_of_interest", "establishment"], "rating": 4.4, "website": "http://guiltandcompany.com/", "location": {"lat": 49.2837122, "lng": -123.1037771}, "google_id": "ChIJOVIWNndxhlQRSImd0AeAIIQ"},{"name": "La Taqueria Pinche Taco", "address": "322 W Hastings St, Vancouver, BC V6B 1K6, Canada", "phone": "+1 604-568-4406", "tags": ["restaurant", "food", "point_of_interest", "establishment"], "rating": 4.6, "website": "http://www.lataqueria.ca/", "location": {"lat": 49.282943, "lng": -123.110572}, "google_id": "ChIJKSKEqHlxhlQRKVQJ5Y-oZmw"},{"name": "Frankie's Italian Kitchen & Bar", "address": "765 Beatty St, Vancouver, BC V6B 2M4, Canada", "phone": "+1 604-688-6368", "tags": ["restaurant", "food", "point_of_interest", "establishment"], "rating": 4.1, "website": "http://www.frankiesitaliankitchen.ca/", "location": {"lat": 49.2781514, "lng": -123.1134082}, "google_id": "ChIJ4RL7TnxxhlQRTQkUNQSm-NA"},{"name": "Al Porto Ristorante", "address": "321 Water St, Vancouver, BC V6B 1B8, Canada", "phone": "+1 604-683-8376", "tags": ["restaurant", "food", "point_of_interest", "establishment"], "rating": 4.1, "website": "http://www.alporto.ca/", "location": {"lat": 49.2846851, "lng": -123.1093157}, "google_id": "ChIJM297MXhxhlQRzeNbCU0As9E"},{"name": "Trees Organic Coffee Gastown", "address": "321 Water St, Vancouver, BC V6B 1B8, Canada", "phone": "+1 604-633-3880", "tags": ["cafe", "meal_takeaway", "restaurant", "food", "point_of_interest", "store", "establishment"], "rating": 4.4, "website": "http://www.treescoffee.com/", "location": {"lat": 49.28451159999999, "lng": -123.1092599}, "google_id": "ChIJM297MXhxhlQRexycFVo2UQ8"},{"name": "L'Abattoir", "address": "217 Carrall St, Vancouver, BC V6B 2J2, Canada", "phone": "+1 604-568-1701", "tags": ["restaurant", "food", "point_of_interest", "establishment"], "rating": 4.5, "website": "https://www.labattoir.ca/", "location": {"lat": 49.2831345, "lng": -123.1044638}, "google_id": "ChIJJy1TTHdxhlQRgQQZgi9ga9o"},{"name": "Autostrada Osteria Downtown", "address": "350 W Pender St, Vancouver, BC V6B 1T1, Canada", "phone": "+1 604-428-9694", "tags": ["restaurant", "food", "point_of_interest", "establishment"], "rating": 4.6, "website": "http://www.autostradahospitality.ca/", "location": {"lat": 49.28260229999999, "lng": -123.1119652}, "google_id": "ChIJK1z-GnlxhlQRAw-wk7pQFiA"},{"name": "Yagger's Downtown Restaurant & Sports Bar", "address": "433 W Pender St, Vancouver, BC V6B 1V2, Canada", "phone": "+1 604-602-7030", "tags": ["bar", "restaurant", "food", "point_of_interest", "establishment"], "rating": 4.2, "website": "http://www.yaggers.com/", "location": {"lat": 49.283176, "lng": -123.112251}, "google_id": "ChIJq_eU4nhxhlQRzCf6E76BuFY"},{"name": "La Casita - Gastown", "address": "101 W Cordova St, Vancouver, BC V6B 1E1, Canada", "phone": "+1 604-646-2444", "tags": ["meal_delivery", "restaurant", "food", "point_of_interest", "establishment"], "rating": 4.1, "website": "http://www.lacasita.ca/", "location": {"lat": 49.2830832, "lng": -123.1069502}, "google_id": "ChIJc2D45XlxhlQRu3b5UFCKc9Q"},{"name": "Shark Club Sports Bar & Grill", "address": "180 W Georgia St, Vancouver, BC V6B 4P4, Canada", "phone": "+1 604-687-4275", "tags": ["bar", "restaurant", "food", "point_of_interest", "establishment"], "rating": 3.9, "website": "https://www.sharkclub.com/location/vancouver/", "location": {"lat": 49.27889039999999, "lng": -123.1130896}, "google_id": "ChIJqXfGF3xxhlQRrXlzGti5ZzU"},{"name": "Top Of Vancouver Revolving Restaurant", "address": "555 W Hastings St, Vancouver, BC V6B 4N6, Canada", "phone": "+1 604-669-2220", "tags": ["restaurant", "food", "point_of_interest", "establishment"], "rating": 3.9, "website": "http://www.topofvancouver.com/", "location": {"lat": 49.28458380000001, "lng": -123.1121818}, "google_id": "ChIJfe2sYHhxhlQRYY79aUl69vw"},{"name": "The Irish Heather", "address": "210 Carrall St, Vancouver, BC V6B 2J2, Canada", "phone": "+1 604-688-9779", "tags": ["bar", "restaurant", "food", "point_of_interest", "establishment"], "rating": 4.4, "website": "http://www.irishheather.com/", "location": {"lat": 49.2829071, "lng": -123.104133}, "google_id": "ChIJ3QVETHdxhlQRtfdz97f7uis"},{"name": "The Cambie Bar & Grill", "address": "300 Cambie St, Vancouver, BC V6B 2N3, Canada", "phone": "+1 604-688-9158", "tags": ["bar", "restaurant", "food", "point_of_interest", "establishment"], "rating": 4, "website": "http://www.cambiepubs.com/", "location": {"lat": 49.2831142, "lng": -123.109}, "google_id": "ChIJwdi9uXlxhlQRe6VP8Uv-PJc"},{"name": "Gotham Steakhouse & Cocktail Bar", "address": "615 Seymour St, Vancouver, BC V6B 3K3, Canada", "phone": "+1 604-605-8282", "tags": ["restaurant", "food", "point_of_interest", "establishment"], "rating": 4.5, "website": "http://www.gothamsteakhouse.com/", "location": {"lat": 49.282868, "lng": -123.11585}, "google_id": "ChIJVQQVMn9xhlQRfFSHaGDN_EY"},{"name": "Trees Organic Coffee", "address": "450 Granville St, Vancouver, BC V6C 1V4, Canada", "phone": "+1 604-684-5022", "tags": ["cafe", "restaurant", "food", "point_of_interest", "store", "establishment"], "rating": 4.2, "website": "http://www.treescoffee.com/", "location": {"lat": 49.28484419999999, "lng": -123.1142989}, "google_id": "ChIJx19lhHhxhlQR00Wyx2MBMZc"},{"name": "Canra Sri-Lankan Cuisine", "address": "88 W Pender St #2025, Vancouver, BC V6B 6N9, Canada", "phone": "+1 604-568-3545", "tags": ["meal_delivery", "meal_takeaway", "restaurant", "food", "point_of_interest", "establishment"], "rating": 4.3, "website": "", "location": {"lat": 49.279955, "lng": -123.1067379}, "google_id": "ChIJ6SNusXtxhlQR4OBeIWI-baE"},{"name": "Salt Tasting Room", "address": "45 Blood Alley Square, Vancouver, BC V6B 1C7, Canada", "phone": "+1 604-633-1912", "tags": ["restaurant", "food", "point_of_interest", "establishment"], "rating": 4.2, "website": "http://www.salttastingroom.com/", "location": {"lat": 49.28329799999999, "lng": -123.105692}, "google_id": "ChIJt0m4WXdxhlQRmE0tqjZQD8s"},{"name": "Save On Meats", "address": "43 W Hastings St, Vancouver, BC V6B 1G4, Canada", "phone": "+1 604-569-3568", "tags": ["restaurant", "food", "point_of_interest", "establishment"], "rating": 4.3, "website": "http://saveonmeats.ca/", "location": {"lat": 49.2818084, "lng": -123.1060332}, "google_id": "ChIJWyf7G3pxhlQRlpDKtbHg20M"},{"name": "The Flying Pig Gastown", "address": "102 Water St, Vancouver, BC V6B 1B2, Canada", "phone": "+1 604-559-7968", "tags": ["restaurant", "food", "point_of_interest", "establishment"], "rating": 4.2, "website": "http://www.theflyingpigvan.com/", "location": {"lat": 49.2837736, "lng": -123.1066052}, "google_id": "ChIJMQXDYXdxhlQRkJE5e5AW8ag"},{"name": "Nuba in Gastown", "address": "207 W Hastings St, Vancouver, BC V6B 1K6, Canada", "phone": "+1 604-688-1655", "tags": ["bar", "restaurant", "food", "point_of_interest", "establishment"], "rating": 4.3, "website": "https://www.nuba.ca/", "location": {"lat": 49.2828315, "lng": -123.1097389}, "google_id": "ChIJ9aoKpHlxhlQRAH-J_yYq6Oc"},{"name": "Rogue Kitchen & Wetbar", "address": "601 W Cordova St, Vancouver, BC V6B 1G1, Canada", "phone": "+1 604-678-8000", "tags": ["restaurant", "bar", "food", "point_of_interest", "establishment"], "rating": 3.9, "website": "http://www.roguewetbar.com/", "location": {"lat": 49.2853562, "lng": -123.1113752}, "google_id": "ChIJIft1c3hxhlQR8Nk5KKui3cM"},{"name": "Tsuki Sushi Bar", "address": "509 Abbott St, Vancouver, BC V6B 2L2, Canada", "phone": "+1 604-558-3805", "tags": ["meal_takeaway", "restaurant", "food", "point_of_interest", "establishment"], "rating": 4.1, "website": "http://tsukisushibar.ca/", "location": {"lat": 49.2808985, "lng": -123.1078131}, "google_id": "ChIJJ8YrM3pxhlQR3p8xNI44_Q4"},{"name": "Fatburger Dunsmuir", "address": "111 Dunsmuir St, Vancouver, BC V6B 6A3, Canada", "phone": "+1 604-669-9640", "tags": ["restaurant", "food", "point_of_interest", "establishment"], "rating": 4.2, "website": "https://www.fatburgercanada.com/locations/fatburger-dunsmuir", "location": {"lat": 49.28022599999999, "lng": -123.110319}, "google_id": "ChIJ6Y718HtxhlQR7vrOVOD5cBc"},{"name": "Goldies Pizza", "address": "605 W Pender St, Vancouver, BC V6B 1W7, Canada", "phone": "", "tags": ["restaurant", "food", "point_of_interest", "establishment"], "rating": 3.9, "website": "http://goldiespizza.com/", "location": {"lat": 49.2842028, "lng": -123.1139754}, "google_id": "ChIJt8umk3hxhlQRns1Nu5YOPfk"},{"name": "Bonchaz Bakery Cafe", "address": "426 W Hastings St, Vancouver, BC V6B 1L1, Canada", "phone": "+1 604-568-0084", "tags": ["bakery", "meal_takeaway", "cafe", "restaurant", "food", "point_of_interest", "store", "establishment"], "rating": 4.1, "website": "http://www.bonchaz.ca/", "location": {"lat": 49.28359039999999, "lng": -123.1115798}, "google_id": "ChIJH3mKVXhxhlQRE3x3YGMOK08"},{"name": "131 Water Kitchen & Bar", "address": "131 Water St, Vancouver, BC V6B 4M3, Canada", "phone": "+1 604-669-7219", "tags": ["bar", "restaurant", "food", "point_of_interest", "establishment"], "rating": 3.7, "website": "http://www.131water.com/", "location": {"lat": 49.2841574, "lng": -123.1072955}, "google_id": "ChIJeY9213lxhlQR8XqagkQfLrY"},{"name": "Momo Sushi", "address": "6-375 Water St, Vancouver, BC V6B 5C6, Canada", "phone": "+1 604-683-7632", "tags": ["restaurant", "food", "point_of_interest", "establishment"], "rating": 4.2, "website": "http://momogastown.ca/", "location": {"lat": 49.284686, "lng": -123.110254}, "google_id": "ChIJP0wBP3hxhlQRTAaG6y4I_nQ"},{"name": "Cafe Crepe", "address": "574 Granville St, Vancouver, BC V6C 1W6, Canada", "phone": "+1 604-428-0936", "tags": ["restaurant", "food", "point_of_interest", "store", "establishment"], "rating": 3.9, "website": "http://www.cafecrepe.com/", "location": {"lat": 49.2837828, "lng": -123.1158762}, "google_id": "ChIJscRIzH9xhlQRoaVFekF8YZU"},{"name": "Uncle Fatih's Pizza - ABBOTT", "address": "638 Abbott St, Vancouver, BC V6B 6N7, Canada", "phone": "+1 604-566-9696", "tags": ["restaurant", "food", "point_of_interest", "establishment"], "rating": 4.2, "website": "http://www.unclefatih.com/", "location": {"lat": 49.2792462, "lng": -123.1074638}, "google_id": "ChIJxd_xpntxhlQRD6vpF5ut53E"},{"name": "Triple O's", "address": "800 Griffiths Way, Vancouver, BC V6B 6G1, Canada", "phone": "+1 604-899-7440", "tags": ["restaurant", "food", "point_of_interest", "establishment"], "rating": 3.6, "website": "http://www.tripleos.com/", "location": {"lat": 49.27816980000001, "lng": -123.1087708}, "google_id": "ChIJK7VbnXxxhlQRxjOGNtSUpyw"},{"name": "Freshslice Pizza", "address": "549 W Pender St, Vancouver, BC V6B 1V5, Canada", "phone": "+1 604-909-7878", "tags": ["meal_delivery", "meal_takeaway", "restaurant", "food", "point_of_interest", "establishment"], "rating": 4, "website": "http://www.freshslice.com/", "location": {"lat": 49.2838187, "lng": -123.113283}, "google_id": "ChIJB61b0nhxhlQRFU50C2IBZCs"},{"name": "Clough Club Cocktail Club", "address": "212 Abbott St, Vancouver, BC V6B 2K8, Canada", "phone": "+1 604-558-1581", "tags": ["bar", "night_club", "restaurant", "food", "point_of_interest", "establishment"], "rating": 4.2, "website": "http://donnellygroup.ca/clough-club/", "location": {"lat": 49.2835707, "lng": -123.1063608}, "google_id": "ChIJ0WvvX3dxhlQRlOJmfXiiKYA"},{"name": "Six Acres", "address": "203 Carrall St, Vancouver, BC V6B 2J2, Canada", "phone": "+1 604-488-0110", "tags": ["bar", "restaurant", "food", "point_of_interest", "establishment"], "rating": 4.3, "website": "https://www.sixacres.ca/", "location": {"lat": 49.2833649, "lng": -123.1044223}, "google_id": "ChIJTRHlTndxhlQRNl_jlsUsokI"},{"name": "Malone's Social Lounge & Taphouse", "address": "608 W Pender St, Vancouver, BC V6B 1V8, Canada", "phone": "+1 604-684-9977", "tags": ["bar", "restaurant", "food", "point_of_interest", "establishment"], "rating": 4, "website": "http://www.malones.bc.ca/", "location": {"lat": 49.284031, "lng": -123.114136}, "google_id": "ChIJ78Kt7HhxhlQRC9LwX4-Fw98"},{"name": "Sushi Home", "address": "509 Dunsmuir St, Vancouver, BC V6B 1Y4, Canada", "phone": "+1 604-689-8808", "tags": ["restaurant", "food", "point_of_interest", "establishment"], "rating": 3.8, "website": "http://www.sushi-home.com/", "location": {"lat": 49.28257709999999, "lng": -123.1145914}, "google_id": "ChIJbbQy1HhxhlQRHnowxp8ZzZg"},{"name": "New Amsterdam Cafe", "address": "301 W Hastings St, Vancouver, BC V6B 1H6, Canada", "phone": "+1 604-682-8955", "tags": ["cafe", "restaurant", "food", "point_of_interest", "clothing_store", "store", "establishment"], "rating": 4.6, "website": "http://newamsterdamcafe.com/", "location": {"lat": 49.2829339, "lng": -123.1099321}, "google_id": "ChIJ2W6lpnlxhlQRz2vboue7W7g"},{"name": "Meat & Bread", "address": "370 Cambie St, Vancouver, BC V6B 1H7, Canada", "phone": "", "tags": ["restaurant", "food", "point_of_interest", "establishment"], "rating": 4.6, "website": "https://www.meatandbread.com/cambie-st-vancouver/", "location": {"lat": 49.2826215, "lng": -123.109359}, "google_id": "ChIJT7tponlxhlQRXg5AoyEz6lI"},{"name": "Freshbowl", "address": "360 Cambie St, Vancouver, BC V6B 2N3, Canada", "phone": "+1 604-428-3252", "tags": ["restaurant", "food", "point_of_interest", "establishment"], "rating": 4.2, "website": "http://www.freshbowl.ca/", "location": {"lat": 49.282654, "lng": -123.1093651}, "google_id": "ChIJW2tZonlxhlQRA2odpk8KJnY"},{"name": "Vera's Burger Shack", "address": "213 Carrall St, Vancouver, BC V6B 2J2, Canada", "phone": "+1 604-568-5850", "tags": ["bar", "restaurant", "food", "point_of_interest", "establishment"], "rating": 3.9, "website": "http://verasburgershack.com/", "location": {"lat": 49.2831799, "lng": -123.1044334}, "google_id": "ChIJnepITHdxhlQRXQvru25S3YQ"},{"name": "Bao Bei", "address": "163 Keefer St, Vancouver, BC V6A 1X4, Canada", "phone": "+1 604-688-0876", "tags": ["restaurant", "food", "point_of_interest", "establishment"], "rating": 4.4, "website": "http://bao-bei.ca/", "location": {"lat": 49.2796534, "lng": -123.1006157}, "google_id": "ChIJWco1DnBxhlQRWIzGva76dZc"},{"name": "Bay Sushi Cafe Express", "address": "678 Seymour St, Vancouver, BC V6B 3K4, Canada", "phone": "+1 604-806-0363", "tags": ["restaurant", "food", "point_of_interest", "establishment"], "rating": 4, "website": "http://www.baysushicafe.com/", "location": {"lat": 49.2820833, "lng": -123.1165378}, "google_id": "ChIJg7XcI39xhlQRddv_yrzbb7k"},{"name": "Nicli Antica Pizzeria", "address": "62 E Cordova St, Vancouver, BC V6A 1K2, Canada", "phone": "+1 604-669-6985", "tags": ["restaurant", "food", "point_of_interest", "establishment"], "rating": 4.4, "website": "http://niclipizzeria.com/", "location": {"lat": 49.2821758, "lng": -123.102822}, "google_id": "ChIJpYZCuXBxhlQRcJYrRBWsKV4"},{"name": "Guu with Otokomae", "address": "375 Water St #105, Vancouver, BC V6B 5C6, Canada", "phone": "+1 604-685-8682", "tags": ["restaurant", "food", "point_of_interest", "establishment"], "rating": 4.3, "website": "http://guu-izakaya.com/Otokomae", "location": {"lat": 49.2847191, "lng": -123.1103983}, "google_id": "ChIJP0wBP3hxhlQR5bMiXWGm6Zs"},{"name": "Blarney Stone", "address": "216 Carrall St, Vancouver, BC V6B 2J1, Canada", "phone": "+1 604-687-4322", "tags": ["bar", "restaurant", "food", "point_of_interest", "establishment"], "rating": 4.2, "website": "http://blarneystone.ca/", "location": {"lat": 49.282771, "lng": -123.1040891}, "google_id": "ChIJO134S3dxhlQRKmR_WqfRU1A"},{"name": "Wildebeest", "address": "120 W Hastings St, Vancouver, BC V6B 1G8, Canada", "phone": "+1 604-687-6880", "tags": ["bar", "restaurant", "food", "point_of_interest", "establishment"], "rating": 4.3, "website": "http://www.wildebeest.ca/", "location": {"lat": 49.2819194, "lng": -123.1080066}, "google_id": "ChIJkfBOiXlxhlQRyiWs7_mWYQ8"},{"name": "The Diamond", "address": "6 Powell St, Vancouver, BC V6A 1E9, Canada", "phone": "", "tags": ["night_club", "bar", "restaurant", "food", "point_of_interest", "establishment"], "rating": 4.4, "website": "http://di6mond.com/", "location": {"lat": 49.2831687, "lng": -123.1039634}, "google_id": "ChIJT2m1S3dxhlQRiepj1ccIAmw"},{"name": "Revel Room Supper Club & Live Music Restaurant", "address": "238 Abbott St, Vancouver, BC V6B 2K8, Canada", "phone": "+1 604-687-4088", "tags": ["bar", "restaurant", "food", "point_of_interest", "establishment"], "rating": 4.3, "website": "http://www.revelroom.ca/", "location": {"lat": 49.28307, "lng": -123.10657}, "google_id": "ChIJwbZC5HlxhlQR0sGZhfoxmsU"},{"name": "World Wrap Place", "address": "68 Water St suite 101, Vancouver, BC V6B 1A4, Canada", "phone": "+1 604-862-4983", "tags": ["restaurant", "food", "point_of_interest", "establishment"], "rating": 3.9, "website": "", "location": {"lat": 49.283644, "lng": -123.1058191}, "google_id": "ChIJN_SWXXdxhlQRI0atO_K7OiE"},{"name": "Hiro Japan Xpress", "address": "142 W Cordova St, Vancouver, BC V6A 1K9, Canada", "phone": "+1 604-566-9393", "tags": ["restaurant", "food", "point_of_interest", "establishment"], "rating": 3.4, "website": "https://hirojapan.ca/wpsite/", "location": {"lat": 49.28304800000001, "lng": -123.108273}, "google_id": "ChIJcwFYwHlxhlQRy7nRT7rKJJQ"},{"name": "JJ's Restaurant", "address": "250 W Pender St, Vancouver, BC V6B 1T1, Canada", "phone": "+1 604-443-8479", "tags": ["restaurant", "food", "point_of_interest", "establishment"], "rating": 4.3, "website": "http://www.vcc.ca/services/eat-shop--more/jjs-restaurant/", "location": {"lat": 49.2815573, "lng": -123.1108429}, "google_id": "ChIJCXRHbXlxhlQRY8leL89SfeY"},{"name": "Taishoken Ramen", "address": "515 Abbott St, Vancouver, BC V6B 2L2, Canada", "phone": "+1 778-737-3805", "tags": ["restaurant", "food", "point_of_interest", "establishment"], "rating": 4.2, "website": "https://www.facebook.com/taishokenramen.vancouver/", "location": {"lat": 49.28084699999999, "lng": -123.1078336}, "google_id": "ChIJhcTSzHtxhlQR0vXh32RpbvI"},{"name": "PappaRoti", "address": "193 Keefer Pl Unit 103, Vancouver, BC V6B 6C1, Canada", "phone": "+1 604-620-2867", "tags": ["cafe", "restaurant", "food", "point_of_interest", "establishment"], "rating": 4.4, "website": "https://www.papparoti.ca/papparoti-keefer-place", "location": {"lat": 49.2800689, "lng": -123.1086346}, "google_id": "ChIJQSQvv3txhlQRWKVZ9SMI-0M"},{"name": "Charisma Cafe & Dessert House", "address": "197 Keefer Pl, Vancouver, BC V6B 6C1, Canada", "phone": "+1 604-620-4688", "tags": ["restaurant", "food", "point_of_interest", "store", "establishment"], "rating": 4.4, "website": "http://charismabc.com/", "location": {"lat": 49.2799406, "lng": -123.1087145}, "google_id": "ChIJrRJmv3txhlQR3MkGD9d3OPA"},{"name": "HiroJapan Sushi Xpress", "address": "142 W Cordova St, Vancouver, BC V6B 1C9, Canada", "phone": "+1 604-773-6663", "tags": ["restaurant", "food", "point_of_interest", "establishment"], "rating": 3.1, "website": "https://hirojapan.ca/wpsite/", "location": {"lat": 49.28304800000001, "lng": -123.108273}, "google_id": "ChIJ10x16XlxhlQReQGmlvoDcNA"}]