[{"name": "The Sandbar Seafood Restaurant", "address": "1535 Johnston St, Vancouver, BC V6H 3R9, Canada", "phone": "+1 604-669-9030", "tags": ["restaurant", "food", "point_of_interest", "establishment"], "rating": 4.3, "website": "https://www.vancouverdine.com/sandbar", "location": {"lat": 49.2715945, "lng": -123.1343759}, "google_id": "ChIJj6Jmb85zhlQR8ho06uTUy6U"},{"name": "The Keg Steakhouse + Bar - Granville Island", "address": "1499 Anderson St, Vancouver, BC V6H 3R5, Canada", "phone": "+1 604-685-4735", "tags": ["restaurant", "food", "point_of_interest", "establishment"], "rating": 4.2, "website": "https://kegsteakhouse.com/locations/granville-island-keg/#siteContent", "location": {"lat": 49.2712624, "lng": -123.1357429}, "google_id": "ChIJK-T5ZUbKcFMRssnXn4ubAnI"},{"name": "Dockside restaurant", "address": "1253 Johnston St, Vancouver, BC V6H 3R9, Canada", "phone": "+1 604-685-7070", "tags": ["restaurant", "bar", "food", "point_of_interest", "establishment"], "rating": 3.9, "website": "http://www.docksidevancouver.com/", "location": {"lat": 49.26948609999999, "lng": -123.131177}, "google_id": "ChIJP6I2o89zhlQRSd2949wlALs"},{"name": "Bridges Restaurant", "address": "1696 Duranleau St, Vancouver, BC V6H 3S4, Canada", "phone": "+1 604-687-4400", "tags": ["bar", "restaurant", "food", "point_of_interest", "establishment"], "rating": 3.8, "website": "http://www.bridgesrestaurant.com/", "location": {"lat": 49.272817, "lng": -123.1364204}, "google_id": "ChIJPcuE181zhlQRix5fl81yHxM"},{"name": "Tony's Fish & Oyster Cafe", "address": "1511 Anderson St, Vancouver, BC V6H 3R5, Canada", "phone": "+1 604-683-7127", "tags": ["bar", "restaurant", "food", "point_of_interest", "establishment"], "rating": 4.1, "website": "http://www.tonysfishandoystercafe.com/", "location": {"lat": 49.2707061, "lng": -123.1364206}, "google_id": "ChIJU2aU7s5zhlQRICX9WHYo0K8"},{"name": "Pacific Institute of Culinary Arts", "address": "1505 W 2nd Ave #101, Vancouver, BC V6H 3Y4, Canada", "phone": "+1 604-734-4488", "tags": ["bakery", "restaurant", "food", "point_of_interest", "store", "establishment"], "rating": 4.4, "website": "https://www.picachef.com/", "location": {"lat": 49.2698683, "lng": -123.1378827}, "google_id": "ChIJ9WYgLclzhlQRa_dggqHldBw"},{"name": "Beanstalk Bistro", "address": "1496 Cartwright St, Vancouver, BC V6H 4J6, Canada", "phone": "+1 604-484-8288", "tags": ["restaurant", "food", "point_of_interest", "establishment"], "rating": 3.3, "website": "", "location": {"lat": 49.2703229, "lng": -123.1358523}, "google_id": "ChIJO_9G5M5zhlQRxc2FLgXqOP8"},{"name": "Seafood City", "address": "1689 Johnston St #143, Vancouver, BC V6H 3R9, Canada", "phone": "+1 604-688-1818", "tags": ["restaurant", "food", "point_of_interest", "establishment"], "rating": 4.6, "website": "http://www.seafoodcitygi.com/", "location": {"lat": 49.27217419999999, "lng": -123.1348808}, "google_id": "ChIJZz6rb85zhlQRE91D39Lerjs"},{"name": "La Tortilleria", "address": "1689 Johnston St, Vancouver, BC V6H 3R9, Canada", "phone": "+1 604-684-8220", "tags": ["restaurant", "food", "point_of_interest", "establishment"], "rating": 3.7, "website": "https://latortilleriagranvilleisland.ca/", "location": {"lat": 49.2728273, "lng": -123.1352421}, "google_id": "ChIJG3q8d85zhlQR-ah4P6bbH-c"},{"name": "Joe's BBQ boat", "address": "1820 Mast Tower Ln, Vancouver, BC V6H 4B6, Canada", "phone": "+1 604-720-5141", "tags": ["restaurant", "food", "point_of_interest", "establishment"], "rating": 3.9, "website": "http://www.joesbbqboat.com/", "location": {"lat": 49.271435, "lng": -123.136396}, "google_id": "ChIJIzoLJSZyhlQRp4KQcKfBDnU"},{"name": "Sen Pad Thai", "address": "1689 Johnston St, Vancouver, BC V6H 3R9, Canada", "phone": "+1 604-428-7900", "tags": ["restaurant", "food", "point_of_interest", "establishment"], "rating": 4.1, "website": "http://www.senpadthai.com/", "location": {"lat": 49.2728156, "lng": -123.134995}, "google_id": "ChIJJaBwcM5zhlQRklpR_RexGAw"},{"name": "Granville Island Brewing", "address": "1441 Cartwright St, Vancouver, BC V6H 3R7, Canada", "phone": "+1 604-687-2739", "tags": ["liquor_store", "restaurant", "food", "point_of_interest", "store", "establishment"], "rating": 4.3, "website": "http://www.gib.ca/", "location": {"lat": 49.270502, "lng": -123.135661}, "google_id": "ChIJH3Iq8M5zhlQRHeW0Mjyb6T8"},{"name": "Chang 'An", "address": "1/F, 1661 Granville St, Vancouver, BC V6Z 1N3, Canada", "phone": "+1 604-681-1313", "tags": ["restaurant", "food", "point_of_interest", "establishment"], "rating": 4, "website": "http://tastechangan.com/", "location": {"lat": 49.2733163, "lng": -123.13284}, "google_id": "ChIJ1VVh_NFzhlQRNWREHccGzsU"},{"name": "Edible Canada", "address": "1596 Johnston St, Vancouver, BC V6H 3R9, Canada", "phone": "+1 604-682-6681", "tags": ["grocery_or_supermarket", "bar", "restaurant", "food", "point_of_interest", "store", "establishment"], "rating": 4.1, "website": "https://ediblecanada.com/", "location": {"lat": 49.271752, "lng": -123.135023}, "google_id": "ChIJ4wqKZc5zhlQR5wAOqCK6UYM"},{"name": "Stock Market", "address": "1689 Johnston St, Vancouver, BC V6H 3R9, Canada", "phone": "+1 604-687-2433", "tags": ["grocery_or_supermarket", "restaurant", "food", "point_of_interest", "store", "establishment"], "rating": 4.3, "website": "http://www.thestockmarket.ca/", "location": {"lat": 49.2724291, "lng": -123.1346651}, "google_id": "ChIJwfINcs5zhlQRnR1TEXCRJqA"},{"name": "Blue Hat Bistro", "address": "1505 #101, W 2nd Ave, Vancouver, BC V6H 3Y4, Canada", "phone": "+1 604-734-0101", "tags": ["restaurant", "food", "point_of_interest", "establishment"], "rating": 4.4, "website": "https://www.picachef.com/bistro-101-restaurant", "location": {"lat": 49.2698875, "lng": -123.1379948}, "google_id": "ChIJ9WYgLclzhlQRo8tzI_KTKVg"},{"name": "Market Grill", "address": "1689 Johnston St, Vancouver, BC V6H 3R9, Canada", "phone": "+1 604-689-1918", "tags": ["restaurant", "food", "point_of_interest", "establishment"], "rating": 4.2, "website": "", "location": {"lat": 49.272541, "lng": -123.1347926}, "google_id": "ChIJG3q8d85zhlQR2JurFSXWfok"},{"name": "Celine's Fish & Chips", "address": "1689 Johnston St, Vancouver, BC V6H 3R9, Canada", "phone": "+1 604-669-8650", "tags": ["restaurant", "food", "point_of_interest", "establishment"], "rating": 3.3, "website": "", "location": {"lat": 49.27283849999999, "lng": -123.1349396}, "google_id": "ChIJG3q8d85zhlQRcXV7OxDY740"},{"name": "Ancora Waterfront Dining and Patio", "address": "1600 Howe St #2, Vancouver, BC V6Z 2L9, Canada", "phone": "+1 604-681-1164", "tags": ["bar", "restaurant", "food", "point_of_interest", "establishment"], "rating": 4.4, "website": "http://www.ancoradining.com/", "location": {"lat": 49.2738389, "lng": -123.132593}, "google_id": "ChIJrVQM-NFzhlQR5039qtBEmXE"},{"name": "The Liberty Distillery", "address": "1494 Old Bridge St, Vancouver, BC V6H 3S6, Canada", "phone": "+1 604-558-1998", "tags": ["night_club", "bar", "liquor_store", "restaurant", "food", "point_of_interest", "store", "establishment"], "rating": 4.5, "website": "http://www.thelibertydistillery.com/", "location": {"lat": 49.270394, "lng": -123.134551}, "google_id": "ChIJkbey_85zhlQRAd4Ia0mQIvU"},{"name": "Fraser Valley Juice & Salad", "address": "1689 Johnston St, Vancouver, BC V6H 3R9, Canada", "phone": "+1 604-669-0727", "tags": ["restaurant", "food", "point_of_interest", "establishment"], "rating": 3.2, "website": "http://www.fraservalleyjuice.com/", "location": {"lat": 49.2726344, "lng": -123.1352983}, "google_id": "ChIJG3q8d85zhlQR2Nx9CbARiAk"},{"name": "FAREWICK", "address": "1680 Johnston St, Vancouver, BC V6H 3S2, Canada", "phone": "", "tags": ["restaurant", "food", "point_of_interest", "establishment"], "rating": "", "website": "http://www.farewick.ca/", "location": {"lat": 49.2712475, "lng": -123.1353792}, "google_id": "ChIJTa-Xec5zhlQRkTWn_jzG5WY"},{"name": "Vaporetto", "address": "1585 Johnston St, Vancouver, BC V6H 3R9, Canada", "phone": "", "tags": ["restaurant", "food", "point_of_interest", "establishment"], "rating": 3.3, "website": "", "location": {"lat": 49.27226169999999, "lng": -123.1343217}, "google_id": "ChIJ82HcbM5zhlQR4rYhaPiab1c"},{"name": "The Tuck Shoppe", "address": "7-1666 Johnston St, Vancouver, BC V6H 3S2, Canada", "phone": "+1 604-681-1214", "tags": ["restaurant", "food", "point_of_interest", "establishment"], "rating": 5, "website": "http://thetuckshoppe.com/", "location": {"lat": 49.272096, "lng": -123.1356255}, "google_id": "ChIJgVg1sm1zhlQREFFP98SP2yU"},{"name": "The Vancouver Fish Company", "address": "1517 Anderson St, Vancouver, BC V6H 3R5, Canada", "phone": "+1 604-559-3474", "tags": ["restaurant", "food", "point_of_interest", "establishment"], "rating": 4, "website": "http://www.vanfish.com/", "location": {"lat": 49.27065289999999, "lng": -123.1366117}, "google_id": "ChIJr34m8M5zhlQRn3iyiebMMtI"},{"name": "Chau Veggie Express", "address": "1689 Johnston St, Vancouver, BC V6H 3S2, Canada", "phone": "+1 778-379-9508", "tags": ["restaurant", "food", "point_of_interest", "establishment"], "rating": 4.4, "website": "http://www.chowatchau.ca/", "location": {"lat": 49.27266729999999, "lng": -123.1352518}, "google_id": "ChIJn266dc5zhlQRuo9mi1ya7d4"},{"name": "Pizza Pzazz", "address": "1689 Johnston St, Vancouver, BC V6H 3R9, Canada", "phone": "+1 604-689-9002", "tags": ["restaurant", "food", "point_of_interest", "store", "establishment"], "rating": 4.4, "website": "", "location": {"lat": 49.27270970000001, "lng": -123.1351804}, "google_id": "ChIJmVerb85zhlQRcjIeXSAwzzI"},{"name": "Sprig Contemporary Greek Kitchen", "address": "1689 Johnston St, Vancouver, BC V6H 3S2, Canada", "phone": "", "tags": ["restaurant", "food", "point_of_interest", "establishment"], "rating": 4.4, "website": "", "location": {"lat": 49.27274380000001, "lng": -123.135125}, "google_id": "ChIJAZNLdM5zhlQRbYf9d1KOECk"},{"name": "Omi Japan", "address": "1689 Johnston St, Vancouver, BC V6H 3R9, Canada", "phone": "+1 604-685-8011", "tags": ["restaurant", "food", "point_of_interest", "establishment"], "rating": 1.9, "website": "", "location": {"lat": 49.27277220000001, "lng": -123.1350362}, "google_id": "ChIJG3q8d85zhlQRAhENv4uFrY4"},{"name": "Kaisereck Deli", "address": "1689 Johnston St #114, Vancouver, BC V6H 3R9, Canada", "phone": "+1 604-685-8810", "tags": ["restaurant", "food", "point_of_interest", "establishment"], "rating": 3.8, "website": "https://www.facebook.com/kaisereckdeli", "location": {"lat": 49.2727209, "lng": -123.1355203}, "google_id": "ChIJG3q8d85zhlQR3voZ6pdfmOQ"},{"name": "Gourmet Wok", "address": "1689 Johnston St #106, Vancouver, BC V6H 3R9, Canada", "phone": "+1 604-568-1185", "tags": ["restaurant", "food", "point_of_interest", "establishment"], "rating": 2.8, "website": "https://granvilleisland.com/directory/gourmet-wok", "location": {"lat": 49.2728604, "lng": -123.1351849}, "google_id": "ChIJmVerb85zhlQRZcCQy1Tij6o"},{"name": "Popina Canteen", "address": "1691 Johnston St, Vancouver, BC V6H 3R9, Canada", "phone": "+1 604-428-7518", "tags": ["restaurant", "food", "point_of_interest", "store", "establishment"], "rating": 3.6, "website": "http://popinacanteen.com/", "location": {"lat": 49.2728881, "lng": -123.13562}, "google_id": "ChIJv7-lqmVzhlQRRN2dTBHmeXM"}]