[{"name": "Freshslice Pizza", "address": "6382 Bay St, West Vancouver, BC V7W 2G9, Canada", "phone": "+1 778-279-6681", "tags": ["meal_delivery", "meal_takeaway", "restaurant", "food", "point_of_interest", "establishment"], "rating": 4, "website": "http://www.freshslice.com/", "location": {"lat": 49.374239, "lng": -123.273739}, "google_id": "ChIJTQe16_ZrhlQRIk85WvnfJvQ"},{"name": "Subway", "address": "6610 Royal Ave, West Vancouver, BC V7W 2B9, Canada", "phone": "+1 604-921-6789", "tags": ["restaurant", "food", "point_of_interest", "establishment"], "rating": 3.9, "website": "http://www.subway.com/", "location": {"lat": 49.3737278, "lng": -123.2746757}, "google_id": "ChIJZxJIkPZrhlQR2tPZU3cvZVk"},{"name": "Bay Sushi", "address": "6371 Bruce St, West Vancouver, BC V7W 2G5, Canada", "phone": "+1 604-913-8973", "tags": ["restaurant", "food", "point_of_interest", "establishment"], "rating": 4, "website": "", "location": {"lat": 49.3736903, "lng": -123.274056}, "google_id": "ChIJ890OjPZrhlQRzfuYU7m7Z0g"},{"name": "Bay Moorings Restaurant", "address": "6330 Bay St, West Vancouver, BC V7W 3H5, Canada", "phone": "+1 604-921-8184", "tags": ["bar", "restaurant", "food", "point_of_interest", "establishment"], "rating": 4.1, "website": "http://baymooringsrestaurant.com/", "location": {"lat": 49.3741478, "lng": -123.2730051}, "google_id": "ChIJqRY35fZrhlQR5c8Vc1IxiHs"},{"name": "Horseshoe Bay Chinese Restaurant", "address": "6612 Royal Ave, West Vancouver, BC V7W 2B9, Canada", "phone": "+1 604-921-8828", "tags": ["restaurant", "food", "point_of_interest", "establishment"], "rating": 4.4, "website": "https://m.facebook.com/Horseshoe-Bay-Chinese-Restaurant-477089473028528/", "location": {"lat": 49.3738047, "lng": -123.2745423}, "google_id": "ChIJyy2qkfZrhlQRcdmPbB628YM"},{"name": "Pudgie's Pizza", "address": "6620 Royal Ave, West Vancouver, BC V7W 2B9, Canada", "phone": "+1 604-921-6866", "tags": ["restaurant", "food", "point_of_interest", "establishment"], "rating": 4.7, "website": "http://www.pudgiesinthebay.com/", "location": {"lat": 49.373887, "lng": -123.2745802}, "google_id": "ChIJo46bkfZrhlQRbpw4SGBHM6I"},{"name": "C-Lovers Fish & Chips", "address": "6640 Royal Ave, West Vancouver, BC V7W 2B8, Canada", "phone": "+1 604-913-0994", "tags": ["meal_takeaway", "restaurant", "food", "point_of_interest", "establishment"], "rating": 4.2, "website": "http://c-lovers.com/", "location": {"lat": 49.3739606, "lng": -123.2744513}, "google_id": "ChIJcytqNdJxhlQRjI3_HMnypxU"},{"name": "Troll's Restaurant", "address": "6408 Bay St, West Vancouver, BC V7W 2H1, Canada", "phone": "+1 604-921-7755", "tags": ["restaurant", "food", "point_of_interest", "establishment"], "rating": 3.9, "website": "http://www.trollsrestaurant.com/", "location": {"lat": 49.374441, "lng": -123.274549}, "google_id": "ChIJmQhOx_ZrhlQRG4dZA5C31Gc"},{"name": "Olive & Anchor", "address": "6418 Bay St, West Vancouver, BC V7W 2H1, Canada", "phone": "+1 604-921-8848", "tags": ["restaurant", "food", "point_of_interest", "establishment"], "rating": 4.4, "website": "http://www.oliveandanchor.com/", "location": {"lat": 49.3746587, "lng": -123.2748934}, "google_id": "ChIJd7lYv_ZrhlQRGcZErSYflPI"},{"name": "Glen Eagles Marina", "address": "6190 Marine Dr, West Vancouver, BC V7W 2S3, Canada", "phone": "", "tags": ["restaurant", "food", "point_of_interest", "establishment"], "rating": "", "website": "", "location": {"lat": 49.36323139999999, "lng": -123.279047}, "google_id": "ChIJSchPfGRthlQRZSZaPN1vfho"}]