[{"name": "Golden Pearl Restaurant", "address": "333 Brooksbank Ave, North Vancouver, BC V7J 3S8, Canada", "phone": "+1 604-986-3733", "tags": ["restaurant", "food", "point_of_interest", "establishment"], "rating": 3.6, "website": "http://goldenpearlrestaurant.com/", "location": {"lat": 49.3082696, "lng": -123.0413916}, "google_id": "ChIJXSRAavVwhlQRmMqCtjYIw50"},{"name": "White Spot", "address": "333 Brooksbank Ave #1100, North Vancouver, BC V7J 3S8, Canada", "phone": "+1 604-988-4199", "tags": ["restaurant", "food", "point_of_interest", "establishment"], "rating": 4, "website": "http://www.whitespot.ca/", "location": {"lat": 49.307824, "lng": -123.0409558}, "google_id": "ChIJXSRAavVwhlQRt13rrA__3yA"},{"name": "Flying Wedge", "address": "333 Brooksbank Ave #140, North Vancouver, BC V7J 3S8, Canada", "phone": "+1 604-929-3343", "tags": ["restaurant", "food", "point_of_interest", "establishment"], "rating": 3, "website": "http://www.flyingwedge.com/", "location": {"lat": 49.30831329999999, "lng": -123.0415653}, "google_id": "ChIJXSRAavVwhlQRFGB-QkIiyN0"},{"name": "Seymour's Pub & Grill", "address": "720 Lillooet Rd, North Vancouver, BC V7J 2H5, Canada", "phone": "+1 604-904-8778", "tags": ["bar", "restaurant", "food", "point_of_interest", "establishment"], "rating": 3.9, "website": "http://www.seymourspub.com/", "location": {"lat": 49.31274089999999, "lng": -123.0269333}, "google_id": "ChIJ3YyRVn1whlQRNHXvqRMDsac"},{"name": "S'wich Cafe", "address": "644 Queensbury Ave, North Vancouver, BC V7L 3V6, Canada", "phone": "+1 604-973-0133", "tags": ["restaurant", "food", "point_of_interest", "establishment"], "rating": 4.7, "website": "http://swichcatering.com/", "location": {"lat": 49.3122151, "lng": -123.0569884}, "google_id": "ChIJZa6woFtwhlQRvnHlcAEOjsc"},{"name": "Tour De Feast", "address": "319 Mountain Hwy, North Vancouver, BC V7J 2K7, Canada", "phone": "+1 604-980-1811", "tags": ["restaurant", "food", "point_of_interest", "establishment"], "rating": 4.6, "website": "http://tourdefeast.com/", "location": {"lat": 49.307389, "lng": -123.03217}, "google_id": "ChIJdySln4twhlQR7OTYe5KFFRs"},{"name": "Queensbury Market & Vape Shop", "address": "711 Queensbury Ave, North Vancouver, BC V7L 3V9, Canada", "phone": "+1 604-986-2773", "tags": ["convenience_store", "meal_takeaway", "restaurant", "food", "point_of_interest", "store", "establishment"], "rating": 3.9, "website": "", "location": {"lat": 49.31283759999999, "lng": -123.0573352}, "google_id": "ChIJH8bLcltwhlQRB1r6v-rTXP0"},{"name": "A&W Canada", "address": "1520 Main St, North Vancouver, BC V7J 1E2, Canada", "phone": "+1 604-986-5778", "tags": ["restaurant", "food", "point_of_interest", "establishment"], "rating": 4.1, "website": "http://aw.ca/", "location": {"lat": 49.30532799999999, "lng": -123.031727}, "google_id": "ChIJLRqTloxwhlQRjnSBirzEI9M"},{"name": "Rosemary Rocksalt", "address": "715-333 Brooksbank Ave, North Vancouver, BC V7J 3S8, Canada", "phone": "+1 604-770-1595", "tags": ["bakery", "cafe", "restaurant", "food", "point_of_interest", "store", "establishment"], "rating": 4, "website": "http://rosemaryrocksalt.com/", "location": {"lat": 49.3098229, "lng": -123.0424265}, "google_id": "ChIJdQFYwl9whlQRf565fySv4Hw"},{"name": "Subway", "address": "333 Brooksbank Ave #130, North Vancouver, BC V7J 3S8, Canada", "phone": "+1 604-990-8958", "tags": ["restaurant", "food", "point_of_interest", "establishment"], "rating": 3.7, "website": "http://www.subway.ca/", "location": {"lat": 49.30828589999999, "lng": -123.0414971}, "google_id": "ChIJHZ5X619whlQR0Natm-T8-v4"},{"name": "BLVD Bistro", "address": "636 Queensbury Ave, North Vancouver, BC V7L 3V6, Canada", "phone": "+1 604-971-5559", "tags": ["restaurant", "food", "point_of_interest", "establishment"], "rating": 4.6, "website": "http://www.blvdbistro.ca/", "location": {"lat": 49.3121496, "lng": -123.0568952}, "google_id": "ChIJ3SrWpltwhlQRQoadjPH1kcg"},{"name": "Sansho Sushi & Japanese Dining", "address": "707 Queensbury Ave, North Vancouver, BC V7L 3V9, Canada", "phone": "+1 778-340-1189", "tags": ["restaurant", "food", "point_of_interest", "establishment"], "rating": 4.4, "website": "http://sansho.ca/", "location": {"lat": 49.3127793, "lng": -123.0574227}, "google_id": "ChIJPf4WDVtwhlQR47Y5NrZDYNY"},{"name": "Freshii", "address": "1386 Main St #7, North Vancouver, BC V7J 1C6, Canada", "phone": "+1 778-729-0836", "tags": ["restaurant", "food", "point_of_interest", "establishment"], "rating": 4.5, "website": "https://www.freshii.com/ca", "location": {"lat": 49.3071311, "lng": -123.0345543}, "google_id": "ChIJ4YEsTotwhlQRHT9_3JRJyK0"},{"name": "Toby's North Shore - Pub & Grill", "address": "1378 Main St, North Vancouver, BC V7J 1C6, Canada", "phone": "+1 604-988-8629", "tags": ["bar", "restaurant", "food", "point_of_interest", "establishment"], "rating": 4, "website": "http://tobys.ca/", "location": {"lat": 49.306301, "lng": -123.0351261}, "google_id": "ChIJWRE7SYtwhlQRk3xq88dVEDs"},{"name": "Coach House Lounge", "address": "700 Old Lillooet Rd, North Vancouver, BC V7J 2H5, Canada", "phone": "+1 604-985-3111", "tags": ["night_club", "bar", "restaurant", "food", "point_of_interest", "establishment"], "rating": 4.4, "website": "http://www.coachhouselounge.ca/", "location": {"lat": 49.31296529999999, "lng": -123.0265908}, "google_id": "ChIJ71MfGohwhlQRXOE5VqT9gjg"},{"name": "Finch & Barley", "address": "250 1st St E, North Vancouver, BC V7L 1B3, Canada", "phone": "+1 604-770-1000", "tags": ["bar", "restaurant", "food", "point_of_interest", "establishment"], "rating": 4.4, "website": "http://finchandbarley.com/", "location": {"lat": 49.3098988, "lng": -123.0735246}, "google_id": "ChIJX7GGik1whlQRuHarDiSCBRE"},{"name": "Wing Ho Chinese Restaurant", "address": "1455 Main St, North Vancouver, BC V7J 1C9, Canada", "phone": "+1 604-988-2398", "tags": ["restaurant", "food", "point_of_interest", "establishment"], "rating": 3.4, "website": "http://www.wingho.ca/", "location": {"lat": 49.30533529999999, "lng": -123.0331238}, "google_id": "ChIJD3OjvYxwhlQRbKhZmDb9P0Y"},{"name": "Andrews on 8th", "address": "279 East 8th Street, North Vancouver, BC V7L 1Y9, Canada", "phone": "+1 604-980-3088", "tags": ["cafe", "restaurant", "food", "point_of_interest", "store", "establishment"], "rating": 4.6, "website": "http://andrewson8th.com/", "location": {"lat": 49.3150887, "lng": -123.0667112}, "google_id": "ChIJy-FojEVwhlQRJnGUb_XGosc"},{"name": "Wendy's", "address": "1488 Main St, North Vancouver, BC V7J 1C8, Canada", "phone": "+1 604-986-1770", "tags": ["restaurant", "food", "point_of_interest", "establishment"], "rating": 3.6, "website": "https://locations.wendys.com/canada/bc/north-vancouver/1488-main-street?utm_source=Yext&utm_medium=Google_My_Business&utm_campaign=Local_Search", "location": {"lat": 49.30574319999999, "lng": -123.0332145}, "google_id": "ChIJyfxTvYxwhlQRIajqEJpnlsU"},{"name": "Westview Pizza&Pasta", "address": "778 Premier St, North Vancouver, BC V7J 2G8, Canada", "phone": "+1 604-980-0888", "tags": ["restaurant", "food", "point_of_interest", "establishment"], "rating": 4.1, "website": "http://westviewpizza.ca/", "location": {"lat": 49.3139595, "lng": -123.0274621}, "google_id": "ChIJEy7vn2JwhlQRfIACH-8AcrM"},{"name": "McDonald's", "address": "1366 Main St, North Vancouver, BC V7J 1C6, Canada", "phone": "+1 604-904-2790", "tags": ["cafe", "restaurant", "food", "point_of_interest", "establishment"], "rating": 3.4, "website": "https://www.mcdonalds.com/ca/en-ca/restaurant-locator.html", "location": {"lat": 49.3067949, "lng": -123.0366261}, "google_id": "ChIJ-3AGS4twhlQRH1-n4FAjGaU"},{"name": "Mumbai Masala Restaurant", "address": "333 Brooksbank Ave #770, North Vancouver, BC V7J 3V8, Canada", "phone": "+1 604-984-8888", "tags": ["restaurant", "food", "point_of_interest", "establishment"], "rating": 3.7, "website": "http://www.mumbaimasala.ca/", "location": {"lat": 49.310084, "lng": -123.0416854}, "google_id": "ChIJuzhNTjhwhlQRggndt6RohNw"},{"name": "Sushi Day", "address": "333 Brooksbank Ave #150, North Vancouver, BC V7J 3S8, Canada", "phone": "+1 604-982-0311", "tags": ["restaurant", "food", "point_of_interest", "establishment"], "rating": 3.5, "website": "http://www.sushiday.ca/", "location": {"lat": 49.3083132, "lng": -123.0416706}, "google_id": "ChIJXSRAavVwhlQRccLd4BPZkkg"},{"name": "Poke Bar", "address": "1331 Main St, North Vancouver, BC V7J 3J7, Canada", "phone": "+1 604-770-1993", "tags": ["restaurant", "food", "point_of_interest", "establishment"], "rating": 4.4, "website": "http://ilovepokebar.ca/", "location": {"lat": 49.3058996, "lng": -123.0372399}, "google_id": "ChIJ5XOQWkFxhlQRq1q7Yx7HRX4"},{"name": "Red Chilli Szechuan Restaurant Ltd", "address": "731 Lonsdale Ave, North Vancouver, BC V7M 2G9, Canada", "phone": "+1 604-986-2088", "tags": ["restaurant", "food", "point_of_interest", "establishment"], "rating": 3.5, "website": "https://www.redchilliszechuanrestaurant.ca/", "location": {"lat": 49.3176097, "lng": -123.07304}, "google_id": "ChIJk8ZjkUhwhlQRjj-ujPYK_m8"},{"name": "Bento Sushi", "address": "333 Seymour Blvd, North Vancouver, BC V7J 2J4, Canada", "phone": "", "tags": ["meal_takeaway", "restaurant", "food", "point_of_interest", "establishment"], "rating": 3, "website": "https://www.bentosushi.com/", "location": {"lat": 49.31155039999999, "lng": -123.0248923}, "google_id": "ChIJxz5udIBxhlQRLsUPRbayQoM"},{"name": "Ucluelet Harbour Seafoods Ltd", "address": "12 Orwell St, North Vancouver, BC V7J 2G1, Canada", "phone": "+1 604-982-5430", "tags": ["restaurant", "food", "point_of_interest", "establishment"], "rating": "", "website": "", "location": {"lat": 49.3004562, "lng": -123.0297893}, "google_id": "ChIJwy7NWu1whlQRPmm-Y-0mbIc"},{"name": "Nando's North Vancouver", "address": "13th St E Unit 148, North Vancouver, BC V7L 2L5, Canada", "phone": "+1 604-988-4915", "tags": ["meal_takeaway", "restaurant", "food", "point_of_interest", "establishment"], "rating": 4.1, "website": "https://www.nandos.ca/", "location": {"lat": 49.32010439999999, "lng": -123.070305}, "google_id": "ChIJ5XQ7wkdwhlQRd7Qlci--yrg"},{"name": "MiiX", "address": "254 1st St E, North Vancouver, BC V7L 1B3, Canada", "phone": "+1 604-990-9955", "tags": ["restaurant", "food", "point_of_interest", "establishment"], "rating": 5, "website": "", "location": {"lat": 49.3098097, "lng": -123.073509}, "google_id": "ChIJE-xq9s1xhlQR_TVh5LVa70c"},{"name": "V-Nam Restaurant", "address": "175 E 3rd St #8, North Vancouver, BC V7L 1E5, Canada", "phone": "+1 604-985-5477", "tags": ["restaurant", "food", "point_of_interest", "establishment"], "rating": 4.1, "website": "https://www.v-namrestaurant.com/", "location": {"lat": 49.31207149999999, "lng": -123.0743737}, "google_id": "ChIJN77n001whlQRUPTmiYnZsAU"},{"name": "Donair Plus", "address": "105 E 12th St, North Vancouver, BC V7L 2J3, Canada", "phone": "+1 604-770-2434", "tags": ["restaurant", "food", "point_of_interest", "establishment"], "rating": 4.9, "website": "http://www.donairplus.ca/", "location": {"lat": 49.3188341, "lng": -123.0720534}, "google_id": "ChIJv1hPaepxhlQRCzBhL2YSSp8"},{"name": "Medley's Grill", "address": "700 Old Lillooet Rd #110, North Vancouver, BC V7J 2H5, Canada", "phone": "+1 604-985-4477", "tags": ["restaurant", "bar", "food", "point_of_interest", "establishment"], "rating": "", "website": "https://medleys-grill.business.site/?utm_source=gmb&utm_medium=referral", "location": {"lat": 49.3130408, "lng": -123.0268401}, "google_id": "ChIJqzJ81kZxhlQREc6ttSm_NoU"}]