[{"name": "Secret Garden Tea Company", "address": "2138 W 40th Ave, Vancouver, BC V6M 3W7, Canada", "phone": "+1 604-261-3070", "tags": ["cafe", "restaurant", "food", "point_of_interest", "store", "establishment"], "rating": 4.1, "website": "http://secretgardentea.com/", "location": {"lat": 49.23546899999999, "lng": -123.1561541}, "google_id": "ChIJy4OmO3pzhlQRPK4KZnh98XM"},{"name": "White Spot, Kerrisdale", "address": "5367 West Blvd, Vancouver, BC V6M 3W4, Canada", "phone": "+1 604-266-1288", "tags": ["restaurant", "food", "point_of_interest", "establishment"], "rating": 3.7, "website": "http://www.whitespot.ca/", "location": {"lat": 49.2376869, "lng": -123.1555989}, "google_id": "ChIJkWXK_XlzhlQRxUuv-2x-KME"},{"name": "McDonald's", "address": "2095 W 41st Ave, Vancouver, BC V6M 1Y7, Canada", "phone": "+1 604-718-1055", "tags": ["cafe", "restaurant", "food", "point_of_interest", "establishment"], "rating": 3.2, "website": "https://www.mcdonalds.com/ca/en-ca/restaurant-locator.html", "location": {"lat": 49.2349143, "lng": -123.1548416}, "google_id": "ChIJd7pHyHtzhlQR9d68GQ7l70A"},{"name": "Ajisai Sushi Bar", "address": "2081 W 42nd Ave, Vancouver, BC V6M 3V3, Canada", "phone": "+1 604-266-1428", "tags": ["restaurant", "food", "point_of_interest", "establishment"], "rating": 4.4, "website": "https://www.zomato.com/vancouver/ajisai-sushi-bar-kerrisdale-vancouver", "location": {"lat": 49.233934, "lng": -123.1536816}, "google_id": "ChIJPxxSl3tzhlQRPUzK9vPQokk"},{"name": "Minerva Restaurant", "address": "2411 W 41st Ave, Vancouver, BC V6M 2A5, Canada", "phone": "+1 604-263-1774", "tags": ["restaurant", "food", "point_of_interest", "establishment"], "rating": 4.4, "website": "http://www.minervas.ca/", "location": {"lat": 49.2347841, "lng": -123.1615844}, "google_id": "ChIJWSFJtnpzhlQRfhTTUMJTgPU"},{"name": "Nando's Kerrisdale", "address": "2064 W 41st Ave, Vancouver, BC V6M 1Y8, Canada", "phone": "+1 604-266-4485", "tags": ["meal_takeaway", "restaurant", "food", "point_of_interest", "establishment"], "rating": 4.1, "website": "https://www.nandos.ca/", "location": {"lat": 49.2342436, "lng": -123.1540599}, "google_id": "ChIJt-BbwXtzhlQRvEe2Y-wfSi4"},{"name": "Subway", "address": "5623 West Blvd, Vancouver, BC V6M 3W7, Canada", "phone": "+1 604-677-2211", "tags": ["restaurant", "food", "point_of_interest", "establishment"], "rating": 4, "website": "http://www.subway.com/", "location": {"lat": 49.2351915, "lng": -123.1557238}, "google_id": "ChIJ2xRCNnpzhlQRq-dDnuYyA_M"},{"name": "JINYA Ramen Bar", "address": "2129 W 41st Ave, Vancouver, BC V6M 1Z6, Canada", "phone": "+1 778-379-8889", "tags": ["restaurant", "food", "point_of_interest", "establishment"], "rating": 4, "website": "http://jinya-ramenbar.com/locations/detail/vancouverwest", "location": {"lat": 49.234711, "lng": -123.1564298}, "google_id": "ChIJDaMmrXtzhlQRp7he-HMFrEY"},{"name": "Cuisine By Design", "address": "5343 Yew St, Vancouver, BC V6M 3X7, Canada", "phone": "+1 604-681-5011", "tags": ["restaurant", "food", "point_of_interest", "establishment"], "rating": "", "website": "http://www.cuisinebydesign.ca/", "location": {"lat": 49.2383286, "lng": -123.1584035}, "google_id": "ChIJgc71t3BzhlQRUUSLXKZ-Pvc"},{"name": "BBT Caf\u00e9", "address": "5979 West Blvd, Vancouver, BC V6M 3X1, Canada", "phone": "+1 604-266-2195", "tags": ["cafe", "restaurant", "food", "point_of_interest", "store", "establishment"], "rating": 3.8, "website": "http://www.bbtcafe.com/", "location": {"lat": 49.23214549999999, "lng": -123.1558019}, "google_id": "ChIJg-1zYntzhlQROHIKA_RrtG0"},{"name": "Irashai Sushi", "address": "2260 W 41st Ave, Vancouver, BC V6M 1Z8, Canada", "phone": "+1 604-266-9332", "tags": ["restaurant", "food", "point_of_interest", "establishment"], "rating": 3.3, "website": "https://irashai-sushi.com/", "location": {"lat": 49.2344862, "lng": -123.1593285}, "google_id": "ChIJL2-f6HpzhlQRWH5kBaTfxA4"},{"name": "Pho Tan Vietnamese Restaurant Beef Noodle Soup & Bubble Tea", "address": "2076 W 41st Ave, Vancouver, BC V6M 1Y8, Canada", "phone": "+1 604-606-0688", "tags": ["restaurant", "food", "point_of_interest", "establishment"], "rating": 4.1, "website": "", "location": {"lat": 49.23443349999999, "lng": -123.1543564}, "google_id": "ChIJFWYUx3tzhlQRP8YRGbxlfPQ"},{"name": "Shota Sushi & Grill", "address": "5688 Yew St, Vancouver, BC V6M 3Y3, Canada", "phone": "", "tags": ["restaurant", "food", "point_of_interest", "establishment"], "rating": 3.6, "website": "http://shotasushi.ca/", "location": {"lat": 49.2349524, "lng": -123.1575019}, "google_id": "ChIJ18fR_npzhlQRRQP4e5iEog0"},{"name": "Fish Caf\u00e9", "address": "2053 W 41st Ave, Vancouver, BC V6M 1Y7, Canada", "phone": "+1 604-267-3474", "tags": ["cafe", "restaurant", "food", "point_of_interest", "establishment"], "rating": 4.2, "website": "http://fish-cafe.ca/", "location": {"lat": 49.23468769999999, "lng": -123.1535186}, "google_id": "ChIJgT1F23tzhlQRXBrTML1ykpE"},{"name": "ASA Sushi", "address": "2178 W 41st Ave, Vancouver, BC V6M 1Z1, Canada", "phone": "+1 604-267-0077", "tags": ["restaurant", "food", "point_of_interest", "establishment"], "rating": 3.9, "website": "http://asasushi.ca/", "location": {"lat": 49.234509, "lng": -123.1580221}, "google_id": "ChIJR7kV_HpzhlQRAkJoPqYo_PM"},{"name": "Kerrisdale Nakamura Japanese Cuisine", "address": "2055 W 41st Ave, Vancouver, BC V6M 1Y7, Canada", "phone": "+1 604-266-4200", "tags": ["restaurant", "food", "point_of_interest", "establishment"], "rating": 3.9, "website": "", "location": {"lat": 49.2346874, "lng": -123.1535727}, "google_id": "ChIJO-JN23tzhlQRMFDujy_MORg"},{"name": "Golden Ocean Seafood Restaurant", "address": "2046 W 41st Ave, Vancouver, BC V6M 1Y7, Canada", "phone": "+1 604-263-8886", "tags": ["restaurant", "food", "point_of_interest", "establishment"], "rating": 3.9, "website": "", "location": {"lat": 49.2343419, "lng": -123.1533765}, "google_id": "ChIJtyIsw3tzhlQRQC-xZW1-h3w"},{"name": "Lok's Chinese Restaurant", "address": "2436 W 41st Ave, Vancouver, BC V6M 2A7, Canada", "phone": "+1 604-266-0788", "tags": ["restaurant", "food", "point_of_interest", "establishment"], "rating": 3.1, "website": "http://www.loksrestaurant.com/", "location": {"lat": 49.23447899999999, "lng": -123.1618424}, "google_id": "ChIJzdOktXpzhlQR98yq-XVJCaE"},{"name": "New Chong Qing Restaurant", "address": "2044 W 41st Ave, Vancouver, BC V6M 1Y7, Canada", "phone": "+1 604-266-9988", "tags": ["restaurant", "food", "point_of_interest", "establishment"], "rating": 3.4, "website": "", "location": {"lat": 49.2343994, "lng": -123.1533103}, "google_id": "ChIJi4-5wntzhlQRaa0Kw6K54Go"},{"name": "Orange Corner", "address": "2257 W 41st Ave, Vancouver, BC V6M 2A3, Canada", "phone": "+1 604-266-7388", "tags": ["restaurant", "food", "point_of_interest", "establishment"], "rating": 3.6, "website": "", "location": {"lat": 49.2347804, "lng": -123.1587608}, "google_id": "ChIJLVUT5XpzhlQR1-whMReNvH4"},{"name": "George's Pizza", "address": "6109 West Blvd, Vancouver, BC V6M 3X3, Canada", "phone": "+1 604-266-0411", "tags": ["restaurant", "food", "point_of_interest", "establishment"], "rating": 3.8, "website": "http://www.georgespizza.ca/", "location": {"lat": 49.2306249, "lng": -123.1558819}, "google_id": "ChIJ-xELyHxzhlQRAMJTb6KXipo"},{"name": "Sofra Mediterranean Kitchen", "address": "2277 W 41st Ave, Vancouver, BC V6M 2A3, Canada", "phone": "+1 604-558-3287", "tags": ["restaurant", "food", "point_of_interest", "establishment"], "rating": 4.2, "website": "http://www.sofrakitchen.ca/", "location": {"lat": 49.2348041, "lng": -123.1591358}, "google_id": "ChIJS4fi7npzhlQRW2nOPuxpDwI"},{"name": "Burrata Pizzeria", "address": "2104 W 41st Ave, Vancouver, BC V6M 1Z2, Canada", "phone": "+1 604-901-8888", "tags": ["restaurant", "food", "point_of_interest", "establishment"], "rating": 4.7, "website": "http://www.burratapizzeria.com/", "location": {"lat": 49.2344866, "lng": -123.1559334}, "google_id": "ChIJiTSF0ytzhlQRj1WHnJFCP0U"},{"name": "BIG TREE FOOD PALACE \u5927\u6811\u98df\u5e9c", "address": "2106 W 41st Ave, Vancouver, BC V6M 1Z2, Canada", "phone": "+1 604-558-3848", "tags": ["restaurant", "food", "point_of_interest", "establishment"], "rating": 3.7, "website": "", "location": {"lat": 49.2344108, "lng": -123.1561078}, "google_id": "ChIJBb6C_cBzhlQR7BLIhNQ_1as"},{"name": "Baoguette Vietnamese Bistro", "address": "2114 W 41st Ave, Vancouver, BC V6M 1Z2, Canada", "phone": "+1 778-379-1494", "tags": ["restaurant", "food", "point_of_interest", "establishment"], "rating": 3.9, "website": "", "location": {"lat": 49.23447789999999, "lng": -123.1562083}, "google_id": "ChIJseCArntzhlQR7UfHBZk26HA"},{"name": "Nana's Green Tea", "address": "2135 W 41st Ave, Vancouver, BC V6M 1Z6, Canada", "phone": "+1 604-263-5054", "tags": ["restaurant", "food", "point_of_interest", "store", "establishment"], "rating": 4.3, "website": "http://www.nanasgreentea.com/en/", "location": {"lat": 49.23471019999999, "lng": -123.1565069}, "google_id": "ChIJc4flUnpzhlQR8POkv22_Qac"},{"name": "Chef Hung Taiwanese Beef Noodle", "address": "2028 W 41st Ave, Vancouver, BC V6M 1Y8, Canada", "phone": "+1 778-379-8865", "tags": ["restaurant", "food", "point_of_interest", "establishment"], "rating": 3.8, "website": "http://www.chefhungnoodle.com/", "location": {"lat": 49.2344127, "lng": -123.152959}, "google_id": "ChIJA5qE53tzhlQR6P0QCnBWG0c"},{"name": "\u56fd\u5b50\u714e Me and Crepe", "address": "5971 West Blvd, Vancouver, BC V6M 3X1, Canada", "phone": "+1 604-263-9596", "tags": ["restaurant", "food", "point_of_interest", "establishment"], "rating": 4.3, "website": "", "location": {"lat": 49.2322068, "lng": -123.1558017}, "google_id": "ChIJf95m4I5zhlQR7q12vsOV5Gg"},{"name": "China Lan Lanzhou Beef Noodle", "address": "5555 West Blvd, Vancouver, BC V6M 3X1, Canada", "phone": "+1 604-559-9488", "tags": ["restaurant", "food", "point_of_interest", "establishment"], "rating": 4, "website": "http://chinalanlanzhoubeefnoodle.business.site/", "location": {"lat": 49.2360333, "lng": -123.1557741}, "google_id": "ChIJ9xaGO3pzhlQR2tcya4OjMuU"},{"name": "Sip Bowl", "address": "2255 W 41st Ave, Vancouver, BC V6M 4L3, Canada", "phone": "+1 778-737-3999", "tags": ["restaurant", "food", "point_of_interest", "establishment"], "rating": 3.8, "website": "http://www.sipbowl.com/", "location": {"lat": 49.2348048, "lng": -123.1587418}, "google_id": "ChIJtWPIRQRzhlQRm5oNzANnLJA"},{"name": "Chi Noodle Bar", "address": "6019 West Blvd, Vancouver, BC V6M 3X2, Canada", "phone": "+1 604-428-8631", "tags": ["restaurant", "food", "point_of_interest", "establishment"], "rating": 4.3, "website": "http://chi-noodlebar.com/", "location": {"lat": 49.2316128, "lng": -123.1558743}, "google_id": "ChIJHewHxAZzhlQRjkwCR0iBMuM"},{"name": "41 Noodle & Rice Pot House", "address": "2279 W 41st Ave, Vancouver, BC V6M 2A3, Canada", "phone": "+1 778-371-2376", "tags": ["restaurant", "food", "point_of_interest", "establishment"], "rating": 4, "website": "", "location": {"lat": 49.2347879, "lng": -123.1592864}, "google_id": "ChIJiY787npzhlQRBF38KCx3UwQ"},{"name": "La Vita", "address": "2285 W 41st Ave, Vancouver, BC V6M 2A3, Canada", "phone": "+1 604-428-6966", "tags": ["restaurant", "food", "point_of_interest", "establishment"], "rating": 4.5, "website": "", "location": {"lat": 49.2348408, "lng": -123.15932}, "google_id": "ChIJK5Coj-NzhlQRuEyXiXNJsxI"},{"name": "Southern Delicacy \u92d2\u5473", "address": "6055 West Blvd, Vancouver, BC V6M 3X2, Canada", "phone": "+1 604-559-3939", "tags": ["restaurant", "food", "point_of_interest", "establishment"], "rating": 4.2, "website": "", "location": {"lat": 49.23135, "lng": -123.1559366}, "google_id": "ChIJ6WbKatZzhlQRXsf1_W3mzw4"},{"name": "Sushi King House", "address": "5333 West Blvd, Vancouver, BC V6M 3W4, Canada", "phone": "+1 604-264-7555", "tags": ["restaurant", "food", "point_of_interest", "establishment"], "rating": 3.8, "website": "", "location": {"lat": 49.2378207, "lng": -123.1556788}, "google_id": "ChIJS52TV3dzhlQRR95QX_VDMiU"},{"name": "Bufala", "address": "5395 West Blvd, Vancouver, BC V6M 3W4, Canada", "phone": "+1 604-267-7499", "tags": ["restaurant", "food", "point_of_interest", "establishment"], "rating": 4.4, "website": "http://www.bufala.ca/", "location": {"lat": 49.23742300000001, "lng": -123.1556093}, "google_id": "ChIJLdgI-XlzhlQRpSzGhY1D2BE"},{"name": "Jiu Jiang Japanese Restaurant", "address": "5707 Balsam St, Vancouver, BC V6M 4B8, Canada", "phone": "+1 778-379-8858", "tags": ["restaurant", "food", "point_of_interest", "establishment"], "rating": 4.2, "website": "http://www.jiujiangrestaurant.com/", "location": {"lat": 49.2343947, "lng": -123.1615086}, "google_id": "ChIJw_TIt3pzhlQRR7uqa4lPEgE"},{"name": "Barra 41", "address": "2407 W 41st Ave, Vancouver, BC V6M 2A5, Canada", "phone": "+1 604-267-7475", "tags": ["bar", "restaurant", "food", "point_of_interest", "establishment"], "rating": 4.5, "website": "http://www.barra41.com/", "location": {"lat": 49.2348749, "lng": -123.1615139}, "google_id": "ChIJrSK0t3pzhlQRJzlIwv4Rsc8"},{"name": "One Bowl", "address": "5687 Balsam St, Vancouver, BC V6M 4B5, Canada", "phone": "+1 604-423-4616", "tags": ["cafe", "restaurant", "food", "point_of_interest", "establishment"], "rating": 4.6, "website": "http://onebowlvancouver.com/", "location": {"lat": 49.23507490000001, "lng": -123.1615748}, "google_id": "ChIJYW5DZTJzhlQRg564NPWGtn8"},{"name": "\u70ebWORLD \u9ebb\u8fa3\u70eb", "address": "6290 East Blvd, Vancouver, BC V6M 3V7, Canada", "phone": "+1 604-266-0458", "tags": ["restaurant", "food", "point_of_interest", "establishment"], "rating": 3.8, "website": "https://www.vansky.com/restaurant/316185.html", "location": {"lat": 49.2291004, "lng": -123.1550267}, "google_id": "ChIJjbaVNRVzhlQR7r9eJ2w0UIA"}]