[{"name": "The Eatery", "address": "3431 W Broadway, Vancouver, BC V6R 2B4, Canada", "phone": "+1 604-738-5298", "tags": ["restaurant", "food", "point_of_interest", "establishment"], "rating": 4.3, "website": "http://theeatery.ca/", "location": {"lat": 49.2644072, "lng": -123.180761}, "google_id": "ChIJ_6_6UFVyhlQRU7qsR4lh_8k"},{"name": "Neverland Tea Salon", "address": "3066 W Broadway, Vancouver, BC V6K 2H1, Canada", "phone": "+1 604-428-3066", "tags": ["cafe", "restaurant", "food", "point_of_interest", "store", "establishment"], "rating": 4.2, "website": "http://neverlandtea.com/", "location": {"lat": 49.2640001, "lng": -123.1733634}, "google_id": "ChIJVbqQbatzhlQRxkq-DCjDKNo"},{"name": "Nuba in Kitsilano", "address": "3116 W Broadway, Vancouver, BC V6K 2G9, Canada", "phone": "+1 604-336-1797", "tags": ["restaurant", "food", "point_of_interest", "establishment"], "rating": 4.2, "website": "http://www.nuba.ca/", "location": {"lat": 49.26404780000001, "lng": -123.1746072}, "google_id": "ChIJFTwcFKtzhlQRMHMSgMHNc3Q"},{"name": "Banana Leaf in Kitsilano", "address": "3005 W Broadway, Vancouver, BC V6K 2G9, Canada", "phone": "+1 604-734-3005", "tags": ["restaurant", "food", "point_of_interest", "establishment"], "rating": 4.2, "website": "http://www.bananaleaf-vancouver.com/", "location": {"lat": 49.2643134, "lng": -123.1722979}, "google_id": "ChIJwXdWeqtzhlQRvhCBn2ZX5kM"},{"name": "Olympia Pizza", "address": "3205 W Broadway, Vancouver, BC V6K 2H5, Canada", "phone": "+1 604-732-5334", "tags": ["restaurant", "food", "point_of_interest", "establishment"], "rating": 4.1, "website": "http://olympiapizzakits.com/", "location": {"lat": 49.2643345, "lng": -123.1760455}, "google_id": "ChIJHzTZIKtzhlQRosAwusWq0uU"},{"name": "La Quercia", "address": "3689 W 4th Ave, Vancouver, BC V6R 1P2, Canada", "phone": "+1 604-676-1007", "tags": ["restaurant", "food", "point_of_interest", "establishment"], "rating": 4.6, "website": "http://laquercia.ca/", "location": {"lat": 49.2687519, "lng": -123.1853995}, "google_id": "ChIJ34VbDlZyhlQRQ9iaa47Y7rI"},{"name": "East Is East", "address": "3035 W Broadway, Vancouver, BC V6K 2G9, Canada", "phone": "+1 604-734-5881", "tags": ["restaurant", "food", "point_of_interest", "establishment"], "rating": 4.5, "website": "http://www.eastiseast.ca/", "location": {"lat": 49.2642929, "lng": -123.1727212}, "google_id": "ChIJD64_2KpzhlQRZ4c_BsxnnUo"},{"name": "Baru Latino", "address": "2535 Alma St, Vancouver, BC V6R 3R8, Canada", "phone": "+1 604-222-9171", "tags": ["restaurant", "food", "point_of_interest", "establishment"], "rating": 4.2, "website": "http://www.barulatino.com/", "location": {"lat": 49.26403699999999, "lng": -123.1860784}, "google_id": "ChIJ5yRLs_9yhlQRZzHj48GBeRI"},{"name": "Browns Socialhouse Point Grey", "address": "3651 W 10th Ave, Vancouver, BC V6R 2G2, Canada", "phone": "+1 604-734-3651", "tags": ["restaurant", "night_club", "bar", "food", "point_of_interest", "establishment"], "rating": 4.1, "website": "http://brownssocialhouse.com/point-grey/", "location": {"lat": 49.2635947, "lng": -123.1852698}, "google_id": "ChIJ_dfEyv9yhlQRbkYUfVD_TRg"},{"name": "Papa John's Pizza", "address": "Store #10392, 2030 Alma St, Vancouver, BC V6R 3P9, Canada", "phone": "+1 604-566-9825", "tags": ["meal_delivery", "meal_takeaway", "restaurant", "food", "point_of_interest", "establishment"], "rating": 3.1, "website": "http://www.papajohns.ca/", "location": {"lat": 49.26835939999999, "lng": -123.185491}, "google_id": "ChIJ5QDqD1ZyhlQRDbelTeisKb0"},{"name": "Elwoods", "address": "3357 W Broadway, Vancouver, BC V6R 2B1, Canada", "phone": "+1 604-736-4301", "tags": ["bar", "restaurant", "food", "point_of_interest", "establishment"], "rating": 4.1, "website": "http://facebook.com/elwoods.broadway", "location": {"lat": 49.2644092, "lng": -123.1791054}, "google_id": "ChIJWfPwF6tzhlQRS89LmwYvCQE"},{"name": "L'ufficio", "address": "3687 W 4th Ave, Vancouver, BC V6R 1P2, Canada", "phone": "+1 604-676-1007", "tags": ["restaurant", "food", "point_of_interest", "establishment"], "rating": 4.5, "website": "http://www.laquercia.ca/", "location": {"lat": 49.26874549999999, "lng": -123.1852971}, "google_id": "ChIJaQ_vDVZyhlQRdc0exaOeDR0"},{"name": "Kitstaya Sushi", "address": "3105 W Broadway, Vancouver, BC V6K 2G9, Canada", "phone": "+1 604-737-0181", "tags": ["restaurant", "food", "point_of_interest", "establishment"], "rating": 3.7, "website": "http://www.kitstayasushi.com/", "location": {"lat": 49.2643795, "lng": -123.1741344}, "google_id": "ChIJLdB8E6tzhlQRnfXcONI3dp8"},{"name": "McDonald's", "address": "3308 W Broadway, Vancouver, BC V6R 2B2, Canada", "phone": "+1 604-718-1017", "tags": ["cafe", "restaurant", "food", "point_of_interest", "establishment"], "rating": 3.5, "website": "https://www.mcdonalds.com/ca/en-ca/restaurant-locator.html", "location": {"lat": 49.26408610000001, "lng": -123.1780689}, "google_id": "ChIJgyy1yKpzhlQRfu6SZXQC9ZM"},{"name": "Hitoe Sushi", "address": "3347 W 4th Ave, Vancouver, BC V6R 1N6, Canada", "phone": "+1 778-371-4619", "tags": ["restaurant", "food", "point_of_interest", "establishment"], "rating": 4.4, "website": "http://hitoesushi.blog57.fc2.com/", "location": {"lat": 49.2686573, "lng": -123.1787051}, "google_id": "ChIJbfxpbFRyhlQRHkRD1iYvHss"},{"name": "Green Leaf Sushi", "address": "3416 W Broadway, Vancouver, BC V6R 2B3, Canada", "phone": "+1 604-568-9406", "tags": ["restaurant", "food", "point_of_interest", "establishment"], "rating": 4.4, "website": "", "location": {"lat": 49.264136, "lng": -123.180152}, "google_id": "ChIJ01q5UlVyhlQR7pkkpLz3Pkg"},{"name": "Mamalee", "address": "3144 W Broadway, Vancouver, BC V6K 2H3, Canada", "phone": "+1 604-733-8882", "tags": ["restaurant", "food", "point_of_interest", "establishment"], "rating": 4, "website": "http://www.mamalee.ca/", "location": {"lat": 49.2640558, "lng": -123.175104}, "google_id": "ChIJU48nGKtzhlQRK80MsnfI3us"},{"name": "A&W Canada", "address": "2083 Alma St #200, Vancouver, BC V6R 4N6, Canada", "phone": "+1 604-564-2083", "tags": ["restaurant", "food", "point_of_interest", "establishment"], "rating": 4, "website": "http://aw.ca/", "location": {"lat": 49.268477, "lng": -123.185978}, "google_id": "ChIJBadtcEcNj1QRIfvyBKR34dw"},{"name": "Yuji's from Japan", "address": "2083 Alma St, Vancouver, BC V6R 4N6, Canada", "phone": "+1 604-428-4688", "tags": ["restaurant", "food", "point_of_interest", "establishment"], "rating": 4.3, "website": "http://yujis.ca/", "location": {"lat": 49.2679369, "lng": -123.1864842}, "google_id": "ChIJ6-o_AVZyhlQRxNX-Uqzs_Ao"},{"name": "Thai Basil Restaurant", "address": "3271 W Broadway, Vancouver, BC V6K 2H5, Canada", "phone": "+1 778-379-8424", "tags": ["restaurant", "food", "point_of_interest", "establishment"], "rating": 4.2, "website": "http://thaibasilvancouver.ca/", "location": {"lat": 49.2643506, "lng": -123.1772207}, "google_id": "ChIJ11Fv2qpzhlQRmImvfi_fK0A"},{"name": "Strike", "address": "3217 W Broadway, Vancouver, BC V6K 2H5, Canada", "phone": "+1 604-558-3217", "tags": ["meal_delivery", "meal_takeaway", "restaurant", "food", "point_of_interest", "establishment"], "rating": 3.8, "website": "http://www.strikerestaurant.ca/", "location": {"lat": 49.2643567, "lng": -123.1765489}, "google_id": "ChIJc4fA2KpzhlQRWokvhT5VkOk"},{"name": "Dharma Kitchen", "address": "3667 W Broadway, Vancouver, BC V6R 2B8, Canada", "phone": "+1 604-738-3899", "tags": ["restaurant", "food", "point_of_interest", "establishment"], "rating": 4.5, "website": "http://www.dharmakitchen.ca/", "location": {"lat": 49.26448370000001, "lng": -123.1852538}, "google_id": "ChIJU0kOJf9yhlQRnIUqtk9rSFY"},{"name": "Donair Dude", "address": "3209 W Broadway, Vancouver, BC V6K 2H5, Canada", "phone": "+1 604-564-1294", "tags": ["restaurant", "food", "point_of_interest", "establishment"], "rating": 4.3, "website": "http://www.donairdude.com/", "location": {"lat": 49.26433400000001, "lng": -123.176389}, "google_id": "ChIJjWFvJ6tzhlQRb28fkiHy7-U"},{"name": "Pure Delight Caf\u00e9", "address": "3236 W Broadway, Vancouver, BC V6K 2H4, Canada", "phone": "+1 604-568-8812", "tags": ["restaurant", "food", "point_of_interest", "establishment"], "rating": 4, "website": "https://www.puredelightcafe.com/", "location": {"lat": 49.2640653, "lng": -123.1766864}, "google_id": "ChIJi6s62qpzhlQRvICqE4kUZs4"},{"name": "Deacon's Corner Kits", "address": "3189 W Broadway, Vancouver, BC V6K 2H2, Canada", "phone": "+1 778-379-3727", "tags": ["restaurant", "food", "point_of_interest", "establishment"], "rating": 4.2, "website": "https://www.deaconscorner.ca/", "location": {"lat": 49.2643674, "lng": -123.1757517}, "google_id": "ChIJn7YoIqtzhlQR-LVt4GEykwY"},{"name": "The PokeMan Kakigori Cafe & Poke Shop", "address": "3742 W 10th Ave, Vancouver, BC V6R 2G4, Canada", "phone": "+1 604-428-7653", "tags": ["restaurant", "food", "point_of_interest", "establishment"], "rating": 4.5, "website": "http://www.pokemanvancouver.com/", "location": {"lat": 49.2633865, "lng": -123.1866765}, "google_id": "ChIJHdPBSP5yhlQR9Y-4PMzTXpI"},{"name": "Iron Wok", "address": "2083 Alma St, Vancouver, BC V6R 4N6, Canada", "phone": "+1 604-228-0777", "tags": ["restaurant", "food", "point_of_interest", "establishment"], "rating": 3.7, "website": "http://www.ironwok.ca/", "location": {"lat": 49.2679878, "lng": -123.1865145}, "google_id": "ChIJS0E9_lVyhlQRdxc2faeIa94"},{"name": "Silk N Spice", "address": "3035 W Broadway, Vancouver, BC V6K 2G9, Canada", "phone": "+1 604-734-5881", "tags": ["restaurant", "food", "point_of_interest", "establishment"], "rating": 4.7, "website": "http://www.eastiseast.ca/", "location": {"lat": 49.2643887, "lng": -123.1726934}, "google_id": "ChIJA6Be2KpzhlQRY-MxCdfNIIE"},{"name": "Cartems Donuts", "address": "3040 W Broadway, Vancouver, BC V6K 2H1, Canada", "phone": "+1 604-428-6372", "tags": ["bakery", "cafe", "restaurant", "food", "point_of_interest", "store", "establishment"], "rating": 4.5, "website": "http://cartems.com/", "location": {"lat": 49.26400919999999, "lng": -123.1729456}, "google_id": "ChIJV5vtcatzhlQRWt7uOCIH-tE"},{"name": "Chezmoi Cafe", "address": "2936 W 4th Ave, Vancouver, BC V6K 1R2, Canada", "phone": "+1 604-734-9333", "tags": ["restaurant", "food", "point_of_interest", "establishment"], "rating": "", "website": "", "location": {"lat": 49.26831840000001, "lng": -123.1706063}, "google_id": "ChIJf6yQ3VJyhlQRWi71UB7VlCs"},{"name": "Coppertank Grill", "address": "3162 W Broadway, Vancouver, BC V6K 2H3, Canada", "phone": "+1 778-237-3372", "tags": ["bar", "restaurant", "food", "point_of_interest", "establishment"], "rating": 3.9, "website": "http://coppertankgrill.com/", "location": {"lat": 49.264003, "lng": -123.1753379}, "google_id": "ChIJkVJSFqtzhlQR1yz_rgo4nlc"},{"name": "Double DD Pizza", "address": "3510 W 4th Ave, Vancouver, BC V6R 1N8, Canada", "phone": "+1 604-736-7001", "tags": ["restaurant", "food", "point_of_interest", "establishment"], "rating": 4.6, "website": "http://www.ddpizza.ca/", "location": {"lat": 49.26845300000001, "lng": -123.182185}, "google_id": "ChIJG76S0lVyhlQRa6A9s55SvH4"},{"name": "Aphrodite's Organic Cafe", "address": "3605 W 4th Ave, Vancouver, BC V6R 1P2, Canada", "phone": "+1 604-733-8308", "tags": ["restaurant", "food", "point_of_interest", "establishment"], "rating": 4.1, "website": "https://www.organiccafe.ca/", "location": {"lat": 49.2687759, "lng": -123.1838257}, "google_id": "ChIJf2C52VVyhlQR6bpU7Zp-1hY"},{"name": "Taste of Thai", "address": "3629 W Broadway, Vancouver, BC V6R 2B8, Canada", "phone": "+1 604-568-8668", "tags": ["restaurant", "food", "point_of_interest", "establishment"], "rating": 4.4, "website": "http://tasteofthaibc.ca/", "location": {"lat": 49.26456839999999, "lng": -123.1845215}, "google_id": "ChIJH62Tvv9yhlQRGRbcrihw_0E"},{"name": "The Wolf & Hound", "address": "3617 W Broadway, Vancouver, BC V6R 2B8, Canada", "phone": "+1 604-738-8909", "tags": ["bar", "restaurant", "food", "point_of_interest", "establishment"], "rating": 4.1, "website": "http://www.wolfandhound.ca/", "location": {"lat": 49.2644878, "lng": -123.1842158}, "google_id": "ChIJDdf7lf9yhlQRKPf63z5_WyY"},{"name": "COLONY", "address": "3255 W Broadway, Vancouver, BC V6K 2H5, Canada", "phone": "+1 604-559-6070", "tags": ["restaurant", "bar", "food", "point_of_interest", "establishment"], "rating": 4.2, "website": "http://colonykits.com/", "location": {"lat": 49.2644181, "lng": -123.1769327}, "google_id": "ChIJObmF2apzhlQRXFzy45lL4yQ"},{"name": "Panago Pizza", "address": "2905 W Broadway, Vancouver, BC V6K 2G6, Canada", "phone": "+1 866-310-0001", "tags": ["meal_delivery", "meal_takeaway", "restaurant", "food", "point_of_interest", "establishment"], "rating": 3.8, "website": "http://www.panago.com/", "location": {"lat": 49.2642903, "lng": -123.1705284}, "google_id": "ChIJt5kxfKxzhlQRyDwcrzFDhAY"},{"name": "Jun Sushi Japanese Restaurant", "address": "3309 W Broadway, Vancouver, BC V6R 2B1, Canada", "phone": "+1 604-739-7181", "tags": ["restaurant", "food", "point_of_interest", "establishment"], "rating": 4.1, "website": "http://www.junsushi.ca/", "location": {"lat": 49.26442979999999, "lng": -123.1783111}, "google_id": "ChIJD6sQzKpzhlQRgE1nhtw6Ho8"},{"name": "Jolly's Indian Bistro", "address": "2928 W 4th Ave, Vancouver, BC V6K 1R2, Canada", "phone": "+1 604-734-9110", "tags": ["restaurant", "food", "point_of_interest", "establishment"], "rating": 4, "website": "https://jollys.ca/", "location": {"lat": 49.268272, "lng": -123.1707281}, "google_id": "ChIJRZlc3FJyhlQReYHPjm2To9A"},{"name": "Nishi Sushi", "address": "2953 W 4th Ave, Vancouver, BC V6K 1R3, Canada", "phone": "+1 604-734-3881", "tags": ["restaurant", "food", "point_of_interest", "establishment"], "rating": 4.4, "website": "https://www.nishisushivancouver.com/", "location": {"lat": 49.2685582, "lng": -123.1706353}, "google_id": "ChIJZfypwlJyhlQRqmMmyCETz1c"},{"name": "Baguette & Co (La Baguette et Compagnie)", "address": "3273 W Broadway, Vancouver, BC V6K 2H5, Canada", "phone": "+1 604-737-8050", "tags": ["bakery", "cafe", "restaurant", "food", "point_of_interest", "store", "establishment"], "rating": 4.2, "website": "http://labaguetteetcompagnie.ca/", "location": {"lat": 49.2643563, "lng": -123.1772549}, "google_id": "ChIJ16IN16pzhlQR3-ME-MIp75k"},{"name": "Freshslice Pizza", "address": "2083 Alma St #230, Vancouver, BC V6R 4N6, Canada", "phone": "+1 604-568-4990", "tags": ["meal_delivery", "meal_takeaway", "restaurant", "food", "point_of_interest", "establishment"], "rating": 4.5, "website": "http://www.freshslice.com/", "location": {"lat": 49.2681944, "lng": -123.1858988}, "google_id": "ChIJS0E9_lVyhlQRtdmA7JQUKqQ"},{"name": "Brock House Restaurant", "address": "3875 Point Grey Rd, Vancouver, BC V6R 1B3, Canada", "phone": "+1 604-224-3317", "tags": ["restaurant", "food", "point_of_interest", "establishment"], "rating": 4.3, "website": "http://www.brockhouserestaurant.com/", "location": {"lat": 49.27184980000001, "lng": -123.1905445}, "google_id": "ChIJDTod8FdyhlQRA8Q9Gxo2uDg"},{"name": "Bangkok City Cafe", "address": "2953 W 4th Ave, Vancouver, BC V6K 1R3, Canada", "phone": "+1 604-736-5474", "tags": ["restaurant", "food", "point_of_interest", "establishment"], "rating": 4.4, "website": "http://bangkok-city-cafe.business.site/", "location": {"lat": 49.2685335, "lng": -123.170667}, "google_id": "ChIJPfypwlJyhlQRwg1xtOdWakM"},{"name": "Mr. Falafel", "address": "3685 W 10th Ave, Vancouver, BC V6R 2G2, Canada", "phone": "+1 604-739-4403", "tags": ["restaurant", "food", "point_of_interest", "establishment"], "rating": 4, "website": "http://www.mrfalafel.ca/", "location": {"lat": 49.2638403, "lng": -123.1853871}, "google_id": "ChIJ7avCNP5yhlQRTs0kSKzT7G8"},{"name": "Kiti's Cafe", "address": "3514 W 4th Ave, Vancouver, BC V6R 1N8, Canada", "phone": "+1 604-731-2610", "tags": ["restaurant", "food", "point_of_interest", "establishment"], "rating": "", "website": "", "location": {"lat": 49.26845429999999, "lng": -123.1822092}, "google_id": "ChIJF6yL0lVyhlQRtWt_YbBs3Ws"},{"name": "Go Shi House", "address": "3347 W 4th Ave, Vancouver, BC V6R 1N6, Canada", "phone": "+1 778-371-4619", "tags": ["restaurant", "food", "point_of_interest", "establishment"], "rating": "", "website": "", "location": {"lat": 49.268748, "lng": -123.1788311}, "google_id": "ChIJbfxpbFRyhlQRfR0meQyOUzs"},{"name": "Castaway Bar and Kitchen", "address": "3293 W 4th Ave, Vancouver, BC V6K 4H9, Canada", "phone": "+1 604-736-0212", "tags": ["restaurant", "food", "point_of_interest", "establishment"], "rating": 4.1, "website": "http://castawaypub.com/", "location": {"lat": 49.2686885, "lng": -123.1773661}, "google_id": "ChIJ0Z6aL2NzhlQR5OSO_vt_LEU"},{"name": "Irori Sushi", "address": "3692 W 4th Ave, Vancouver, BC V6R 1P1, Canada", "phone": "+1 604-558-0885", "tags": ["restaurant", "food", "point_of_interest", "establishment"], "rating": 4.2, "website": "", "location": {"lat": 49.2684588, "lng": -123.1854343}, "google_id": "ChIJzwy1D1ZyhlQR5q0sz3BgCVU"},{"name": "Handi Grill", "address": "3618 W Broadway, Vancouver, BC V6R 2B7, Canada", "phone": "+1 604-738-3186", "tags": ["restaurant", "food", "point_of_interest", "establishment"], "rating": 4.3, "website": "http://www.handicuisine.com/", "location": {"lat": 49.2642277, "lng": -123.1840811}, "google_id": "ChIJzYr8ygFzhlQR0Wbq6F49Rt8"},{"name": "\u7834\u5e97", "address": "4N7, 3217 W Broadway, Vancouver, BC V6K 2H5, Canada", "phone": "+1 604-558-3217", "tags": ["restaurant", "food", "point_of_interest", "establishment"], "rating": 3.9, "website": "", "location": {"lat": 49.2643567, "lng": -123.1765489}, "google_id": "ChIJWUZ82KpzhlQRsG_YNP6uuOQ"},{"name": "Mukja", "address": "3211 W Broadway, Vancouver, BC V6K 2H5, Canada", "phone": "+1 604-565-5006", "tags": ["restaurant", "food", "point_of_interest", "establishment"], "rating": 4.2, "website": "", "location": {"lat": 49.2643378, "lng": -123.1764941}, "google_id": "ChIJO6uiJ6tzhlQRzojx-EFKNho"},{"name": "Dijon Kitchen", "address": "3648 W Broadway, Vancouver, BC V6R 2B7, Canada", "phone": "+1 604-423-2486", "tags": ["restaurant", "food", "point_of_interest", "establishment"], "rating": 4.5, "website": "https://dijonkitchen-vancouver.business.site/", "location": {"lat": 49.26419790000001, "lng": -123.1848604}, "google_id": "ChIJ169cIQ1zhlQRf6tU-ksZm5Q"},{"name": "Sahel Market & Restaurant", "address": "3207 W Broadway, Vancouver, BC V6K 2H5, Canada", "phone": "+1 604-423-4117", "tags": ["restaurant", "food", "point_of_interest", "store", "establishment"], "rating": 4.8, "website": "http://sahelrestaurant.ca/", "location": {"lat": 49.2643406, "lng": -123.1762215}, "google_id": "ChIJ3fPYPndzhlQR2aDKGEtgJOs"},{"name": "Al Basha", "address": "3143 W Broadway, Vancouver, BC V6K 2H2, Canada", "phone": "+1 604-568-8841", "tags": ["restaurant", "food", "point_of_interest", "establishment"], "rating": 4.3, "website": "http://albashafalafel.com/", "location": {"lat": 49.26431700000001, "lng": -123.175003}, "google_id": "ChIJDTh3PatzhlQRGpB9jNaTeTU"},{"name": "Crabshack Grill and Oyster House", "address": "3136 W Broadway, Vancouver, BC V6K 2H3, Canada", "phone": "+1 604-907-2500", "tags": ["restaurant", "food", "point_of_interest", "establishment"], "rating": 4, "website": "", "location": {"lat": 49.2640383, "lng": -123.1749699}, "google_id": "ChIJ3TO9F6tzhlQRJbCKMAzvsdg"},{"name": "\u84b2\u5927\u53d4\u56db\u5ddd\u98ce\u5473Uncle Pu\u2019s Sichuan Taste", "address": "3132 W Broadway, Vancouver, BC V6K 2G9, Canada", "phone": "+1 604-336-9633", "tags": ["restaurant", "food", "point_of_interest", "establishment"], "rating": 3.8, "website": "", "location": {"lat": 49.26397249999999, "lng": -123.1748966}, "google_id": "ChIJl8QhGqtzhlQR1-Oqaag18ZU"},{"name": "Uncle Pu's Sichuan Taste", "address": "3132 W Broadway, Vancouver, BC V6K 2G9, Canada", "phone": "+1 604-336-9633", "tags": ["restaurant", "food", "point_of_interest", "establishment"], "rating": 3.3, "website": "", "location": {"lat": 49.26397249999999, "lng": -123.1748966}, "google_id": "ChIJR3_YQJhzhlQRtHWzMI4yGJI"},{"name": "Little Bird Dim Sum + Craft Beer", "address": "2958 W 4th Ave, Vancouver, BC V6K 1R4, Canada", "phone": "+1 604-325-8132", "tags": ["restaurant", "food", "point_of_interest", "establishment"], "rating": 4.8, "website": "https://littlebirddimsum.com/", "location": {"lat": 49.2683013, "lng": -123.1715524}, "google_id": "ChIJgxRuFx1zhlQRxKF57z3vSBI"},{"name": "Sushi Inn Japanese restaurant", "address": "3772 W 10th Ave, Vancouver, BC V6R 2G4, Canada", "phone": "+1 604-739-3818", "tags": ["restaurant", "food", "point_of_interest", "establishment"], "rating": 3.6, "website": "https://www.sushiinn.ca/", "location": {"lat": 49.2633607, "lng": -123.1872036}, "google_id": "ChIJISKNEhFzhlQROuPTDZB9SGU"}]