[{"name": "Octopus's Garden Restaurant", "address": "1995 Cornwall Ave, Vancouver, BC V6J 1C9, Canada", "phone": "+1 604-734-8971", "tags": ["restaurant", "food", "point_of_interest", "establishment"], "rating": 4.6, "website": "http://octopusgardensada.com/", "location": {"lat": 49.2726375, "lng": -123.1497471}, "google_id": "ChIJTTGev8pzhlQR0dARpnoVhtU"},{"name": "Fable Kitchen", "address": "1944 W 4th Ave, Vancouver, BC V6J 1M5, Canada", "phone": "+1 604-732-1322", "tags": ["restaurant", "food", "point_of_interest", "establishment"], "rating": 4.5, "website": "http://www.fablekitchen.ca/", "location": {"lat": 49.2679331, "lng": -123.1490012}, "google_id": "ChIJNXOZc7ZzhlQRy2U3C2u572c"},{"name": "Triple O's", "address": "1881 Cornwall Ave, Vancouver, BC V6J 1C6, Canada", "phone": "+1 604-738-3888", "tags": ["restaurant", "food", "point_of_interest", "establishment"], "rating": 3.7, "website": "http://www.tripleos.com/", "location": {"lat": 49.27263050000001, "lng": -123.1472857}, "google_id": "ChIJG1mf48pzhlQRRU_ulp2MZoI"},{"name": "Trattoria", "address": "1850 W 4th Ave, Vancouver, BC V6J 1M3, Canada", "phone": "+1 604-732-1441", "tags": ["meal_takeaway", "bar", "restaurant", "food", "point_of_interest", "establishment"], "rating": 4.1, "website": "http://www.glowbalgroup.com/trattoria", "location": {"lat": 49.2679137, "lng": -123.1466793}, "google_id": "ChIJdUUqGbZzhlQRGW3ix3rNCGk"},{"name": "Noodlebox", "address": "1867 W 4th Ave, Vancouver, BC V6J 1M3, Canada", "phone": "+1 604-734-1310", "tags": ["restaurant", "food", "point_of_interest", "establishment"], "rating": 3.8, "website": "http://www.noodlebox.ca/", "location": {"lat": 49.26817699999999, "lng": -123.1471509}, "google_id": "ChIJWa72GrZzhlQR0vd2RZxGeFY"},{"name": "Culinary Capers Catering", "address": "1545 W 3rd Ave, Vancouver, BC V6J 1J8, Canada", "phone": "+1 604-875-0123", "tags": ["restaurant", "food", "point_of_interest", "establishment"], "rating": 4.9, "website": "http://www.culinarycapers.com/", "location": {"lat": 49.2689566, "lng": -123.1399755}, "google_id": "ChIJpz_BGMlzhlQRqxMJAyFgZRI"},{"name": "Pizza Hut", "address": "1829 W 4th Ave, Vancouver, BC V6J 1M4, Canada", "phone": "+1 604-742-0966", "tags": ["meal_delivery", "meal_takeaway", "restaurant", "food", "point_of_interest", "establishment"], "rating": 3.1, "website": "https://www.pizzahut.ca/store-details/store-R31110/pizza-hut-Vancouver", "location": {"lat": 49.26822119999999, "lng": -123.1463332}, "google_id": "ChIJawd-HLZzhlQRxEgxHs5iZbE"},{"name": "Go Fish", "address": "1505 W 1st Ave, Vancouver, BC V6J 1E8, Canada", "phone": "+1 604-730-5040", "tags": ["restaurant", "food", "point_of_interest", "establishment"], "rating": 4.3, "website": "https://www.facebook.com/pages/Go-Fish/335133559903806?nr", "location": {"lat": 49.2712947, "lng": -123.1395499}, "google_id": "ChIJkYhNAMxzhlQR3FNxyaa4ETg"},{"name": "Maenam", "address": "1938 W 4th Ave, Vancouver, BC V6J 1M5, Canada", "phone": "+1 604-730-5579", "tags": ["restaurant", "food", "point_of_interest", "establishment"], "rating": 4.3, "website": "http://www.maenam.ca/", "location": {"lat": 49.2679586, "lng": -123.1489132}, "google_id": "ChIJEZAPc7ZzhlQRYvvVFvv6CLo"},{"name": "Rocky Mountain Flatbread", "address": "1876 W 1st Ave, Vancouver, BC V6J 1G5, Canada", "phone": "+1 604-730-0321", "tags": ["restaurant", "food", "point_of_interest", "establishment"], "rating": 4.5, "website": "http://www.rockymountainflatbread.ca/", "location": {"lat": 49.27046579999999, "lng": -123.1472938}, "google_id": "ChIJN3Oha8pzhlQRg49G_p9GL50"},{"name": "Bridges Restaurant", "address": "1696 Duranleau St, Vancouver, BC V6H 3S4, Canada", "phone": "+1 604-687-4400", "tags": ["bar", "restaurant", "food", "point_of_interest", "establishment"], "rating": 3.8, "website": "http://www.bridgesrestaurant.com/", "location": {"lat": 49.272817, "lng": -123.1364204}, "google_id": "ChIJPcuE181zhlQRix5fl81yHxM"},{"name": "Apollonia Greek Restaurant", "address": "1830 Fir St, Vancouver, BC V6J 3B1, Canada", "phone": "+1 604-736-9559", "tags": ["restaurant", "food", "point_of_interest", "establishment"], "rating": 4.4, "website": "http://www.apolloniagreekrestaurant.com/", "location": {"lat": 49.2694416, "lng": -123.1406537}, "google_id": "ChIJh4OQFclzhlQRv31FeuNELts"},{"name": "Afghan Horsemen Restaurant", "address": "1833 Anderson St, Vancouver, BC V6H 4E5, Canada", "phone": "+1 604-873-5923", "tags": ["restaurant", "food", "point_of_interest", "establishment"], "rating": 4.3, "website": "http://www.afghanhorsemen.com/", "location": {"lat": 49.2692592, "lng": -123.13868}, "google_id": "ChIJr1DcLslzhlQRFSst7yoSmwY"},{"name": "Pacific Institute of Culinary Arts", "address": "1505 W 2nd Ave #101, Vancouver, BC V6H 3Y4, Canada", "phone": "+1 604-734-4488", "tags": ["bakery", "restaurant", "food", "point_of_interest", "store", "establishment"], "rating": 4.4, "website": "https://www.picachef.com/", "location": {"lat": 49.2698683, "lng": -123.1378827}, "google_id": "ChIJ9WYgLclzhlQRa_dggqHldBw"},{"name": "Al Basha", "address": "1937 Cornwall Ave, Vancouver, BC V6J 1C8, Canada", "phone": "+1 604-336-2110", "tags": ["restaurant", "food", "point_of_interest", "establishment"], "rating": 4.2, "website": "http://albasharestaurant.ca/", "location": {"lat": 49.2726108, "lng": -123.1485271}, "google_id": "ChIJwZPT6MpzhlQR-2hp-e8gDC8"},{"name": "Romer's Burger Bar", "address": "1873 W 4th Ave, Vancouver, BC V6J 1M4, Canada", "phone": "+1 604-732-9545", "tags": ["bar", "restaurant", "food", "point_of_interest", "establishment"], "rating": 4.1, "website": "http://www.romersburgerbar.com/", "location": {"lat": 49.2681782, "lng": -123.1472765}, "google_id": "ChIJi5E3G7ZzhlQR_PzPyIqgfBI"},{"name": "Indian Oven", "address": "2006 W 4th Ave, Vancouver, BC V6J 1M9, Canada", "phone": "+1 604-730-5069", "tags": ["restaurant", "food", "point_of_interest", "establishment"], "rating": 4.1, "website": "http://www.theindianoven.com/", "location": {"lat": 49.2678849, "lng": -123.1506642}, "google_id": "ChIJ2wm71bVzhlQRYlQQjtt8p-I"},{"name": "Freshii", "address": "1927 W 4th Ave, Vancouver, BC V6J 1M7, Canada", "phone": "+1 604-428-4173", "tags": ["restaurant", "food", "point_of_interest", "establishment"], "rating": 4.2, "website": "http://www.freshii.com/", "location": {"lat": 49.2682308, "lng": -123.1486199}, "google_id": "ChIJO2iBC7ZzhlQRrt7FShHnZN0"},{"name": "The hoke poke", "address": "1834 W 4th Ave, Vancouver, BC V6J 1M3, Canada", "phone": "+1 604-564-8885", "tags": ["restaurant", "food", "point_of_interest", "establishment"], "rating": 4.3, "website": "http://www.thehokepoke.ca/", "location": {"lat": 49.267876, "lng": -123.1464859}, "google_id": "ChIJkyQcyrdzhlQRBQJTV9GoGqk"},{"name": "Ajiya Sushi", "address": "1822 W 4th Ave, Vancouver, BC V6J 1M3, Canada", "phone": "+1 604-737-3999", "tags": ["restaurant", "food", "point_of_interest", "establishment"], "rating": 3.8, "website": "https://ajiyasushi.com/", "location": {"lat": 49.2678136, "lng": -123.1462751}, "google_id": "ChIJk9W3IbZzhlQR8MWHEdhggVU"},{"name": "The Boathouse Restaurant", "address": "1305 Arbutus St, Vancouver, BC V6J 5N2, Canada", "phone": "+1 604-738-5487", "tags": ["restaurant", "food", "point_of_interest", "establishment"], "rating": 4, "website": "http://www.boathouserestaurants.ca/", "location": {"lat": 49.2742939, "lng": -123.1536698}, "google_id": "ChIJKQRjajVyhlQRWwpJX5rvnN4"},{"name": "Las Margaritas", "address": "1999 W 4th Ave, Vancouver, BC V6J 1M7, Canada", "phone": "+1 604-734-7117", "tags": ["meal_takeaway", "restaurant", "food", "point_of_interest", "establishment"], "rating": 4.1, "website": "http://www.lasmargaritas.com/", "location": {"lat": 49.2683195, "lng": -123.1500818}, "google_id": "ChIJp7R2erZzhlQRT9uOtRCRz6I"},{"name": "Corduroy Restaurant", "address": "1943 Cornwall Ave, Vancouver, BC V6J 1C8, Canada", "phone": "+1 604-733-0162", "tags": ["bar", "night_club", "restaurant", "food", "point_of_interest", "establishment"], "rating": 4.3, "website": "http://www.corduroyrestaurant.com/", "location": {"lat": 49.27261, "lng": -123.1487543}, "google_id": "ChIJlckW6cpzhlQRAB8slG8EZKw"},{"name": "Ceroc Vancouver", "address": "1407 Laburnum St, Vancouver, BC V6J 3W4, Canada", "phone": "+1 778-862-3762", "tags": ["restaurant", "food", "gym", "health", "point_of_interest", "establishment"], "rating": "", "website": "http://www.cerocvancouver.ca/", "location": {"lat": 49.27325320000001, "lng": -123.1517905}, "google_id": "ChIJSQCRsspzhlQRYfYVkTJARCc"},{"name": "Sushigo", "address": "1833 Anderson St, Vancouver, BC V6J 1H2, Canada", "phone": "+1 604-731-9990", "tags": ["restaurant", "food", "point_of_interest", "establishment"], "rating": 3.4, "website": "https://www.sushigo.ca/", "location": {"lat": 49.26935539999999, "lng": -123.1388537}, "google_id": "ChIJ4RApKclzhlQRVlKFn1t-Scc"},{"name": "Thai Basil Restaurant", "address": "2184 Cornwall Ave, Vancouver, BC V6K 1B4, Canada", "phone": "+1 604-677-6767", "tags": ["restaurant", "food", "point_of_interest", "establishment"], "rating": 4.2, "website": "http://www.thaibasilvancouver.ca/", "location": {"lat": 49.2724616, "lng": -123.1545275}, "google_id": "ChIJyax7tUpyhlQR4GkUHQ4UraM"},{"name": "Vera's Burger Shack", "address": "1925 Cornwall Ave, Vancouver, BC V6J 1C8, Canada", "phone": "+1 604-228-8372", "tags": ["bar", "restaurant", "food", "point_of_interest", "establishment"], "rating": 4, "website": "http://verasburgershack.com/", "location": {"lat": 49.2726384, "lng": -123.148299}, "google_id": "ChIJgWML5spzhlQR_6bsqskueRc"},{"name": "Panne Rizo Gluten Free Bakery", "address": "1939 Cornwall Ave, Vancouver, BC V6J 1C8, Canada", "phone": "+1 604-736-0885", "tags": ["bakery", "cafe", "restaurant", "food", "point_of_interest", "store", "establishment"], "rating": 4, "website": "http://www.pannerizo.com/", "location": {"lat": 49.27260860000001, "lng": -123.1485987}, "google_id": "ChIJ0Tbh6MpzhlQRrooBuZBYlGw"},{"name": "BiBo Pizzeria con Cucina", "address": "1835 W 4th Ave, Vancouver, BC V6J 1M4, Canada", "phone": "+1 604-568-6177", "tags": ["bar", "restaurant", "food", "point_of_interest", "establishment"], "rating": 4.2, "website": "http://www.thebibo.com/", "location": {"lat": 49.2681496, "lng": -123.1465331}, "google_id": "ChIJbW52HrZzhlQRVh3AwhuWrGQ"},{"name": "Blue Hat Bistro", "address": "1505 #101, W 2nd Ave, Vancouver, BC V6H 3Y4, Canada", "phone": "+1 604-734-0101", "tags": ["restaurant", "food", "point_of_interest", "establishment"], "rating": 4.4, "website": "https://www.picachef.com/bistro-101-restaurant", "location": {"lat": 49.2698875, "lng": -123.1379948}, "google_id": "ChIJ9WYgLclzhlQRo8tzI_KTKVg"},{"name": "Juliet's Cafe", "address": "1905 Cornwall Ave, Vancouver, BC V6J 1C8, Canada", "phone": "+1 604-732-8212", "tags": ["restaurant", "food", "point_of_interest", "establishment"], "rating": 3.8, "website": "http://julietscafe.com/", "location": {"lat": 49.2726541, "lng": -123.1479432}, "google_id": "ChIJncco5MpzhlQRzU4RYGbQKJ0"},{"name": "Megabite Pizza", "address": "106-1833 Anderson St #106, Vancouver, BC V6H 4E5, Canada", "phone": "+1 604-733-0888", "tags": ["restaurant", "food", "point_of_interest", "establishment"], "rating": 3.3, "website": "http://www.megabitepizza.com/", "location": {"lat": 49.2693126, "lng": -123.1385521}, "google_id": "ChIJT_t-OslzhlQROQghghWiCBY"},{"name": "Blue Sky Japanese Bistro", "address": "1815 1st Avenue West, Vancouver, BC V6J 5B8, Canada", "phone": "+1 604-734-5858", "tags": ["meal_delivery", "meal_takeaway", "restaurant", "food", "point_of_interest", "establishment"], "rating": 3.2, "website": "", "location": {"lat": 49.270805, "lng": -123.147068}, "google_id": "ChIJn2o3C7ZzhlQReVk2CIGxSwQ"},{"name": "Sejuiced Vegetarian Restaurant", "address": "1958 W 4th Ave, Vancouver, BC V6J 1M5, Canada", "phone": "+1 604-730-9906", "tags": ["restaurant", "food", "point_of_interest", "establishment"], "rating": 4.6, "website": "http://www.sejuicedvancouver.com/", "location": {"lat": 49.26792700000001, "lng": -123.14927}, "google_id": "ChIJl06rdrZzhlQR2BgLXSsx2Vk"},{"name": "Tractor Everyday Healthy Foods - Kitsilano", "address": "1903 W 4th Ave, Vancouver, BC V6J 3L9, Canada", "phone": "+1 604-343-1164", "tags": ["cafe", "restaurant", "food", "point_of_interest", "establishment"], "rating": 4.2, "website": "http://tractorfoods.com/", "location": {"lat": 49.2682168, "lng": -123.1481641}, "google_id": "ChIJpYEXDrZzhlQRT9VKbNCYAhA"},{"name": "Charqui", "address": "1955 Cornwall Ave, Vancouver, BC V6J 1C9, Canada", "phone": "+1 604-733-3323", "tags": ["bar", "restaurant", "food", "point_of_interest", "establishment"], "rating": 4.2, "website": "http://www.charqui.ca/", "location": {"lat": 49.2726718, "lng": -123.1492563}, "google_id": "ChIJueER6spzhlQRnxkSUjwc_Sc"},{"name": "Subway", "address": "1807 Burrard St #101, Vancouver, BC V6J 3G9, Canada", "phone": "+1 604-736-7827", "tags": ["restaurant", "food", "point_of_interest", "establishment"], "rating": 3.7, "website": "http://subwaycaters.ca/", "location": {"lat": 49.26956819999999, "lng": -123.1460031}, "google_id": "ChIJ146oIcpzhlQRXISRwE-eXKc"},{"name": "Pizza Pizza", "address": "1893 Cornwall Ave, Vancouver, BC V6J 1C6, Canada", "phone": "+1 604-277-1111", "tags": ["meal_delivery", "meal_takeaway", "restaurant", "food", "point_of_interest", "establishment"], "rating": 4.9, "website": "https://www.pizzapizza.ca/", "location": {"lat": 49.27277970000001, "lng": -123.1475462}, "google_id": "ChIJZUxhhd5zhlQR_EDe8oDVJX4"},{"name": "Taco Shack", "address": "1937 Cornwall Ave, Vancouver, BC V6J 1C8, Canada", "phone": "", "tags": ["restaurant", "food", "point_of_interest", "establishment"], "rating": 4, "website": "", "location": {"lat": 49.2726108, "lng": -123.1485271}, "google_id": "ChIJnSwp5spzhlQRKqDFlZPrWZE"},{"name": "Cantina Pana", "address": "1941 Cornwall Ave, Vancouver, BC V6J 1C8, Canada", "phone": "+1 604-734-1001", "tags": ["restaurant", "meal_takeaway", "food", "point_of_interest", "establishment"], "rating": 4.3, "website": "http://cantinapana.com/", "location": {"lat": 49.2726822, "lng": -123.1487046}, "google_id": "ChIJfda_QhFzhlQRyOq5duGUM6w"},{"name": "AnnaLena", "address": "1809 W 1st Ave, Vancouver, BC V6J 5B8, Canada", "phone": "+1 778-379-4052", "tags": ["restaurant", "food", "point_of_interest", "establishment"], "rating": 4.6, "website": "http://www.annalena.ca/", "location": {"lat": 49.27082189999999, "lng": -123.1467779}, "google_id": "ChIJJ_oZQcpzhlQRYmMyGpKp7PA"},{"name": "Shift Shakes", "address": "1835 W 1st Ave, Vancouver, BC V6J 5B8, Canada", "phone": "", "tags": ["cafe", "meal_takeaway", "restaurant", "food", "point_of_interest", "establishment"], "rating": 4, "website": "http://www.shiftshakes.com/", "location": {"lat": 49.2708238, "lng": -123.1472776}, "google_id": "ChIJqz-An4hzhlQREA3-oug3OQg"},{"name": "Oddfish Restaurant", "address": "1889 W 1st Ave, Vancouver, BC V6J 5B8, Canada", "phone": "+1 604-564-6330", "tags": ["restaurant", "food", "point_of_interest", "establishment"], "rating": 4.6, "website": "http://www.oddfishrestaurant.com/", "location": {"lat": 49.27089400000001, "lng": -123.147586}, "google_id": "ChIJ9ZQCacpzhlQRLx_Hge2HPaU"},{"name": "Cacao", "address": "1898 W 1st Ave, Vancouver, BC V6J 1G5, Canada", "phone": "+1 604-731-5370", "tags": ["restaurant", "food", "point_of_interest", "establishment"], "rating": 4.4, "website": "", "location": {"lat": 49.27049789999999, "lng": -123.147707}, "google_id": "ChIJwWwHbMpzhlQRO2lI1jBH6ek"},{"name": "Kibune Sushi Restaurant", "address": "1508 Yew St, Vancouver, BC V6K 3E4, Canada", "phone": "+1 604-731-4482", "tags": ["restaurant", "food", "point_of_interest", "establishment"], "rating": 4.1, "website": "http://kibune.com/", "location": {"lat": 49.2723871, "lng": -123.1548029}, "google_id": "ChIJ--OCy0pyhlQRLJxrsZJRzLM"},{"name": "La Cigale Bistro", "address": "1961 W 4th Ave, Vancouver, BC V6J 1M7, Canada", "phone": "+1 604-732-0004", "tags": ["restaurant", "food", "point_of_interest", "establishment"], "rating": 4.4, "website": "http://www.lacigale.ca/", "location": {"lat": 49.2682662, "lng": -123.1494147}, "google_id": "ChIJzRsldLZzhlQR4VIoVRSSLeM"},{"name": "Granville Island Public Market", "address": "Unnamed Road, Vancouver, BC V6J 3H2, Canada", "phone": "", "tags": ["restaurant", "food", "point_of_interest", "establishment"], "rating": "", "website": "", "location": {"lat": 49.26867429999999, "lng": -123.1453883}, "google_id": "ChIJqWbVhx5zhlQR4n_9ndNJWXI"},{"name": "Best Falafel", "address": "1859 W 4th Ave, Vancouver, BC V6J 1M4, Canada", "phone": "+1 604-428-5522", "tags": ["restaurant", "food", "point_of_interest", "establishment"], "rating": 4.5, "website": "http://bestfalafel.ca/", "location": {"lat": 49.2683119, "lng": -123.1470673}, "google_id": "ChIJrVW1IL1zhlQRTXHPrsNtdV8"},{"name": "Ramen Danbo", "address": "1833 W 4th Ave, Vancouver, BC V6J 1M4, Canada", "phone": "+1 778-379-8977", "tags": ["restaurant", "food", "point_of_interest", "establishment"], "rating": 4.5, "website": "http://ramendanbo.com/", "location": {"lat": 49.268193, "lng": -123.1464022}, "google_id": "ChIJQ3nj4clzhlQR9RUvmNL8Gk8"},{"name": "D\u00f6ner Kebab", "address": "1956 W 4th Ave, Vancouver, BC V6J 1M5, Canada", "phone": "+1 604-558-1050", "tags": ["restaurant", "food", "point_of_interest", "establishment"], "rating": 4.4, "website": "http://www.donerkebab.ca/", "location": {"lat": 49.2679643, "lng": -123.149269}, "google_id": "ChIJ-zlRcbZzhlQRG3HPhgcsqU4"},{"name": "Tacofino - Kitsilano", "address": "1909 W 4th Ave, Vancouver, BC V6J 3L9, Canada", "phone": "+1 604-620-8729", "tags": ["restaurant", "food", "point_of_interest", "establishment"], "rating": 5, "website": "https://www.tacofino.com/location/kits", "location": {"lat": 49.26826190000001, "lng": -123.1483231}, "google_id": "ChIJge8E4tVzhlQRG1dFvCXyJWU"},{"name": "Waterfall Sushi and Poke", "address": "1542 W 2nd Ave, Vancouver, BC V6J 1H2, Canada", "phone": "+1 604-423-3151", "tags": ["restaurant", "food", "point_of_interest", "establishment"], "rating": 3.6, "website": "https://www.waterfall-sushi.com/", "location": {"lat": 49.269572, "lng": -123.1400543}, "google_id": "ChIJ_7XX-XRzhlQRK1jCMQVLolM"},{"name": "Chi Modern Vietnamese Kitchen", "address": "1935 W 4th Ave, Vancouver, BC V6J 1M7, Canada", "phone": "+1 604-336-3010", "tags": ["restaurant", "food", "point_of_interest", "establishment"], "rating": 4.1, "website": "http://www.chirestaurantbar.com/", "location": {"lat": 49.2682575, "lng": -123.1488595}, "google_id": "ChIJBwE9C7ZzhlQR4gjQ64BrNQE"},{"name": "HY Tea Lounge", "address": "205-1540 W 2nd Ave, Vancouver, BC V6J 1H2, Canada", "phone": "+1 604-731-9636", "tags": ["restaurant", "food", "point_of_interest", "establishment"], "rating": 3.9, "website": "http://www.hytealounge.com/", "location": {"lat": 49.269536, "lng": -123.1398317}, "google_id": "ChIJYWW_O8lzhlQRBN6DDFa9SDM"},{"name": "RedBeef noodle Kitchen", "address": "1947 W 4th Ave, Vancouver, BC V6J 1M7, Canada", "phone": "+1 604-558-1237", "tags": ["restaurant", "food", "point_of_interest", "establishment"], "rating": 4.4, "website": "http://www.redbeef.ca/", "location": {"lat": 49.2682489, "lng": -123.1490825}, "google_id": "ChIJy6gndbZzhlQRylsrWwq_y0c"},{"name": "Nelly's Grill", "address": "2061 W 4th Ave, Vancouver, BC V6J 1N3, Canada", "phone": "+1 604-736-6588", "tags": ["restaurant", "food", "point_of_interest", "establishment"], "rating": 4.4, "website": "http://nellysgrill.com/", "location": {"lat": 49.26831430000001, "lng": -123.1517131}, "google_id": "ChIJ45d4MrRzhlQRJrn-YoreyLs"},{"name": "Gobble", "address": "2017 W 4th Ave, Vancouver, BC V6J 1N3, Canada", "phone": "+1 604-732-8111", "tags": ["restaurant", "meal_takeaway", "food", "point_of_interest", "establishment"], "rating": 4.7, "website": "https://gobblevancouver.com/", "location": {"lat": 49.2683163, "lng": -123.1508418}, "google_id": "ChIJq6pu0bVzhlQRm2MiYL0HVsE"},{"name": "La Familia Foods Ltd", "address": "W 4th Ave, Vancouver, BC V6J 1M7, Canada", "phone": "+1 604-736-7199", "tags": ["restaurant", "food", "point_of_interest", "establishment"], "rating": "", "website": "", "location": {"lat": 49.26776599999999, "lng": -123.149644}, "google_id": "ChIJgeyW17VzhlQRqBSKtj-DYF4"},{"name": "Blue Martini Cafe & Jazz", "address": "1516 Yew St, Vancouver, BC V6K 3E4, Canada", "phone": "+1 604-428-2691", "tags": ["restaurant", "food", "point_of_interest", "establishment"], "rating": 4.1, "website": "http://www.bluemartinijazzcafe.com/", "location": {"lat": 49.27229980000001, "lng": -123.1548125}, "google_id": "ChIJF9g3y0pyhlQRvrL6blIFP3g"},{"name": "Basil Pasta Bar", "address": "1602 Yew St, Vancouver, BC V6K 3E7, Canada", "phone": "+1 778-379-0566", "tags": ["restaurant", "food", "point_of_interest", "establishment"], "rating": 3.9, "website": "http://www.basilpastabar.com/", "location": {"lat": 49.2715551, "lng": -123.1548299}, "google_id": "ChIJE1-tL7VzhlQRzFDSF2MbiJk"}]