[{"name": "The Naam", "address": "2724 W 4th Ave, Vancouver, BC V6K 1R1, Canada", "phone": "+1 604-738-7151", "tags": ["restaurant", "food", "point_of_interest", "establishment"], "rating": 4.3, "website": "http://www.thenaam.com/", "location": {"lat": 49.2681884, "lng": -123.1670365}, "google_id": "ChIJ6QuEWZFzhlQRU6ynlJ2i81c"},{"name": "Sophie's Cosmic Cafe", "address": "2095 W 4th Ave, Vancouver, BC V6J 1M7, Canada", "phone": "+1 604-732-6810", "tags": ["restaurant", "food", "point_of_interest", "establishment"], "rating": 4.2, "website": "http://www.sophiescosmiccafe.com/", "location": {"lat": 49.2682942, "lng": -123.1525692}, "google_id": "ChIJu4OUMLRzhlQRXVFH4Xotj2k"},{"name": "Burgoo Kitsilano", "address": "2272 W 4th Ave, Vancouver, BC V6K 1N8, Canada", "phone": "+1 604-734-3478", "tags": ["restaurant", "food", "point_of_interest", "establishment"], "rating": 4.3, "website": "https://www.burgoo.ca/", "location": {"lat": 49.26798039999999, "lng": -123.1568339}, "google_id": "ChIJU2cZhrNzhlQRWLnd4cKZucA"},{"name": "Healthy Noodle House", "address": "2716 W 4th Ave, Vancouver, BC V6K 1R1, Canada", "phone": "+1 778-371-8371", "tags": ["restaurant", "food", "point_of_interest", "establishment"], "rating": 4.7, "website": "http://www.healthynoodle.ca/", "location": {"lat": 49.2682121, "lng": -123.1668536}, "google_id": "ChIJi_JIVa1zhlQRFgoJXrdOoKg"},{"name": "Bishop's", "address": "2183 W 4th Ave, Vancouver, BC V6K 1N7, Canada", "phone": "+1 604-738-2025", "tags": ["restaurant", "food", "point_of_interest", "establishment"], "rating": 4.7, "website": "http://www.bishopsonline.com/", "location": {"lat": 49.2683303, "lng": -123.1546757}, "google_id": "ChIJ-Y-Ja7RzhlQRcgHNEm8_eAA"},{"name": "Temaki Sushi", "address": "2156 W Broadway, Vancouver, BC V6K 2C8, Canada", "phone": "+1 604-738-4321", "tags": ["restaurant", "food", "point_of_interest", "establishment"], "rating": 4.4, "website": "http://www.temakisushi.ca/", "location": {"lat": 49.2635951, "lng": -123.1542864}, "google_id": "ChIJ7fGl4rBzhlQRW25o2FUeSB0"},{"name": "7seas Fish Market on Fourth", "address": "2328 W 4th Ave, Vancouver, BC V6K 1P1, Canada", "phone": "+1 604-732-8608", "tags": ["restaurant", "food", "point_of_interest", "establishment"], "rating": 4.2, "website": "http://7seas.ca/", "location": {"lat": 49.2681074, "lng": -123.1582305}, "google_id": "ChIJFYG6nbNzhlQRZvHuAMmHbPw"},{"name": "Subway", "address": "2640 Arbutus St, Vancouver, BC V6J 5L8, Canada", "phone": "+1 604-737-7421", "tags": ["restaurant", "food", "point_of_interest", "establishment"], "rating": 3.6, "website": "http://www.subway.com/", "location": {"lat": 49.2625438, "lng": -123.1527909}, "google_id": "ChIJv2sWjrBzhlQRo4xFFZWsrFg"},{"name": "Cafe Zen On Yew", "address": "1631 Yew St, Vancouver, BC V6K 3E6, Canada", "phone": "+1 604-731-4018", "tags": ["restaurant", "food", "point_of_interest", "establishment"], "rating": 4.3, "website": "http://cafezenonyew.com/", "location": {"lat": 49.2711449, "lng": -123.1552152}, "google_id": "ChIJpfBpJ7VzhlQRPWpo65bOpyk"},{"name": "Hi-Nippon Japanese Restaurant", "address": "2274 W 4th Ave, Vancouver, BC V6K 1N8, Canada", "phone": "+1 604-736-1766", "tags": ["restaurant", "food", "point_of_interest", "establishment"], "rating": 4.1, "website": "", "location": {"lat": 49.26800859999999, "lng": -123.1569305}, "google_id": "ChIJTYMJhrNzhlQRMI7Di-Fta5k"},{"name": "White Spot Kitsilano", "address": "2518 W Broadway, Vancouver, BC V6K 2G1, Canada", "phone": "+1 604-731-2434", "tags": ["restaurant", "food", "point_of_interest", "establishment"], "rating": 4, "website": "http://www.whitespot.ca/", "location": {"lat": 49.2637844, "lng": -123.1632964}, "google_id": "ChIJyR2qCq5zhlQRyz1_vsY1ARw"},{"name": "Chewies Smoke & Oyster Bar Kitsilano", "address": "2201 W 1st Ave, Vancouver, BC V6K 3E6, Canada", "phone": "+1 604-558-4448", "tags": ["restaurant", "food", "point_of_interest", "establishment"], "rating": 4.2, "website": "http://www.chewies.ca/", "location": {"lat": 49.27097269999999, "lng": -123.1552829}, "google_id": "ChIJqwLz37RzhlQRQPnZme2d7lk"},{"name": "Dairy Queen", "address": "2601 Broadway W, Vancouver, BC V6K 2G2, Canada", "phone": "+1 604-732-3704", "tags": ["restaurant", "food", "point_of_interest", "store", "establishment"], "rating": 3.8, "website": "https://www.dairyqueen.com/ca-en/Locator/Detail/?localechange=1&store-id=7707", "location": {"lat": 49.2642256, "lng": -123.1648875}, "google_id": "ChIJI6yu2q1zhlQRmln2qyfQk-E"},{"name": "Dark Table", "address": "2611 W 4th Ave, Vancouver, BC V6K 1P8, Canada", "phone": "+1 604-739-3275", "tags": ["restaurant", "food", "point_of_interest", "establishment"], "rating": 4.5, "website": "http://www.darktable.ca/about.html", "location": {"lat": 49.2684434, "lng": -123.164852}, "google_id": "ChIJCQwlt7JzhlQRZaFU12v4XQI"},{"name": "Iki Japanese Restaurant", "address": "2756 W Broadway, Vancouver, BC V6K 2G4, Canada", "phone": "+1 604-731-4771", "tags": ["restaurant", "food", "point_of_interest", "establishment"], "rating": 4.4, "website": "https://lazymeal.com/menu/iki", "location": {"lat": 49.26385459999999, "lng": -123.1674147}, "google_id": "ChIJmxjzR6xzhlQRoGHbO57h_gQ"},{"name": "Great Wall Mongolian B.B.Q", "address": "2897 W Broadway, Vancouver, BC V6K 2G6, Canada", "phone": "+1 604-739-4888", "tags": ["restaurant", "food", "point_of_interest", "establishment"], "rating": 4.4, "website": "", "location": {"lat": 49.2642355, "lng": -123.1703428}, "google_id": "ChIJl8UDfaxzhlQR8f8B18Uz33o"},{"name": "Gramercy Grill", "address": "2685 Arbutus St, Vancouver, BC V6J 3Y4, Canada", "phone": "+1 604-730-5666", "tags": ["restaurant", "food", "point_of_interest", "establishment"], "rating": 3.6, "website": "http://www.gramercy-grill.com/", "location": {"lat": 49.2620899, "lng": -123.1532481}, "google_id": "ChIJJVnsh7BzhlQRRM7N_4zjs_s"},{"name": "Indian Oven", "address": "2006 W 4th Ave, Vancouver, BC V6J 1M9, Canada", "phone": "+1 604-730-5069", "tags": ["restaurant", "food", "point_of_interest", "establishment"], "rating": 4.1, "website": "http://www.theindianoven.com/", "location": {"lat": 49.2678849, "lng": -123.1506642}, "google_id": "ChIJ2wm71bVzhlQRYlQQjtt8p-I"},{"name": "Browns Socialhouse Kitsilano", "address": "2296 W 4th Ave, Vancouver, BC V6K 1N8, Canada", "phone": "+1 604-733-2420", "tags": ["restaurant", "night_club", "bar", "food", "point_of_interest", "establishment"], "rating": 3.9, "website": "http://brownssocialhouse.com/kitsilano", "location": {"lat": 49.2680922, "lng": -123.1573576}, "google_id": "ChIJTYR9hLNzhlQRoghm34Zvrdc"},{"name": "Sushi Bella Restaurant", "address": "2059 W 4th Ave, Vancouver, BC V6J 1N3, Canada", "phone": "+1 604-734-4990", "tags": ["meal_delivery", "meal_takeaway", "restaurant", "food", "point_of_interest", "establishment"], "rating": 4.2, "website": "https://www.sushibella.com/", "location": {"lat": 49.268278, "lng": -123.1517448}, "google_id": "ChIJkY56LbRzhlQR5KKxSDGNGms"},{"name": "Silk Project The", "address": "1541 W 6th Ave, Vancouver, BC V6J 1R1, Canada", "phone": "+1 604-732-3314", "tags": ["restaurant", "food", "point_of_interest", "establishment"], "rating": "", "website": "", "location": {"lat": 49.2665784, "lng": -123.1622946}, "google_id": "ChIJk0Z0e8hzhlQRRgcECWnnUi4"},{"name": "Evelyn's Cafe & Bistro", "address": "2176 W Broadway, Vancouver, BC V6K 2C8, Canada", "phone": "+1 604-731-7117", "tags": ["cafe", "restaurant", "food", "point_of_interest", "establishment"], "rating": 4.2, "website": "", "location": {"lat": 49.26368220000001, "lng": -123.1545922}, "google_id": "ChIJz0QF_bBzhlQRnIQjfGVUQZY"},{"name": "Raisu", "address": "2340 W 4th Ave, Vancouver, BC V6K 1P1, Canada", "phone": "+1 604-620-1564", "tags": ["restaurant", "food", "point_of_interest", "establishment"], "rating": 4.4, "website": "http://raisu.ca/", "location": {"lat": 49.268007, "lng": -123.158328}, "google_id": "ChIJheYkn7NzhlQR8weTw-mG_IU"},{"name": "Au Comptoir", "address": "2278 W 4th Ave, Vancouver, BC V6K 1N8, Canada", "phone": "+1 604-569-2278", "tags": ["cafe", "restaurant", "food", "point_of_interest", "establishment"], "rating": 4.4, "website": "http://www.aucomptoir.ca/", "location": {"lat": 49.2679862, "lng": -123.157025}, "google_id": "ChIJKzDdhbNzhlQRN9TcI0eaFPI"},{"name": "Nourish Cooking School", "address": "2245 W Broadway, Vancouver, BC V6K 2E4, Canada", "phone": "+1 778-389-3411", "tags": ["cafe", "restaurant", "food", "health", "point_of_interest", "store", "establishment"], "rating": 4.9, "website": "http://www.nourishvancouver.ca/", "location": {"lat": 49.2641782, "lng": -123.1563626}, "google_id": "ChIJ8zwkgnhxhlQRYrTjLPqbBGA"},{"name": "Glory Juice Co.", "address": "2186 W 4th Ave, Vancouver, BC V6K 1N6, Canada", "phone": "+1 778-379-4511", "tags": ["grocery_or_supermarket", "cafe", "restaurant", "food", "point_of_interest", "store", "establishment"], "rating": 4.3, "website": "http://www.gloryjuiceco.com/", "location": {"lat": 49.26804299999999, "lng": -123.1545278}, "google_id": "ChIJqw45E7RzhlQRChdnjzcf388"},{"name": "Pho Japolo", "address": "2807 W Broadway, Vancouver, BC V6K 2G7, Canada", "phone": "+1 604-737-1293", "tags": ["restaurant", "food", "point_of_interest", "establishment"], "rating": 4, "website": "http://www.phojapolo.com/", "location": {"lat": 49.2642062, "lng": -123.1686925}, "google_id": "ChIJ7ZJLXaxzhlQRxxQbb2cMfTg"},{"name": "TurF", "address": "2041 W 4th Ave, Vancouver, BC V6J 1N3, Canada", "phone": "+1 604-428-9970", "tags": ["restaurant", "cafe", "bar", "food", "gym", "health", "point_of_interest", "clothing_store", "store", "establishment"], "rating": 4.5, "website": "http://ourturf.com/", "location": {"lat": 49.2682195, "lng": -123.1516214}, "google_id": "ChIJY00VLbRzhlQRs8vbHKdFKzg"},{"name": "Panago Pizza", "address": "2905 W Broadway, Vancouver, BC V6K 2G6, Canada", "phone": "+1 866-310-0001", "tags": ["meal_delivery", "meal_takeaway", "restaurant", "food", "point_of_interest", "establishment"], "rating": 3.8, "website": "http://www.panago.com/", "location": {"lat": 49.2642903, "lng": -123.1705284}, "google_id": "ChIJt5kxfKxzhlQRyDwcrzFDhAY"},{"name": "Chezmoi Cafe", "address": "2936 W 4th Ave, Vancouver, BC V6K 1R2, Canada", "phone": "+1 604-734-9333", "tags": ["restaurant", "food", "point_of_interest", "establishment"], "rating": "", "website": "", "location": {"lat": 49.26831840000001, "lng": -123.1706063}, "google_id": "ChIJf6yQ3VJyhlQRWi71UB7VlCs"},{"name": "Tandoori Fusion", "address": "2872 W Broadway, Vancouver, BC V6K 2G7, Canada", "phone": "+1 604-738-2824", "tags": ["restaurant", "food", "point_of_interest", "establishment"], "rating": 4.2, "website": "https://lazymeal.com/menu/tandoorifusion?frame=t", "location": {"lat": 49.2639419, "lng": -123.169529}, "google_id": "ChIJJ6JdZaxzhlQRvV0VXg6k_8g"},{"name": "Nook", "address": "1525 Yew St, Vancouver, BC V6K 3E5, Canada", "phone": "+1 604-734-0099", "tags": ["restaurant", "food", "point_of_interest", "establishment"], "rating": 4.5, "website": "http://nookrestaurant.ca/", "location": {"lat": 49.2722262, "lng": -123.1551444}, "google_id": "ChIJq9PfzEpyhlQRUqp026zudho"},{"name": "Thai Basil Restaurant", "address": "2184 Cornwall Ave, Vancouver, BC V6K 1B4, Canada", "phone": "+1 604-677-6767", "tags": ["restaurant", "food", "point_of_interest", "establishment"], "rating": 4.2, "website": "http://www.thaibasilvancouver.ca/", "location": {"lat": 49.2724616, "lng": -123.1545275}, "google_id": "ChIJyax7tUpyhlQR4GkUHQ4UraM"},{"name": "Local Kitsilano", "address": "2210 Cornwall Ave, Vancouver, BC V6K 1B5, Canada", "phone": "+1 604-734-3589", "tags": ["restaurant", "bar", "food", "point_of_interest", "establishment"], "rating": 4.2, "website": "http://localkits.com/", "location": {"lat": 49.2723383, "lng": -123.1553519}, "google_id": "ChIJo-2GzkpyhlQRNf117XkTpGU"},{"name": "Uncle Fatih's Pizza - KITSILANO", "address": "2778 W Broadway, Vancouver, BC V6K 1V9, Canada", "phone": "+1 604-733-3355", "tags": ["restaurant", "food", "point_of_interest", "establishment"], "rating": 4.2, "website": "http://www.unclefatih.com/", "location": {"lat": 49.2639258, "lng": -123.1676966}, "google_id": "ChIJE00VR6xzhlQRqTQ-CccmpBA"},{"name": "McDonald's", "address": "2391 W 4th Ave, Vancouver, BC V6K 1P2, Canada", "phone": "+1 604-718-1185", "tags": ["restaurant", "food", "point_of_interest", "establishment"], "rating": 3.4, "website": "https://www.mcdonalds.com/ca/en-ca/restaurant-locator.html", "location": {"lat": 49.2683854, "lng": -123.159435}, "google_id": "ChIJRVgbDLNzhlQR4e6YR5VdRYQ"},{"name": "Gramercy Grill", "address": "2111 W 11th Ave, Vancouver, BC V6K 4V6, Canada", "phone": "+1 604-730-5666", "tags": ["restaurant", "food", "point_of_interest", "establishment"], "rating": 4.3, "website": "http://www.gramercy-grill.com/", "location": {"lat": 49.2620914, "lng": -123.1533469}, "google_id": "ChIJS-H9h7BzhlQRIGQrTzRlGXs"},{"name": "Peaceful Restaurant", "address": "2394 W 4th Ave, Vancouver, BC V6K 1P1, Canada", "phone": "+1 604-559-9533", "tags": ["restaurant", "food", "point_of_interest", "establishment"], "rating": 4, "website": "http://www.peacefulrestaurant.com/", "location": {"lat": 49.268124, "lng": -123.159604}, "google_id": "ChIJgepNCbNzhlQRjveodReDx_g"},{"name": "Nat's New York Pizzeria", "address": "2684 W Broadway, Vancouver, BC V6K 2G3, Canada", "phone": "+1 604-737-0707", "tags": ["restaurant", "food", "point_of_interest", "establishment"], "rating": 4.5, "website": "http://www.natspizza.com/", "location": {"lat": 49.2638609, "lng": -123.1659229}, "google_id": "ChIJOahPM6xzhlQR8nwX09KxOiE"},{"name": "Simpatico Ristorante", "address": "2222 W 4th Ave, Vancouver, BC V6K 1N8, Canada", "phone": "+1 604-733-6824", "tags": ["restaurant", "food", "point_of_interest", "establishment"], "rating": 4.1, "website": "http://simpaticorestaurant.ca/", "location": {"lat": 49.26806269999999, "lng": -123.1558413}, "google_id": "ChIJeem8drRzhlQRgoDiv9P_G8o"},{"name": "The Regal Beagle", "address": "2283 W Broadway, Vancouver, BC V6K 2E4, Canada", "phone": "+1 604-739-0677", "tags": ["restaurant", "bar", "food", "point_of_interest", "establishment"], "rating": 4.1, "website": "http://thebeagle.ca/", "location": {"lat": 49.2639121, "lng": -123.1569795}, "google_id": "ChIJOdRcpLFzhlQRca2CuzsyTuA"},{"name": "Las Margaritas", "address": "1999 W 4th Ave, Vancouver, BC V6J 1M7, Canada", "phone": "+1 604-734-7117", "tags": ["meal_takeaway", "restaurant", "food", "point_of_interest", "establishment"], "rating": 4.1, "website": "http://www.lasmargaritas.com/", "location": {"lat": 49.2683195, "lng": -123.1500818}, "google_id": "ChIJp7R2erZzhlQRT9uOtRCRz6I"},{"name": "Maria's Taverna", "address": "2324 W 4th Ave, Vancouver, BC V6K 1P4, Canada", "phone": "+1 604-731-4722", "tags": ["restaurant", "food", "point_of_interest", "establishment"], "rating": 4.2, "website": "http://mariason4th.com/", "location": {"lat": 49.26801099999999, "lng": -123.1580679}, "google_id": "ChIJ92RInLNzhlQRKh1-M8BY3VA"},{"name": "Connie's Cook House", "address": "2135 W 4th Ave, Vancouver, BC V6K 1N7, Canada", "phone": "+1 604-738-0980", "tags": ["restaurant", "food", "point_of_interest", "establishment"], "rating": 4.2, "website": "", "location": {"lat": 49.2682704, "lng": -123.1536883}, "google_id": "ChIJveULP7RzhlQRoSHGVHtFpfs"},{"name": "Nelly's Grill", "address": "2061 W 4th Ave, Vancouver, BC V6J 1N3, Canada", "phone": "+1 604-736-6588", "tags": ["restaurant", "food", "point_of_interest", "establishment"], "rating": 4.4, "website": "http://nellysgrill.com/", "location": {"lat": 49.26831430000001, "lng": -123.1517131}, "google_id": "ChIJ45d4MrRzhlQRJrn-YoreyLs"},{"name": "Darby's Public House", "address": "2001 Macdonald St, Vancouver, BC V6K 3Y2, Canada", "phone": "+1 604-731-0617", "tags": ["bar", "liquor_store", "restaurant", "food", "point_of_interest", "store", "establishment"], "rating": 4.1, "website": "https://www.darbys.pub/", "location": {"lat": 49.2681236, "lng": -123.1686266}, "google_id": "ChIJd39NtFJyhlQRftNotHz3Nxo"},{"name": "Yagger's Kitsilano Restaurant", "address": "2884 W Broadway, Vancouver, BC V6K 2G7, Canada", "phone": "+1 604-733-3002", "tags": ["bar", "restaurant", "food", "point_of_interest", "establishment"], "rating": 4.3, "website": "http://www.yaggers.com/", "location": {"lat": 49.263948, "lng": -123.1696233}, "google_id": "ChIJW7VOZaxzhlQRrD4pdCKVajI"},{"name": "Kibune Sushi Restaurant", "address": "1508 Yew St, Vancouver, BC V6K 3E4, Canada", "phone": "+1 604-731-4482", "tags": ["restaurant", "food", "point_of_interest", "establishment"], "rating": 4.1, "website": "http://kibune.com/", "location": {"lat": 49.2723871, "lng": -123.1548029}, "google_id": "ChIJ--OCy0pyhlQRLJxrsZJRzLM"},{"name": "Sunshine Diner", "address": "2649 W Broadway, Vancouver, BC V6K 2G2, Canada", "phone": "+1 604-733-7717", "tags": ["restaurant", "food", "point_of_interest", "establishment"], "rating": 4.3, "website": "", "location": {"lat": 49.26422700000001, "lng": -123.165399}, "google_id": "ChIJW0Mtya1zhlQRLI5-bJxEaLY"},{"name": "Jolly's Indian Bistro", "address": "2928 W 4th Ave, Vancouver, BC V6K 1R2, Canada", "phone": "+1 604-734-9110", "tags": ["restaurant", "food", "point_of_interest", "establishment"], "rating": 4, "website": "https://jollys.ca/", "location": {"lat": 49.268272, "lng": -123.1707281}, "google_id": "ChIJRZlc3FJyhlQReYHPjm2To9A"},{"name": "Nishi Sushi", "address": "2953 W 4th Ave, Vancouver, BC V6K 1R3, Canada", "phone": "+1 604-734-3881", "tags": ["restaurant", "food", "point_of_interest", "establishment"], "rating": 4.4, "website": "https://www.nishisushivancouver.com/", "location": {"lat": 49.2685582, "lng": -123.1706353}, "google_id": "ChIJZfypwlJyhlQRqmMmyCETz1c"},{"name": "Arbutus Coffee", "address": "2200 Arbutus St, Vancouver, BC V6J 3Y1, Canada", "phone": "+1 604-736-5644", "tags": ["cafe", "restaurant", "food", "point_of_interest", "establishment"], "rating": 4.4, "website": "http://www.arbutuscoffee.ca/", "location": {"lat": 49.2663045, "lng": -123.1527022}, "google_id": "ChIJU2R5urZzhlQRrhUOUOup7Q8"},{"name": "Tapatio Mexican Cafe & Bar", "address": "2698 W 4th Ave, Vancouver, BC V6K 1P7, Canada", "phone": "+1 604-558-0259", "tags": ["restaurant", "food", "point_of_interest", "establishment"], "rating": 3.9, "website": "http://tapatiomexicancafe.com/", "location": {"lat": 49.268204, "lng": -123.166196}, "google_id": "ChIJYV9_qbJzhlQRnFjfInLGodY"},{"name": "Bangkok City Cafe", "address": "2953 W 4th Ave, Vancouver, BC V6K 1R3, Canada", "phone": "+1 604-736-5474", "tags": ["restaurant", "food", "point_of_interest", "establishment"], "rating": 4.4, "website": "http://bangkok-city-cafe.business.site/", "location": {"lat": 49.2685335, "lng": -123.170667}, "google_id": "ChIJPfypwlJyhlQRwg1xtOdWakM"},{"name": "Kokomo", "address": "2028 Vine St, Vancouver, BC V6K 3K1, Canada", "phone": "+1 604-428-5017", "tags": ["restaurant", "food", "point_of_interest", "establishment"], "rating": 4.6, "website": "http://heykokomo.ca/", "location": {"lat": 49.2678921, "lng": -123.1573825}, "google_id": "ChIJ9esC-xJzhlQRTb4Yeq5k-s8"},{"name": "Green Artichoke", "address": "310-2623 W 4th Ave, Vancouver, BC V6K 1P8, Canada", "phone": "+1 778-829-5982", "tags": ["restaurant", "food", "point_of_interest", "store", "establishment"], "rating": 5, "website": "https://greenartichoke.ca/", "location": {"lat": 49.268542, "lng": -123.165101}, "google_id": "ChIJlfVqI0tyhlQRVsAhT2vFIXQ"},{"name": "Super Hiro's Restaurant", "address": "2585 W Broadway, Vancouver, BC V6K 2E9, Canada", "phone": "+1 778-737-3333", "tags": ["restaurant", "food", "point_of_interest", "establishment"], "rating": 4.6, "website": "https://www.superhiros.com/", "location": {"lat": 49.26413650000001, "lng": -123.1644015}, "google_id": "ChIJ3eazkLFzhlQR9dqscIuNWa4"},{"name": "Beehive Restaurant", "address": "2741 W4th Ave Central, Vancouver, BC V6K 1P9, Canada", "phone": "+1 604-910-1888", "tags": ["restaurant", "food", "point_of_interest", "establishment"], "rating": 4.6, "website": "http://beehiverestaurant.ca/?utm_source=gmb&utm_medium=referral", "location": {"lat": 49.26847859999999, "lng": -123.167117}, "google_id": "ChIJexurat5zhlQRtNyvTxX-qdI"},{"name": "Ah Long Sushi", "address": "2697 W Broadway, Vancouver, BC V6K 3W9, Canada", "phone": "+1 604-730-9229", "tags": ["meal_takeaway", "restaurant", "food", "point_of_interest", "establishment"], "rating": 4.5, "website": "http://ahlongsushi.com/", "location": {"lat": 49.2641575, "lng": -123.1660692}, "google_id": "ChIJPcT0Cn1zhlQRsydwzcy4c48"},{"name": "Mr. Red Cafe", "address": "2680 W Broadway, Vancouver, BC V6K 2G3, Canada", "phone": "+1 604-559-6878", "tags": ["restaurant", "food", "point_of_interest", "establishment"], "rating": 4.4, "website": "https://www.mrredcafe.ca/", "location": {"lat": 49.26386169999999, "lng": -123.1658286}, "google_id": "ChIJvTHSMqxzhlQRqwgZRPn3BNc"}]