[{"name": "Fishworks Restaurant", "address": "91 Lonsdale Ave, North Vancouver, BC V7M 2E5, Canada", "phone": "+1 778-340-3449", "tags": ["restaurant", "food", "point_of_interest", "establishment"], "rating": 4.3, "website": "http://www.fishworks.ca/", "location": {"lat": 49.3117351, "lng": -123.0790893}, "google_id": "ChIJKUWr90xwhlQRrfrHgcmcXf0"},{"name": "Gusto Di Quattro", "address": "1 Lonsdale Ave, North Vancouver, BC V7M 2E4, Canada", "phone": "+1 604-924-4444", "tags": ["restaurant", "food", "point_of_interest", "establishment"], "rating": 4.4, "website": "http://quattrorestaurants.com/", "location": {"lat": 49.3105802, "lng": -123.080322}, "google_id": "ChIJgX2530xwhlQR5rZc0pmA0Ik"},{"name": "Sushi Bella North Vancouver", "address": "152 Lonsdale Ave, North Vancouver, BC V7M 2E8, Canada", "phone": "+1 604-987-8633", "tags": ["restaurant", "food", "point_of_interest", "establishment"], "rating": 4.1, "website": "http://www.sushibella.com/", "location": {"lat": 49.3124061, "lng": -123.0775659}, "google_id": "ChIJm1RxQ0xwhlQRhMiUhZvuXGw"},{"name": "Boston Pizza", "address": "88 Chesterfield Ave, North Vancouver, BC V7M 0B3, Canada", "phone": "+1 778-340-1514", "tags": ["bar", "restaurant", "food", "point_of_interest", "establishment"], "rating": 3.8, "website": "https://bostonpizza.com/esplanade", "location": {"lat": 49.3124086, "lng": -123.0818468}, "google_id": "ChIJteb6Y0twhlQRyRlLzG7QrHo"},{"name": "J\u00e4gerhof Restaurant", "address": "71 Lonsdale Ave, North Vancouver, BC V7M 2E5, Canada", "phone": "+1 604-980-4316", "tags": ["restaurant", "food", "point_of_interest", "establishment"], "rating": 4.6, "website": "http://www.jagerhof.ca/", "location": {"lat": 49.3116786, "lng": -123.0791056}, "google_id": "ChIJTWeW-kxwhlQRCinPVwC6OmU"},{"name": "PIER 7 Restaurant + Bar", "address": "25 Wallace Mews Road, North Vancouver, BC V7L 0B2, Canada", "phone": "+1 604-929-7437", "tags": ["restaurant", "night_club", "meal_takeaway", "bar", "food", "point_of_interest", "establishment"], "rating": 3.8, "website": "http://www.pierseven.ca/", "location": {"lat": 49.3095521, "lng": -123.0802635}, "google_id": "ChIJA2jYL01whlQRRbgzs6V6Jh4"},{"name": "Cinco De Mayo Mexican Grill", "address": "200 Esplanade W, North Vancouver, BC V7M 1A4, Canada", "phone": "+1 604-770-1010", "tags": ["restaurant", "food", "point_of_interest", "establishment"], "rating": 4.5, "website": "http://www.cinco5demayo.com/", "location": {"lat": 49.312711, "lng": -123.082878}, "google_id": "ChIJW2Az4UxwhlQRiFksDi86eXU"},{"name": "Domino's Pizza", "address": "151 3rd St W, North Vancouver, BC V7M 1E7, Canada", "phone": "+1 604-984-0300", "tags": ["meal_delivery", "meal_takeaway", "restaurant", "food", "point_of_interest", "establishment"], "rating": 3.8, "website": "https://pizza.dominos.ca/North-Vancouver-British-Columbia-10060/", "location": {"lat": 49.3139556, "lng": -123.0789519}, "google_id": "ChIJdUn5EExwhlQRdpjg1O3kj98"},{"name": "Raglan's Bistro", "address": "15 Lonsdale Ave, North Vancouver, BC V7M 2E4, Canada", "phone": "+1 604-988-8203", "tags": ["restaurant", "bar", "food", "point_of_interest", "establishment"], "rating": 4.2, "website": "https://facebook.com/RaglansBistro", "location": {"lat": 49.3109248, "lng": -123.0798842}, "google_id": "ChIJR2zB4ExwhlQR6eBoBY5VQfE"},{"name": "Subway", "address": "107 E 3rd St, North Vancouver, BC V7R 2N4, Canada", "phone": "+1 604-971-4443", "tags": ["restaurant", "food", "point_of_interest", "establishment"], "rating": 4, "website": "http://www.subway.com/", "location": {"lat": 49.3131546, "lng": -123.076784}, "google_id": "ChIJ2VdqF0xwhlQRUFQFhfs7HKw"},{"name": "Table 153", "address": "228 Lonsdale Ave, North Vancouver, BC V7M 2G1, Canada", "phone": "+1 604-971-2153", "tags": ["restaurant", "food", "point_of_interest", "establishment"], "rating": 4.3, "website": "https://tbl153.com/", "location": {"lat": 49.313011, "lng": -123.07723}, "google_id": "ChIJz6MSFUxwhlQRyMbF8VmI6d8"},{"name": "Fiesta Filipino", "address": "149-153 E 3rd St, North Vancouver, BC V7L 1E5, Canada", "phone": "+1 604-983-9111", "tags": ["restaurant", "food", "point_of_interest", "establishment"], "rating": 4.5, "website": "http://www.vancouverfilipino.ca/business/restaurants/fiesta-filipino-restaurant/", "location": {"lat": 49.31264609999999, "lng": -123.0757391}, "google_id": "ChIJifOtFThwhlQRt3vpUBedb1s"},{"name": "Browns Socialhouse Lower Lonsdale", "address": "103 2nd St W, North Vancouver, BC V7M 2E7, Canada", "phone": "+1 604-770-3295", "tags": ["restaurant", "food", "point_of_interest", "establishment"], "rating": 4.1, "website": "http://www.brownssocialhouse.com/lower-lonsdale/", "location": {"lat": 49.3126597, "lng": -123.0781619}, "google_id": "ChIJ4yUJaExwhlQRB84iUtY6b9w"},{"name": "JL SUSHI&KITCHEN", "address": "140 Lonsdale Ave, North Vancouver, BC V7M 2E8, Canada", "phone": "+1 604-990-9168", "tags": ["restaurant", "food", "point_of_interest", "establishment"], "rating": 4.4, "website": "https://www.jlsushikitchen.com/", "location": {"lat": 49.31230699999999, "lng": -123.0778272}, "google_id": "ChIJnSSZILVxhlQRim_zBeFjr1Q"},{"name": "Maru Korean Bistro", "address": "125 2nd St E, North Vancouver, BC V7L 1C2, Canada", "phone": "+1 604-566-6292", "tags": ["restaurant", "food", "point_of_interest", "establishment"], "rating": 4.4, "website": "https://www.marukoreanbistro.com/", "location": {"lat": 49.3120818, "lng": -123.0770689}, "google_id": "ChIJOUXGSExwhlQRlfRbIZ1587o"},{"name": "Freshii", "address": "180 Esplanade W #2, North Vancouver, BC V7M 1A3, Canada", "phone": "+1 778-729-0838", "tags": ["restaurant", "food", "point_of_interest", "establishment"], "rating": 3.8, "website": "http://www.freshii.com/", "location": {"lat": 49.31246669999999, "lng": -123.0822583}, "google_id": "ChIJI_k-oUxwhlQRLq4qyeLKVCU"},{"name": "Tap & Barrel \u2022 Shipyards", "address": "8 Lonsdale Ave, North Vancouver, BC V7L 0B2, Canada", "phone": "+1 604-638-2339", "tags": ["restaurant", "bar", "food", "point_of_interest", "establishment"], "rating": 4.1, "website": "http://tapandbarrel.com/", "location": {"lat": 49.31020239999999, "lng": -123.0800645}, "google_id": "ChIJ12v0Jk1whlQRjCYR764u2-4"},{"name": "Finch & Barley", "address": "250 1st St E, North Vancouver, BC V7L 1B3, Canada", "phone": "+1 604-770-1000", "tags": ["bar", "restaurant", "food", "point_of_interest", "establishment"], "rating": 4.4, "website": "http://finchandbarley.com/", "location": {"lat": 49.3098988, "lng": -123.0735246}, "google_id": "ChIJX7GGik1whlQRuHarDiSCBRE"},{"name": "Curry Point", "address": "123 Carrie Cates Ct, North Vancouver, BC V7M 2E4, Canada", "phone": "", "tags": ["restaurant", "food", "point_of_interest", "establishment"], "rating": 5, "website": "", "location": {"lat": 49.3107132, "lng": -123.0816765}, "google_id": "ChIJFRMy10xwhlQRILoN5--j670"},{"name": "Bowen Island Pizza Company", "address": "123 Carrie Cates Ct Unit 113, North Vancouver, BC V7M 3K7, Canada", "phone": "+1 604-770-3660", "tags": ["restaurant", "food", "point_of_interest", "store", "establishment"], "rating": 4.7, "website": "https://www.skipthedishes.com/bowen-island-pizza-company", "location": {"lat": 49.310644, "lng": -123.0815602}, "google_id": "ChIJF1JCKLNxhlQRrXNr5p89QSE"},{"name": "Feed Me Fit", "address": "1144 Lonsdale Ave, North Vancouver, BC V7M 2H1, Canada", "phone": "+1 778-968-7080", "tags": ["restaurant", "food", "point_of_interest", "establishment"], "rating": 4.6, "website": "https://feedmefit.ca/", "location": {"lat": 49.3186718, "lng": -123.0724338}, "google_id": "ChIJQV4agEhwhlQRzzdvsPihWHI"},{"name": "The Sandwich Shop", "address": "#102 Lonsdale Quay Market, 123 Carrie Cates Ct, North Vancouver, BC V7M 3K7, Canada", "phone": "+1 604-980-0429", "tags": ["restaurant", "food", "point_of_interest", "establishment"], "rating": 4.5, "website": "http://lonsdalequay.com/portfolio_page/sebs-sandwich-shop/", "location": {"lat": 49.3106505, "lng": -123.0819018}, "google_id": "ChIJr679YepzhlQRShqmhVH4AIY"},{"name": "Amore Catering and Deli", "address": "120 - 260 W Esplanade, Mission Indian Reserve 1, BC V7M 1B4, Canada", "phone": "+1 778-340-1960", "tags": ["restaurant", "food", "point_of_interest", "establishment"], "rating": "", "website": "", "location": {"lat": 49.31359459999999, "lng": -123.0846017}, "google_id": "ChIJX0MaSEtwhlQRwxcgxJg8B7w"},{"name": "Mr. Pan Pizza & Indian Curry House", "address": "112 12th St W, North Vancouver, BC V7M 1N3, Canada", "phone": "+1 604-985-6699", "tags": ["restaurant", "meal_delivery", "meal_takeaway", "food", "point_of_interest", "establishment"], "rating": 4.3, "website": "https://www.mr-panpizza.ca/", "location": {"lat": 49.319072, "lng": -123.0728962}, "google_id": "ChIJmXWK2CVwhlQR2KxqlsPb10Q"},{"name": "The Portly Chef", "address": "1211 Lonsdale Ave, North Vancouver, BC V7M 2H5, Canada", "phone": "+1 604-971-4377", "tags": ["restaurant", "food", "point_of_interest", "establishment"], "rating": 4.7, "website": "http://www.theportlychef.com/", "location": {"lat": 49.3191947, "lng": -123.0726939}, "google_id": "ChIJpR_H1kdwhlQRoPSnor6qNsg"},{"name": "Anatoli Souvlaki", "address": "5 Lonsdale Ave, North Vancouver, BC V7M 2E4, Canada", "phone": "+1 604-985-9853", "tags": ["restaurant", "food", "point_of_interest", "establishment"], "rating": 4.3, "website": "https://thegreekbyanatoli.com/location/north-vancouver/", "location": {"lat": 49.3107162, "lng": -123.0801544}, "google_id": "ChIJ_dDM30xwhlQRlt_JHk7TeIc"},{"name": "The Fried Chicken Works", "address": "144-123 Carrie Cates Ct, North Vancouver, BC V7M 3K7, Canada", "phone": "+1 778-866-0380", "tags": ["restaurant", "food", "point_of_interest", "establishment"], "rating": 4.5, "website": "http://lonsdalequay.com/portfolio_page/fried-chicken-works/", "location": {"lat": 49.3099906, "lng": -123.0821446}, "google_id": "ChIJ4eF-KbNxhlQR_GES7DiQmVs"},{"name": "Burgoo", "address": "3 Lonsdale Ave, North Vancouver, BC V7M 2E4, Canada", "phone": "+1 604-904-0933", "tags": ["restaurant", "food", "point_of_interest", "establishment"], "rating": 4.3, "website": "https://www.burgoo.ca/", "location": {"lat": 49.31065299999999, "lng": -123.080291}, "google_id": "ChIJX8bJ30xwhlQRz398XoYwgj8"},{"name": "Red Chilli Szechuan Restaurant Ltd", "address": "731 Lonsdale Ave, North Vancouver, BC V7M 2G9, Canada", "phone": "+1 604-986-2088", "tags": ["restaurant", "food", "point_of_interest", "establishment"], "rating": 3.5, "website": "https://www.redchilliszechuanrestaurant.ca/", "location": {"lat": 49.3176097, "lng": -123.07304}, "google_id": "ChIJk8ZjkUhwhlQRjj-ujPYK_m8"},{"name": "Thai House Restaurant Ltd", "address": "116 Esplanade W, North Vancouver, BC V7M 1A2, Canada", "phone": "+1 604-987-9911", "tags": ["restaurant", "food", "point_of_interest", "establishment"], "rating": 3.9, "website": "http://www.thaihouse.com/", "location": {"lat": 49.3115304, "lng": -123.0801474}, "google_id": "ChIJMXYN6UxwhlQRqxCL3UPyuDY"},{"name": "Sailor Hagar's Brew Pub", "address": "86 Semisch Ave, North Vancouver, BC V7M 3H8, Canada", "phone": "+1 604-984-3087", "tags": ["meal_takeaway", "bar", "liquor_store", "restaurant", "food", "point_of_interest", "store", "establishment"], "rating": 4, "website": "http://www.sailorhagarspub.com/", "location": {"lat": 49.3134739, "lng": -123.0831624}, "google_id": "ChIJM1MiQEtwhlQRwoB_rXwEQ0s"},{"name": "South Castle Korean Restaurant", "address": "141 2nd St E, North Vancouver, BC V7L 1C2, Canada", "phone": "+1 604-960-0612", "tags": ["restaurant", "food", "point_of_interest", "establishment"], "rating": 4.2, "website": "http://www.southcastlekorean.com/", "location": {"lat": 49.31185, "lng": -123.0764931}, "google_id": "ChIJa7L4SkxwhlQRNT2F6_WC9qo"},{"name": "Vaades The Indian Restaurant", "address": "149 3rd St W, North Vancouver, BC V7M 1E7, Canada", "phone": "+1 604-973-0123", "tags": ["restaurant", "food", "point_of_interest", "establishment"], "rating": 4.3, "website": "http://vaades.com/", "location": {"lat": 49.3139297, "lng": -123.079034}, "google_id": "ChIJWWpv80twhlQRWVtYbS4HB-A"},{"name": "Orange Door Cantonese & Szechuan Restaurant", "address": "119 E 2nd St, North Vancouver, BC V7L 1C2, Canada", "phone": "+1 604-986-1355", "tags": ["meal_delivery", "meal_takeaway", "restaurant", "food", "point_of_interest", "establishment"], "rating": 3.7, "website": "http://www.orangedoorexpress.com/", "location": {"lat": 49.3121663, "lng": -123.0772782}, "google_id": "ChIJa1qTT0xwhlQRh0XRwGnfGn0"},{"name": "Coral Court Szechuan Cuisine", "address": "139 2nd St E, North Vancouver, BC V7L 1C2, Canada", "phone": "+1 604-987-3303", "tags": ["restaurant", "food", "point_of_interest", "establishment"], "rating": 4.1, "website": "http://www.coralcourtszechuan.com/", "location": {"lat": 49.3118783, "lng": -123.0765683}, "google_id": "ChIJwzAIFUxwhlQRAYEnDhxcdE0"},{"name": "Yohachi Sushi Japanese Restaurant", "address": "161-171 Esplanade W, North Vancouver, BC V7M 3J9, Canada", "phone": "+1 604-984-6886", "tags": ["restaurant", "food", "point_of_interest", "establishment"], "rating": 4.3, "website": "http://www.yohachi.ca/", "location": {"lat": 49.311918, "lng": -123.082152}, "google_id": "ChIJpyVjpExwhlQR3Xdo8Tumb64"},{"name": "Buddha-Full", "address": "106 W 1st St #101, North Vancouver, BC V7M 1A9, Canada", "phone": "+1 604-973-0231", "tags": ["cafe", "restaurant", "food", "point_of_interest", "establishment"], "rating": 4.1, "website": "http://www.buddha-full.ca/", "location": {"lat": 49.3121844, "lng": -123.0789737}, "google_id": "ChIJccM1i0xwhlQRX0WDYR8U92k"},{"name": "Cheshire Cheese Restaurant & Bar", "address": "2nd Floor, Lonsdale Quay Market, 123 Carrie Cates Ct, North Vancouver, BC V7M 3K7, Canada", "phone": "+1 604-987-3322", "tags": ["bar", "restaurant", "food", "point_of_interest", "establishment"], "rating": 3.8, "website": "http://cheshirecheeserestaurant.ca/", "location": {"lat": 49.31036199999999, "lng": -123.0818989}, "google_id": "ChIJ9Vwt10xwhlQRxubHCdjseaI"},{"name": "The Lobby Restaurant at Pinnacle at the Pier", "address": "138 Victory Ship Way, North Vancouver, BC V7L 0B1, Canada", "phone": "+1 604-973-8000", "tags": ["restaurant", "food", "point_of_interest", "establishment"], "rating": 4, "website": "http://lobbyrestaurant.ca/", "location": {"lat": 49.31051710000001, "lng": -123.0791835}, "google_id": "ChIJl_-z4UxwhlQRq_d9ZPEhm5A"},{"name": "Freshslice Pizza", "address": "132 Esplanade W #120, North Vancouver, BC V7M 1A2, Canada", "phone": "+1 604-990-4999", "tags": ["meal_delivery", "meal_takeaway", "restaurant", "food", "point_of_interest", "establishment"], "rating": 3.9, "website": "http://www.freshslice.com/", "location": {"lat": 49.3116244, "lng": -123.0803159}, "google_id": "ChIJGfHk6kxwhlQReQ09B58Kq1Y"},{"name": "Bravo Cucina Ristorante", "address": "1209 Lonsdale Ave, North Vancouver, BC V7M 2H5, Canada", "phone": "+1 604-985-3006", "tags": ["restaurant", "food", "point_of_interest", "establishment"], "rating": 4.4, "website": "http://www.bravocucinanorthvancouver.com/", "location": {"lat": 49.3191421, "lng": -123.0727864}, "google_id": "ChIJQ4oz1EdwhlQRcRQ0fxNiXRU"},{"name": "Caf\u00e9 by Tao", "address": "210-150 Esplanade W, North Vancouver, BC V7M 1A3, Canada", "phone": "+1 604-971-5108", "tags": ["cafe", "restaurant", "food", "point_of_interest", "establishment"], "rating": 4.5, "website": "http://www.taoorganics.com/", "location": {"lat": 49.3120011, "lng": -123.0810122}, "google_id": "ChIJb3EpT0twhlQRE9AJRwaHIrY"},{"name": "Minemura Sushi", "address": "129 3rd St W, North Vancouver, BC V7M 1E7, Canada", "phone": "+1 604-990-2997", "tags": ["restaurant", "food", "point_of_interest", "establishment"], "rating": 4.5, "website": "http://minemura.business.site/", "location": {"lat": 49.31376700000001, "lng": -123.0785169}, "google_id": "ChIJg3zmCkxwhlQRqic1AWSq6l0"},{"name": "Doc's Pizza", "address": "113 W 1st St, North Vancouver, BC V7M 1B1, Canada", "phone": "+1 604-980-7111", "tags": ["meal_delivery", "meal_takeaway", "restaurant", "food", "point_of_interest", "establishment"], "rating": 3.7, "website": "http://www.docs-pizza.com/", "location": {"lat": 49.3119689, "lng": -123.0793847}, "google_id": "ChIJd_LH9ExwhlQR91ey7hLYxAM"},{"name": "Cilantro and Jalapeno", "address": "123 Carrie Cates Ct #131, North Vancouver, BC V7M 3K7, Canada", "phone": "+1 604-986-6344", "tags": ["restaurant", "food", "point_of_interest", "establishment"], "rating": 3.2, "website": "http://www.cilantroandjalapeno.com/", "location": {"lat": 49.3107128, "lng": -123.0817305}, "google_id": "ChIJ9Vwt10xwhlQRx2Xygm7nozs"},{"name": "V-Nam Restaurant", "address": "175 E 3rd St #8, North Vancouver, BC V7L 1E5, Canada", "phone": "+1 604-985-5477", "tags": ["restaurant", "food", "point_of_interest", "establishment"], "rating": 4.1, "website": "https://www.v-namrestaurant.com/", "location": {"lat": 49.31207149999999, "lng": -123.0743737}, "google_id": "ChIJN77n001whlQRUPTmiYnZsAU"},{"name": "Montgomery's Fish & Chips", "address": "Lonsdale Quay Market, 143 - 123 Carrie Cates Ct, North Vancouver, BC V7M 3K7, Canada", "phone": "+1 604-929-8416", "tags": ["restaurant", "food", "point_of_interest", "establishment"], "rating": 4.1, "website": "http://www.facebook.com/MontysFishChips/", "location": {"lat": 49.3099164, "lng": -123.0822336}, "google_id": "ChIJ9Vwt10xwhlQRP59QKbtxH4s"},{"name": "Mythos Taverna", "address": "132 3rd St W, North Vancouver, BC V7M 1E8, Canada", "phone": "+1 604-984-7411", "tags": ["restaurant", "food", "point_of_interest", "establishment"], "rating": 4.4, "website": "http://mythostaverna.ca/", "location": {"lat": 49.31417, "lng": -123.0783229}, "google_id": "ChIJ9SJU2HhxhlQRx8uVMErX-TI"},{"name": "Busan Daeji Gukbap North Vancouver (Miga)", "address": "143 3rd St W, North Vancouver, BC V7M 1E7, Canada", "phone": "+1 778-340-0717", "tags": ["restaurant", "food", "point_of_interest", "establishment"], "rating": 4.1, "website": "https://busan-daeji-gukbap-north-van.business.site/", "location": {"lat": 49.313892, "lng": -123.0789522}, "google_id": "ChIJMU3yLFxxhlQRVpXHQzHIIc4"},{"name": "Alloz Grill", "address": "149 E 3rd St, North Vancouver, BC V7L 1E5, Canada", "phone": "+1 604-369-1027", "tags": ["restaurant", "food", "point_of_interest", "establishment"], "rating": 4.6, "website": "https://allozgrill.business.site/", "location": {"lat": 49.3126978, "lng": -123.0757589}, "google_id": "ChIJr3JwNMlxhlQR4QUhWsGbe-E"},{"name": "Pho Bon Mua", "address": "109 East 2nd Avenue, North Vancouver, BC V7L 1C2, Canada", "phone": "+1 604-984-2664", "tags": ["restaurant", "food", "point_of_interest", "establishment"], "rating": 3, "website": "", "location": {"lat": 49.3123609, "lng": -123.0774677}, "google_id": "ChIJiaWDQ0xwhlQR5vI0AaVc17Y"},{"name": "Farina a Legna", "address": "119 2nd St E, North Vancouver, BC V7L 1C2, Canada", "phone": "+1 604-980-3300", "tags": ["restaurant", "food", "point_of_interest", "establishment"], "rating": 4.2, "website": "http://www.pizzeriafarina.com/", "location": {"lat": 49.3122559, "lng": -123.0772047}, "google_id": "ChIJEaBsE9pxhlQRFJ6t5iY3GHw"},{"name": "Meat at O'Neills", "address": "144 Lonsdale Ave, North Vancouver, BC V7M 2E8, Canada", "phone": "+1 604-987-1115", "tags": ["restaurant", "food", "point_of_interest", "establishment"], "rating": 4.8, "website": "https://meat-at-oneills.business.site/?utm_source=gmb&utm_medium=referral", "location": {"lat": 49.3123738, "lng": -123.0778417}, "google_id": "ChIJURZbQ0xwhlQRZZj0Fhd7lUA"},{"name": "Glory Juice Co.", "address": "125 Lonsdale Ave, North Vancouver, BC V7M 2E7, Canada", "phone": "+1 604-770-3453", "tags": ["grocery_or_supermarket", "cafe", "restaurant", "food", "point_of_interest", "store", "establishment"], "rating": 4.4, "website": "https://gloryjuiceco.com/", "location": {"lat": 49.31247800000001, "lng": -123.078434}, "google_id": "ChIJ9buRXUxwhlQRN0FdnfRGaDg"},{"name": "Mr. Sushi Lonsdale", "address": "105 Lonsdale Ave, North Vancouver, BC V7M 2E7, Canada", "phone": "+1 604-770-4202", "tags": ["restaurant", "food", "point_of_interest", "establishment"], "rating": 4.4, "website": "http://mrsushivancouver.com/", "location": {"lat": 49.3121575, "lng": -123.078662}, "google_id": "ChIJZ6_WWExwhlQRbK-xgexkmRI"},{"name": "Colosseum Pizza", "address": "124 W 1st St #100, North Vancouver, BC V7M 3N3, Canada", "phone": "+1 604-980-2212", "tags": ["restaurant", "food", "point_of_interest", "establishment"], "rating": 3.7, "website": "http://colosseumpizza.ca/", "location": {"lat": 49.3123928, "lng": -123.0792981}, "google_id": "ChIJWTJWK0ZwhlQRM5cKiDQxRF0"},{"name": "Kokoro Tokyo Mazesoba", "address": "100 1st St E, North Vancouver, BC V7L 1B1, Canada", "phone": "+1 604-770-3386", "tags": ["restaurant", "food", "point_of_interest", "establishment"], "rating": 4.5, "website": "http://www.menyakokoro.com/", "location": {"lat": 49.3119097, "lng": -123.0782851}, "google_id": "ChIJ8zepnSNxhlQR4JIKEniXTcU"},{"name": "The Captain's Boil", "address": "120 Lonsdale Ave, North Vancouver, BC V7L 1B1, Canada", "phone": "+1 604-971-2645", "tags": ["restaurant", "food", "point_of_interest", "establishment"], "rating": 4, "website": "http://www.thecaptainsboil.com/", "location": {"lat": 49.3119014, "lng": -123.0782926}, "google_id": "ChIJq4wvWExwhlQRGBcQQIQHkfs"},{"name": "Sushi Mania", "address": "180 2nd St E, North Vancouver, BC V7L 1C3, Canada", "phone": "+1 778-340-0777", "tags": ["restaurant", "food", "point_of_interest", "establishment"], "rating": 4.4, "website": "http://www.sushimania777.com/", "location": {"lat": 49.3115692, "lng": -123.0748629}, "google_id": "ChIJY4YSz01whlQRZ73xUyC1j8A"},{"name": "The Green Moustache Organic Caf\u00e9", "address": "117 W 1st St, North Vancouver, BC V7M 1B1, Canada", "phone": "+1 604-971-1855", "tags": ["restaurant", "food", "point_of_interest", "establishment"], "rating": 4.4, "website": "https://www.greenmoustache.com/", "location": {"lat": 49.312057, "lng": -123.079567}, "google_id": "ChIJ6zkX80xwhlQRMS9JhDG4rp0"}]