[{"name": "McDonald's", "address": "100 - 1200 Lynn Valley Rd, North Vancouver, BC V7J 2A2, Canada", "phone": "+1 604-904-6000", "tags": ["cafe", "restaurant", "food", "point_of_interest", "establishment"], "rating": 3.4, "website": "https://www.mcdonalds.com/ca/en-ca/restaurant-locator.html", "location": {"lat": 49.3359707, "lng": -123.0406535}, "google_id": "ChIJq55dSgpwhlQRpg7WNNXbj-k"},{"name": "Browns Socialhouse Lynn Valley", "address": "1255 Lynn Valley Rd, North Vancouver, BC V7J 0A1, Canada", "phone": "+1 604-971-5299", "tags": ["restaurant", "night_club", "bar", "food", "point_of_interest", "establishment"], "rating": 4.1, "website": "http://brownssocialhouse.com/lynnvalley", "location": {"lat": 49.3360897, "lng": -123.0393977}, "google_id": "ChIJZ8RoRwpwhlQRoAkfLVQdgTU"},{"name": "Dairy Queen", "address": "1260 Lynn Valley Rd, North Vancouver, BC V7J 2A3, Canada", "phone": "+1 604-985-6812", "tags": ["restaurant", "food", "point_of_interest", "store", "establishment"], "rating": 3.5, "website": "http://www.lynnvalleydairyqueen.com/", "location": {"lat": 49.3372357, "lng": -123.0394032}, "google_id": "ChIJk62lFQpwhlQRSJmmBWyUbVY"},{"name": "A&W Canada", "address": "1199 Lynn Valley Rd Unit 119, North Vancouver, BC V7J 3H2, Canada", "phone": "+1 604-984-1226", "tags": ["restaurant", "food", "point_of_interest", "establishment"], "rating": 3.8, "website": "http://aw.ca/", "location": {"lat": 49.33521700000001, "lng": -123.039845}, "google_id": "ChIJydzHCgtwhlQRHNaQAb_k5No"},{"name": "Big Bite Donair \u062d\u0644\u0627\u0644", "address": "1252 Lynn Valley Rd, North Vancouver, BC V7J 2A3, Canada", "phone": "+1 604-770-2070", "tags": ["restaurant", "food", "point_of_interest", "establishment"], "rating": 4.6, "website": "https://www.bigbitedonair.com/", "location": {"lat": 49.33705210000001, "lng": -123.0394254}, "google_id": "ChIJn-n8PQpwhlQRVQ5v3rlf0bk"},{"name": "Wonderful Szechuan Restaurant", "address": "1238 Ross Rd, North Vancouver, BC V7K 1C7, Canada", "phone": "+1 604-988-9927", "tags": ["restaurant", "food", "point_of_interest", "establishment"], "rating": 4.3, "website": "", "location": {"lat": 49.3366671, "lng": -123.0398629}, "google_id": "ChIJ1Vv4smTKhVQRWBUGegNAudI"},{"name": "Papa John's Pizza", "address": "119-1233 Lynn Valley Rd, North Vancouver, BC V7J 2A1, Canada", "phone": "+1 604-988-8323", "tags": ["meal_delivery", "meal_takeaway", "restaurant", "food", "point_of_interest", "establishment"], "rating": 3.7, "website": "https://locations.papajohns.com/canada/bc/v7j-2a1/north-vancouver/119-1233-lynn-valley-road", "location": {"lat": 49.3358636, "lng": -123.038936}, "google_id": "ChIJNWcnRwpwhlQRpV2jlFSbmg4"},{"name": "Pizza Hut", "address": "2988 Mountain Hwy, North Vancouver, BC V7J 2N9, Canada", "phone": "+1 604-984-9133", "tags": ["meal_delivery", "meal_takeaway", "restaurant", "food", "point_of_interest", "establishment"], "rating": 3, "website": "https://www.pizzahut.ca/store-details/store-R31111/pizza-hut-N.-Vancouver", "location": {"lat": 49.335977, "lng": -123.037496}, "google_id": "ChIJ6cRh9wpwhlQRmZolO8UybGA"},{"name": "Yama Sushi", "address": "1232 Ross Rd, North Vancouver, BC V7J 2A2, Canada", "phone": "+1 604-988-0082", "tags": ["restaurant", "food", "point_of_interest", "establishment"], "rating": 4.3, "website": "http://yamasushi.ca/", "location": {"lat": 49.33658810000001, "lng": -123.04006}, "google_id": "ChIJIRyhNQpwhlQR3ArrSQguZrU"},{"name": "Mr Sushi Lynn Valley", "address": "1250 Lynn Valley Rd, North Vancouver, BC V7J 2A3, Canada", "phone": "+1 604-988-8657", "tags": ["restaurant", "food", "point_of_interest", "establishment"], "rating": 4.3, "website": "http://www.mrsushivancouver.com/", "location": {"lat": 49.336992, "lng": -123.039458}, "google_id": "ChIJHWkQPwpwhlQRyR0LaHhzD9E"},{"name": "Esso", "address": "2747 Mountain Hwy, North Vancouver, BC V7J 2N7, Canada", "phone": "+1 604-985-4395", "tags": ["gas_station", "car_wash", "convenience_store", "restaurant", "food", "point_of_interest", "store", "establishment"], "rating": 3.7, "website": "", "location": {"lat": 49.3338023, "lng": -123.0382667}, "google_id": "ChIJ8-A6IwtwhlQRrsoXiW2ZWFI"},{"name": "Tommy's Cafe", "address": "1308 Ross Rd, North Vancouver, BC V7J 1V2, Canada", "phone": "+1 604-988-0174", "tags": ["restaurant", "food", "point_of_interest", "establishment"], "rating": 4.4, "website": "http://www.tommyscafenorthshore.com/", "location": {"lat": 49.3363427, "lng": -123.0376297}, "google_id": "ChIJQ0DpZwpwhlQRxvXVBMN11WA"},{"name": "Delany's Coffee House", "address": "Lynn Valley Village, 1277 Lynn Valley Rd #169, North Vancouver, BC V7J 2P2, Canada", "phone": "+1 604-980-3399", "tags": ["cafe", "restaurant", "food", "point_of_interest", "store", "establishment"], "rating": 4.1, "website": "http://www.delanyscoffeehouse.com/", "location": {"lat": 49.33623480000001, "lng": -123.0387316}, "google_id": "ChIJ6Ri1RwpwhlQRD--RHwIzZN0"},{"name": "Freshslice Pizza", "address": "Lynn Valley Centre, 1199 Lynn Valley Rd, North Vancouver, BC V7J 3H2, Canada", "phone": "+1 604-983-0206", "tags": ["meal_delivery", "meal_takeaway", "restaurant", "food", "point_of_interest", "establishment"], "rating": 4.1, "website": "http://www.freshslice.com/", "location": {"lat": 49.33531499999999, "lng": -123.0397371}, "google_id": "ChIJM2hgSgpwhlQR32_dYibIWyI"},{"name": "Subway", "address": "1256 Lynn Valley Rd, North Vancouver, BC V7J 2A3, Canada", "phone": "+1 604-986-7825", "tags": ["restaurant", "food", "point_of_interest", "establishment"], "rating": 3.7, "website": "http://www.subway.com/", "location": {"lat": 49.3371266, "lng": -123.0394809}, "google_id": "ChIJaSaDFQpwhlQRSv8c-apldRU"},{"name": "Valley Sushi", "address": "1233 Lynn Valley Rd #125, North Vancouver, BC V7J 0A1, Canada", "phone": "+1 604-988-7868", "tags": ["parking", "meal_takeaway", "restaurant", "food", "point_of_interest", "establishment"], "rating": 4.1, "website": "", "location": {"lat": 49.3358685, "lng": -123.0389105}, "google_id": "ChIJOXyQTwpwhlQRsSV4SfCSSz4"},{"name": "Sushi5", "address": "1199 Lynn Valley Rd, North Vancouver, BC V7J 3H1, Canada", "phone": "+1 604-971-1811", "tags": ["restaurant", "food", "point_of_interest", "establishment"], "rating": 4, "website": "", "location": {"lat": 49.3347714, "lng": -123.0397344}, "google_id": "ChIJydzHCgtwhlQRJrlG2j3Jh_M"},{"name": "Little Japan", "address": "1199 Lynn Valley Rd, North Vancouver, BC V7J 1S1, Canada", "phone": "", "tags": ["restaurant", "food", "point_of_interest", "establishment"], "rating": 3, "website": "", "location": {"lat": 49.3343976, "lng": -123.0400297}, "google_id": "ChIJvwIjCwtwhlQRsbvrXX3IQLw"}]