[{"name": "Canlan Ice Sports", "address": "2411 Mt Seymour Pkwy, North Vancouver, BC V7H 2Y9, Canada", "phone": "+1 604-924-0828", "tags": ["bar", "restaurant", "food", "school", "point_of_interest", "establishment"], "rating": 4.4, "website": "http://www.icesports.com/northshore", "location": {"lat": 49.31361039999999, "lng": -123.0032647}, "google_id": "ChIJ93CClHh6hlQRvcpVI6Pq-xk"},{"name": "Seymour's Pub & Grill", "address": "720 Lillooet Rd, North Vancouver, BC V7J 2H5, Canada", "phone": "+1 604-904-8778", "tags": ["bar", "restaurant", "food", "point_of_interest", "establishment"], "rating": 3.9, "website": "http://www.seymourspub.com/", "location": {"lat": 49.31274089999999, "lng": -123.0269333}, "google_id": "ChIJ3YyRVn1whlQRNHXvqRMDsac"},{"name": "Critics Choice Caterers", "address": "1166 Emerson Way, North Vancouver, BC V7H 2B3, Canada", "phone": "+1 604-980-8516", "tags": ["restaurant", "food", "point_of_interest", "establishment"], "rating": "", "website": "http://www.criticschoicecaterers.com/", "location": {"lat": 49.31767970000001, "lng": -122.9978034}, "google_id": "ChIJ95ZBcnx6hlQRMr1NEljhVqs"},{"name": "Subway", "address": "2455 Dollarton Hwy Unit 120, North Vancouver, BC V7H 1A6, Canada", "phone": "+1 604-929-7232", "tags": ["meal_takeaway", "restaurant", "food", "point_of_interest", "establishment"], "rating": 3.6, "website": "http://www.subway.com/", "location": {"lat": 49.3065966, "lng": -123.008743}, "google_id": "ChIJ-ylRlY9whlQReUAviEmkf1Y"},{"name": "Deep Cove Brewers and Distillers", "address": "2270 Dollarton Hwy #170, North Vancouver, BC V7H 2M9, Canada", "phone": "+1 604-770-1136", "tags": ["bar", "restaurant", "food", "point_of_interest", "establishment"], "rating": 4.4, "website": "http://www.deepcovecraft.com/", "location": {"lat": 49.3064224, "lng": -123.0116086}, "google_id": "ChIJw8AK25pwhlQRFGxm6uE--bI"},{"name": "Coach House Lounge", "address": "700 Old Lillooet Rd, North Vancouver, BC V7J 2H5, Canada", "phone": "+1 604-985-3111", "tags": ["night_club", "bar", "restaurant", "food", "point_of_interest", "establishment"], "rating": 4.4, "website": "http://www.coachhouselounge.ca/", "location": {"lat": 49.31296529999999, "lng": -123.0265908}, "google_id": "ChIJ71MfGohwhlQRXOE5VqT9gjg"},{"name": "Smoke and Bones BBQ (Catering)", "address": "1850 Spicer Rd, North Vancouver, BC V7H 1A1, Canada", "phone": "+1 604-990-4002", "tags": ["restaurant", "food", "point_of_interest", "establishment"], "rating": 4.3, "website": "http://www.smokeandbones.ca/", "location": {"lat": 49.30334819999999, "lng": -123.0215611}, "google_id": "ChIJm1iznN5whlQRrOW-QQq_h1c"},{"name": "Stong's Market", "address": "2150 Dollarton Hwy, North Vancouver, BC V7H 0B5, Canada", "phone": "+1 604-973-0700", "tags": ["grocery_or_supermarket", "florist", "bakery", "meal_takeaway", "cafe", "restaurant", "food", "point_of_interest", "store", "establishment"], "rating": 4.3, "website": "https://stongs.com/", "location": {"lat": 49.30606299999999, "lng": -123.015601}, "google_id": "ChIJAxLeWBFzhlQRX9KF-5ObdM8"},{"name": "The Crab Shop", "address": "2455 Dollarton Hwy, North Vancouver, BC V7H 0A2, Canada", "phone": "+1 604-929-1616", "tags": ["restaurant", "food", "point_of_interest", "establishment"], "rating": 4.4, "website": "http://www.thecrabshop.ca/", "location": {"lat": 49.3066183, "lng": -123.0085714}, "google_id": "ChIJV44Gp5xwhlQReLLX3dYmji8"},{"name": "Panago Pizza", "address": "2120 Dollarton Hwy #103, North Vancouver, BC V7H 0B5, Canada", "phone": "+1 866-310-0001", "tags": ["meal_delivery", "meal_takeaway", "restaurant", "food", "point_of_interest", "establishment"], "rating": 4, "website": "http://www.panago.com/", "location": {"lat": 49.305699, "lng": -123.0176872}, "google_id": "ChIJKSVliI9whlQR_TovPlJpXiM"},{"name": "Westview Pizza&Pasta", "address": "778 Premier St, North Vancouver, BC V7J 2G8, Canada", "phone": "+1 604-980-0888", "tags": ["restaurant", "food", "point_of_interest", "establishment"], "rating": 4.1, "website": "http://westviewpizza.ca/", "location": {"lat": 49.3139595, "lng": -123.0274621}, "google_id": "ChIJEy7vn2JwhlQRfIACH-8AcrM"},{"name": "Wild Wing", "address": "2411 Mt Seymour Pkwy, North Vancouver, BC V7H 2Y9, Canada", "phone": "+1 604-924-0828", "tags": ["restaurant", "food", "point_of_interest", "establishment"], "rating": 2.6, "website": "http://www.wildwingrestaurants.com/location/canlan-ice-sports-north-shore/", "location": {"lat": 49.31357499999999, "lng": -123.00326}, "google_id": "ChIJs3hDnOd7hlQRW0g1XsawcBc"},{"name": "Capilano University Residence Dining Hall", "address": "2420 Dollarton Hwy, North Vancouver, BC V7H 2Y1, Canada", "phone": "", "tags": ["restaurant", "food", "point_of_interest", "establishment"], "rating": 2.9, "website": "https://www.capilanou.ca/student-life/campus-community/capu-residence/residence-fees/", "location": {"lat": 49.3088029, "lng": -123.0053406}, "google_id": "ChIJz0rpLINwhlQRwCYB63CoC34"},{"name": "Bluhouse Eatery", "address": "173 Forester St, North Vancouver, BC V7H 0A6, Canada", "phone": "+1 778-340-0944", "tags": ["restaurant", "food", "point_of_interest", "establishment"], "rating": 4.5, "website": "http://bluhousecafe.com/", "location": {"lat": 49.3051989, "lng": -123.0101837}, "google_id": "ChIJVVVl-5pwhlQRvT_IjPLPG2E"},{"name": "Bento Sushi", "address": "Birch Building, 2055 Purcell Way RM 174, RM 174, Vancouver, BC V7J 3H5, Canada", "phone": "", "tags": ["meal_takeaway", "restaurant", "food", "point_of_interest", "establishment"], "rating": 3, "website": "https://www.bentosushi.com/", "location": {"lat": 49.3180384, "lng": -123.0194292}, "google_id": "ChIJ3as6qFpxhlQRiQavDVmWL68"},{"name": "Bento Sushi", "address": "2150 Dollarton Hwy, Vancouver, BC V7H 0B5, Canada", "phone": "", "tags": ["meal_takeaway", "restaurant", "food", "point_of_interest", "establishment"], "rating": "", "website": "https://www.bentosushi.com/", "location": {"lat": 49.30606889999999, "lng": -123.015687}, "google_id": "ChIJm2p8vbdxhlQRgebfzsgUee4"},{"name": "Barcelos Flame Grilled Chicken", "address": "119-2120 Dollarton Hwy, North Vancouver, BC V7H, Canada", "phone": "+1 604-770-2990", "tags": ["restaurant", "food", "point_of_interest", "establishment"], "rating": 4.5, "website": "http://www.barceloscanada.ca/", "location": {"lat": 49.30594199999999, "lng": -123.016354}, "google_id": "ChIJ247aH5BwhlQR19D_7tUS6C8"},{"name": "Buddha-Full \u2022 Northwoods", "address": "102-2120 Dollarton Hwy, North Vancouver, BC V7H, Canada", "phone": "+1 604-770-1032", "tags": ["restaurant", "food", "point_of_interest", "establishment"], "rating": 4.2, "website": "https://www.buddha-full.ca/", "location": {"lat": 49.30564159999999, "lng": -123.0178088}, "google_id": "ChIJ247aH5BwhlQR3skVSslakjg"},{"name": "Bento Sushi", "address": "333 Seymour Blvd, North Vancouver, BC V7J 2J4, Canada", "phone": "", "tags": ["meal_takeaway", "restaurant", "food", "point_of_interest", "establishment"], "rating": 3, "website": "https://www.bentosushi.com/", "location": {"lat": 49.31155039999999, "lng": -123.0248923}, "google_id": "ChIJxz5udIBxhlQRLsUPRbayQoM"},{"name": "Riverside Cafe", "address": "151 Riverside Dr W, North Vancouver, BC V7H 1T6, Canada", "phone": "+1 604-924-1111", "tags": ["restaurant", "food", "point_of_interest", "establishment"], "rating": 3.7, "website": "", "location": {"lat": 49.304627, "lng": -123.0203245}, "google_id": "ChIJGXiuYv1xhlQRfl0-Dl4YFLQ"},{"name": "Medley's Grill", "address": "700 Old Lillooet Rd #110, North Vancouver, BC V7J 2H5, Canada", "phone": "+1 604-985-4477", "tags": ["restaurant", "bar", "food", "point_of_interest", "establishment"], "rating": "", "website": "https://medleys-grill.business.site/?utm_source=gmb&utm_medium=referral", "location": {"lat": 49.3130408, "lng": -123.0268401}, "google_id": "ChIJqzJ81kZxhlQREc6ttSm_NoU"}]