[{"name": "Vij's", "address": "3106 Cambie St, Vancouver, BC V5Z 2W2, Canada", "phone": "+1 604-736-6664", "tags": ["restaurant", "food", "point_of_interest", "establishment"], "rating": 4.4, "website": "http://www.vijsrestaurant.ca/", "location": {"lat": 49.2575375, "lng": -123.1147883}, "google_id": "ChIJAYrXprhzhlQRNvJZ81CUED8"},{"name": "City Square Shopping Centre", "address": "555 W 12th Ave, Vancouver, BC V5Z 3X7, Canada", "phone": "+1 604-876-5165", "tags": ["shopping_mall", "restaurant", "food", "health", "point_of_interest", "establishment"], "rating": 3.4, "website": "https://citysquarevan.com/contact/contact/", "location": {"lat": 49.2609243, "lng": -123.1162042}, "google_id": "ChIJBwLQ4edzhlQRN3E3qS-g9tg"},{"name": "Chutney Villa South Indian Cuisine", "address": "147 E Broadway, Vancouver, BC V5T 1W1, Canada", "phone": "+1 604-872-2228", "tags": ["restaurant", "food", "point_of_interest", "establishment"], "rating": 4.1, "website": "http://www.chutneyvilla.com/", "location": {"lat": 49.2630825, "lng": -123.1018644}, "google_id": "ChIJM9ENyOFzhlQR7WWkiURjAnk"},{"name": "Hokkaido Ramen Santouka", "address": "558 W Broadway, Vancouver, BC V5Z 1E9, Canada", "phone": "+1 604-565-1770", "tags": ["restaurant", "food", "point_of_interest", "establishment"], "rating": 4.3, "website": "http://www.santouka.co.jp/en", "location": {"lat": 49.2631136, "lng": -123.1168489}, "google_id": "ChIJDdTCbd1zhlQRpmr6rmQ3DN0"},{"name": "Milestones", "address": "2425 Cambie St, Vancouver, BC V5Z 4M5, Canada", "phone": "+1 604-678-8488", "tags": ["restaurant", "food", "point_of_interest", "establishment"], "rating": 3.9, "website": "http://www.milestonesrestaurants.com/", "location": {"lat": 49.263908, "lng": -123.115106}, "google_id": "ChIJrUB_od1zhlQR1kbqZRmeN1Y"},{"name": "Dynasty Seafood Restaurant", "address": "108-777 W Broadway, Vancouver, BC V5Z 4J7, Canada", "phone": "+1 604-876-8388", "tags": ["restaurant", "food", "point_of_interest", "establishment"], "rating": 4.1, "website": "http://www.dynasty-restaurant.ca/", "location": {"lat": 49.26376809999999, "lng": -123.1216281}, "google_id": "ChIJUxfUJcNzhlQR6ohfXAT0j7o"},{"name": "Argo Cafe", "address": "1836 Ontario St, Vancouver, BC V5T 2W6, Canada", "phone": "+1 604-876-3620", "tags": ["restaurant", "food", "point_of_interest", "establishment"], "rating": 4.5, "website": "http://www.argocafe.ca/", "location": {"lat": 49.268574, "lng": -123.104545}, "google_id": "ChIJ1asqy2FxhlQRqN-q4B52Ji8"},{"name": "The Cascade Room", "address": "2616 Main St, Vancouver, BC V5T 3E6, Canada", "phone": "+1 604-709-8650", "tags": ["bar", "restaurant", "food", "point_of_interest", "establishment"], "rating": 4.2, "website": "http://www.thecascade.ca/", "location": {"lat": 49.2617188, "lng": -123.1006568}, "google_id": "ChIJSTSvjuFzhlQRXNTxktdwp9U"},{"name": "Burgoo", "address": "3096 Main St, Vancouver, BC V5T 3G5, Canada", "phone": "+1 604-873-1441", "tags": ["restaurant", "food", "point_of_interest", "establishment"], "rating": 4.4, "website": "https://www.burgoo.ca/", "location": {"lat": 49.25765259999999, "lng": -123.100906}, "google_id": "ChIJPddQZeNzhlQRVbraHJJvZog"},{"name": "McDonald's", "address": "1527 Main St, Vancouver, BC V6A 2W5, Canada", "phone": "+1 604-718-1075", "tags": ["cafe", "restaurant", "food", "point_of_interest", "establishment"], "rating": 3.4, "website": "https://www.mcdonalds.com/ca/en-ca/restaurant-locator.html", "location": {"lat": 49.2719008, "lng": -123.1006967}, "google_id": "ChIJO1V_sWZxhlQR69RUQ1rHcb0"},{"name": "Pizza Hut", "address": "3425 Main St, Vancouver, BC V5V 3M9, Canada", "phone": "+1 604-872-8666", "tags": ["meal_delivery", "meal_takeaway", "restaurant", "food", "point_of_interest", "establishment"], "rating": 2.9, "website": "https://www.pizzahut.ca/store-details/store-R31109/pizza-hut-Vancouver", "location": {"lat": 49.2544611, "lng": -123.1012989}, "google_id": "ChIJd0iXOPtzhlQRGMqAcdbCpi4"},{"name": "Banana Leaf On Broadway", "address": "820 W Broadway, Vancouver, BC V5Z 1J8, Canada", "phone": "+1 604-731-6333", "tags": ["restaurant", "food", "point_of_interest", "establishment"], "rating": 4.2, "website": "http://www.bananaleaf-vancouver.com/", "location": {"lat": 49.2631098, "lng": -123.1224983}, "google_id": "ChIJdxjrGMNzhlQREy0YgBUfdvs"},{"name": "Congee Noodle House", "address": "141 E Broadway, Vancouver, BC V5T 1W1, Canada", "phone": "+1 604-879-8221", "tags": ["restaurant", "food", "point_of_interest", "establishment"], "rating": 3.8, "website": "http://www.congeenoodlehouse.com/", "location": {"lat": 49.263084, "lng": -123.1020899}, "google_id": "ChIJe1vjt-FzhlQRmKPniSKJP8s"},{"name": "The Whip Restaurant & Gallery", "address": "209 6th Avenue East, Vancouver, BC V5T 1J7, Canada", "phone": "+1 604-874-4687", "tags": ["night_club", "bar", "restaurant", "food", "point_of_interest", "establishment"], "rating": 4.1, "website": "http://www.thewhiprestaurant.com/", "location": {"lat": 49.26560180000001, "lng": -123.1002455}, "google_id": "ChIJ7xHFv19xhlQRIx7QMDMhORg"},{"name": "The Firewood Caf\u00e9", "address": "3004 Cambie St, Vancouver, BC V5Z 2V9, Canada", "phone": "+1 604-873-0001", "tags": ["meal_delivery", "meal_takeaway", "restaurant", "food", "point_of_interest", "establishment"], "rating": 4.4, "website": "http://www.thefirewoodcafe.ca/", "location": {"lat": 49.25852700000001, "lng": -123.114874}, "google_id": "ChIJLUywkOhzhlQRyX4Gk9Uu-1k"},{"name": "Benkei", "address": "545 W Broadway, Vancouver, BC V5Z 0B4, Canada", "phone": "+1 604-568-6178", "tags": ["restaurant", "food", "point_of_interest", "establishment"], "rating": 4.2, "website": "http://benkei.eyesunclouded.com/", "location": {"lat": 49.2634337, "lng": -123.1165477}, "google_id": "ChIJs2N9FllxhlQRDRDkL6SCFAk"},{"name": "Tap & Barrel \u2022 Olympic Village", "address": "75 Athletes Way, Vancouver, BC V5Y 0B1, Canada", "phone": "+1 604-685-2223", "tags": ["bar", "restaurant", "food", "point_of_interest", "establishment"], "rating": 4, "website": "http://tapandbarrel.com/", "location": {"lat": 49.2717104, "lng": -123.1060773}, "google_id": "ChIJ92h_MmJxhlQRmP1gb313vwM"},{"name": "Rogue Kitchen & Wetbar", "address": "602 W Broadway, Vancouver, BC V5Z 1G2, Canada", "phone": "+1 604-568-9400", "tags": ["restaurant", "bar", "food", "point_of_interest", "establishment"], "rating": 3.9, "website": "http://www.roguewetbar.com/broadway", "location": {"lat": 49.2630159, "lng": -123.1177946}, "google_id": "ChIJK9NJOd1zhlQRY-XZFQ3BFBQ"},{"name": "Slickity Jim's Chat 'n' Chew", "address": "3475 Main St, Vancouver, BC V5V 3M9, Canada", "phone": "+1 604-873-6760", "tags": ["restaurant", "food", "point_of_interest", "establishment"], "rating": 4.2, "website": "http://www.slickityjims.com/", "location": {"lat": 49.2539948, "lng": -123.1010545}, "google_id": "ChIJ42BEFvtzhlQRgdGFC5-ML70"},{"name": "Nirvana Restaurant", "address": "2313 Main St, Vancouver, BC V5T 3C9, Canada", "phone": "+1 604-872-8779", "tags": ["restaurant", "food", "point_of_interest", "establishment"], "rating": 3.9, "website": "https://nirvanavancouver.com/", "location": {"lat": 49.2643576, "lng": -123.1012003}, "google_id": "ChIJIZyygF9xhlQRc69Bn25XAkk"},{"name": "Pad Thai Cuisine", "address": "132 E Broadway, Vancouver, BC V5T 1V9, Canada", "phone": "+1 604-879-9929", "tags": ["restaurant", "food", "point_of_interest", "establishment"], "rating": 4, "website": "https://lazymeal.com/menu/padthai", "location": {"lat": 49.2628208, "lng": -123.1021885}, "google_id": "ChIJW5e-ueFzhlQRHlRqGJYwTmY"},{"name": "Kwong Chow Congee & Noodle House", "address": "3163 Main St, Vancouver, BC V5T 3G7, Canada", "phone": "+1 604-876-8520", "tags": ["restaurant", "food", "point_of_interest", "establishment"], "rating": 3.9, "website": "http://www.kwongchowrestaurant.com/", "location": {"lat": 49.25701, "lng": -123.101472}, "google_id": "ChIJnwlqYONzhlQR337tII9EMaU"},{"name": "Shaolin Noodle House", "address": "656 W Broadway, Vancouver, BC V5Z 1G1, Canada", "phone": "+1 604-873-1618", "tags": ["restaurant", "food", "point_of_interest", "establishment"], "rating": 3.7, "website": "https://shaolinhouse.ca/", "location": {"lat": 49.2631568, "lng": -123.1188407}, "google_id": "ChIJ091ua91zhlQRGBjqO7I5Fx0"},{"name": "Eight 1/2 Restaurant Lounge", "address": "153 E 8th Ave, Vancouver, BC V5T 1R8, Canada", "phone": "+1 604-568-2703", "tags": ["restaurant", "food", "point_of_interest", "establishment"], "rating": 3.9, "website": "http://eightandahalf.ca/", "location": {"lat": 49.2639034, "lng": -123.1015974}, "google_id": "ChIJQe5VzeFzhlQRQfwMntiXKz8"},{"name": "Solly's Bagelry", "address": "368 W 7th Ave, Vancouver, BC V5Y 1M4, Canada", "phone": "+1 604-675-9750", "tags": ["bakery", "restaurant", "food", "point_of_interest", "store", "establishment"], "rating": 3.2, "website": "http://www.sollysbagelry.com/", "location": {"lat": 49.2646392, "lng": -123.1126133}, "google_id": "ChIJpzZi3N1zhlQRfupu6Lh2HEs"},{"name": "Peaceful Restaurant", "address": "43 E 5th Ave, Vancouver, BC V5T 1G7, Canada", "phone": "+1 604-559-9522", "tags": ["restaurant", "food", "point_of_interest", "establishment"], "rating": 3.9, "website": "http://www.peacefulrestaurant.com/", "location": {"lat": 49.26664419999999, "lng": -123.1037604}, "google_id": "ChIJs1pPAmBxhlQRL9eFDIjrWpw"},{"name": "Tropika", "address": "2975 Cambie St, Vancouver, BC V5Z 2V7, Canada", "phone": "+1 604-879-6002", "tags": ["restaurant", "food", "point_of_interest", "establishment"], "rating": 3.8, "website": "http://www.tropikavancouver.com/", "location": {"lat": 49.2588727, "lng": -123.1152546}, "google_id": "ChIJ1V6khehzhlQRHWn6ftXdgps"},{"name": "Wendy's", "address": "480 W 8th Ave, Vancouver, BC V5Y 1N9, Canada", "phone": "+1 604-875-8933", "tags": ["restaurant", "food", "point_of_interest", "establishment"], "rating": 3.7, "website": "https://locations.wendys.com/canada/bc/vancouver/480-w.-8th-ave.?utm_source=Yext&utm_medium=Google_My_Business&utm_campaign=Local_Search", "location": {"lat": 49.2637317, "lng": -123.1145058}, "google_id": "ChIJJ6fpl91zhlQREZQ6jlHveO0"},{"name": "Fatburger West Broadway", "address": "255 W Broadway, Vancouver, BC V5Y 1P5, Canada", "phone": "+1 604-568-7077", "tags": ["restaurant", "food", "point_of_interest", "establishment"], "rating": 4.1, "website": "https://www.fatburgercanada.com/locations/fatburger-broadway/", "location": {"lat": 49.26330129999999, "lng": -123.1106659}, "google_id": "ChIJx9c0UOdzhlQRRS8CiWNDkJw"},{"name": "De Dutch Pannekoek House", "address": "410 W 2nd Ave, Vancouver, BC V5Y 1E2, Canada", "phone": "+1 604-569-0477", "tags": ["restaurant", "food", "point_of_interest", "establishment"], "rating": 4, "website": "http://dedutch.com/", "location": {"lat": 49.26716219999999, "lng": -123.1131299}, "google_id": "ChIJrZsCxN5zhlQR08WjiDMItJs"},{"name": "Lucy's Eastside Diner", "address": "2708 Main St, Vancouver, BC V5T 3C7, Canada", "phone": "+1 604-568-1550", "tags": ["restaurant", "food", "point_of_interest", "establishment"], "rating": 4.2, "website": "http://www.lucyseastsidediner.com/", "location": {"lat": 49.260887, "lng": -123.1008539}, "google_id": "ChIJfd42KeJzhlQRvlPM4ASmwhI"},{"name": "The Narrow Lounge", "address": "1898 Main St, Vancouver, BC V5T 3B9, Canada", "phone": "+1 778-737-5206", "tags": ["night_club", "bar", "restaurant", "food", "point_of_interest", "establishment"], "rating": 4.4, "website": "http://www.narrowlounge.com/", "location": {"lat": 49.2683539, "lng": -123.1004114}, "google_id": "ChIJNVqaO3FxhlQRFZhv3GFvcbc"},{"name": "Matchstick Fraser Street", "address": "639 E 15th Ave, Vancouver, BC V5T 2R6, Canada", "phone": "+1 604-558-0639", "tags": ["bakery", "cafe", "restaurant", "food", "point_of_interest", "store", "establishment"], "rating": 4.3, "website": "http://matchstickyvr.com/", "location": {"lat": 49.2572938, "lng": -123.0902815}, "google_id": "ChIJ0wJ0xFdxhlQRiaPFJzM07W4"},{"name": "Hyde Restaurant & Lounge", "address": "2960 Main St, Vancouver, BC V5T 3G3, Canada", "phone": "+1 604-709-6215", "tags": ["meal_takeaway", "bar", "restaurant", "food", "point_of_interest", "establishment"], "rating": 4.2, "website": "", "location": {"lat": 49.2586777, "lng": -123.1008863}, "google_id": "ChIJjW6CoeNzhlQRF2JiscDacyA"},{"name": "Dairy Queen Grill & Chill", "address": "2888 Main St, Vancouver, BC V5T 3G2, Canada", "phone": "+1 604-876-1818", "tags": ["restaurant", "food", "point_of_interest", "store", "establishment"], "rating": 4.1, "website": "https://www.dairyqueen.com/ca-en/Locator/Detail/?localechange=1&store-id=7705", "location": {"lat": 49.25943789999999, "lng": -123.1007928}, "google_id": "ChIJHaCxsONzhlQRg9H522hQF3U"},{"name": "the Kino", "address": "3456 Cambie St, Vancouver, BC V5Z 2W8, Canada", "phone": "+1 604-875-1998", "tags": ["restaurant", "bar", "food", "point_of_interest", "establishment"], "rating": 4.3, "website": "http://thekino.ca/", "location": {"lat": 49.2543715, "lng": -123.1149986}, "google_id": "ChIJL6R98e5zhlQRFlmC3_N5UI4"},{"name": "Cactus Club Cafe", "address": "575 W Broadway, Vancouver, BC V5Z 1E6, Canada", "phone": "+1 604-714-6000", "tags": ["restaurant", "bar", "food", "point_of_interest", "establishment"], "rating": 4.2, "website": "https://www.cactusclubcafe.com/?utm_source=google-maps&utm_medium=organic&utm_campaign=broadway-ash", "location": {"lat": 49.2634877, "lng": -123.1171827}, "google_id": "ChIJhz9CFt1zhlQRpJSOgRKv9CA"},{"name": "Panago Pizza", "address": "2928 Main St, Vancouver, BC V5T 3G3, Canada", "phone": "+1 866-310-0001", "tags": ["meal_delivery", "meal_takeaway", "restaurant", "food", "point_of_interest", "establishment"], "rating": 3.4, "website": "http://www.panago.com/", "location": {"lat": 49.2588223, "lng": -123.1008696}, "google_id": "ChIJi08-o-NzhlQRgugMCj2plwY"},{"name": "Cafe D'Afrique", "address": "363 E Broadway, Vancouver, BC V5T 1W5, Canada", "phone": "+1 604-876-9919", "tags": ["restaurant", "food", "point_of_interest", "establishment"], "rating": 4.3, "website": "http://www.cafedafrique.com/", "location": {"lat": 49.2630205, "lng": -123.0974708}, "google_id": "ChIJgUM2T19xhlQRONr4i8AMgMY"},{"name": "Vera's Burger Shack", "address": "2922 Main St, Vancouver, BC V5T 3G3, Canada", "phone": "+1 604-709-8372", "tags": ["restaurant", "food", "point_of_interest", "establishment"], "rating": 4.4, "website": "http://www.verasburgershack.com/", "location": {"lat": 49.2589349, "lng": -123.100842}, "google_id": "ChIJyc1Io-NzhlQRjieN-_h6zTI"},{"name": "Freshii", "address": "561 W Broadway, Vancouver, BC V5Z 1E6, Canada", "phone": "+1 604-336-3155", "tags": ["restaurant", "food", "point_of_interest", "establishment"], "rating": 3.9, "website": "https://www.freshii.com/us/en-us/broadwayave", "location": {"lat": 49.26340999999999, "lng": -123.1170346}, "google_id": "ChIJeQHmFN1zhlQRf2uIqTT8U4E"},{"name": "Church's Chicken", "address": "3425 Main St, Vancouver, BC V5V 3M9, Canada", "phone": "+1 604-709-8541", "tags": ["restaurant", "food", "point_of_interest", "establishment"], "rating": 4, "website": "https://www.churchschicken.ca/british-columbia/locations/", "location": {"lat": 49.254157, "lng": -123.1012899}, "google_id": "ChIJpxv2PvtzhlQRg71kXWStB78"},{"name": "Sushi Main", "address": "3710 Main St, Vancouver, BC V5V 3N7, Canada", "phone": "+1 604-708-1667", "tags": ["meal_takeaway", "restaurant", "food", "point_of_interest", "establishment"], "rating": 4.1, "website": "http://sushimain.com/", "location": {"lat": 49.2518785, "lng": -123.1007734}, "google_id": "ChIJ6YB_RfpzhlQRWykhASCA1BI"},{"name": "Caffe Barney", "address": "2526 Main St, Vancouver, BC V5T 3E4, Canada", "phone": "+1 604-568-0426", "tags": ["restaurant", "food", "point_of_interest", "establishment"], "rating": 4.2, "website": "https://www.barneysonmain.com/", "location": {"lat": 49.262392, "lng": -123.1007887}, "google_id": "ChIJs2TNw-FzhlQR3qzNYvCwR3w"},{"name": "Toshi Sushi", "address": "181 E 16th Ave, Vancouver, BC V5T 4R2, Canada", "phone": "+1 604-874-5173", "tags": ["restaurant", "food", "point_of_interest", "establishment"], "rating": 4.6, "website": "https://m.facebook.com/Toshi-Sushi-133112986718262/", "location": {"lat": 49.2567004, "lng": -123.1019354}, "google_id": "ChIJffOLmORzhlQRaWgo3PaVM40"},{"name": "Chef Claire's", "address": "3610 Main St, Vancouver, BC V5V 3N5, Canada", "phone": "+1 604-875-6400", "tags": ["restaurant", "food", "point_of_interest", "establishment"], "rating": 4.7, "website": "http://www.chefclaires.com/", "location": {"lat": 49.2527829, "lng": -123.1007079}, "google_id": "ChIJxfuyAftzhlQRtaO3a3tSQrM"},{"name": "Papa's Gourmet Pizza Ltd", "address": "3030 Main St, Vancouver, BC V5T 3G5, Canada", "phone": "+1 604-876-5577", "tags": ["restaurant", "food", "point_of_interest", "establishment"], "rating": 4.7, "website": "http://papasgourmet.com/", "location": {"lat": 49.2582013, "lng": -123.1009549}, "google_id": "ChIJdRutdeNzhlQRSZfR8BK5JAc"},{"name": "Thai Away Home", "address": "3315 Cambie St, Vancouver, BC V5Z 2W6, Canada", "phone": "+1 604-873-8424", "tags": ["restaurant", "food", "point_of_interest", "establishment"], "rating": 3.7, "website": "http://www.thaiaway.com/", "location": {"lat": 49.2557107, "lng": -123.1153488}, "google_id": "ChIJQ2QP2e5zhlQRbBBZdAiTsvE"},{"name": "BierCraft Bistro", "address": "3305 Cambie St, Vancouver, BC V5Z 2W6, Canada", "phone": "+1 604-874-6900", "tags": ["restaurant", "food", "point_of_interest", "establishment"], "rating": 4.2, "website": "http://biercraft.com/cambie", "location": {"lat": 49.2558194, "lng": -123.1153698}, "google_id": "ChIJIRXU2e5zhlQR2rnY-FBKrR4"},{"name": "Hot Delivery Chinese Food", "address": "3002 Cambie St, Vancouver, BC V5Z 2V9, Canada", "phone": "+1 604-879-5292", "tags": ["meal_delivery", "meal_takeaway", "restaurant", "food", "point_of_interest", "establishment"], "rating": 3.7, "website": "https://www.hotdelivery.ca/", "location": {"lat": 49.2585541, "lng": -123.1148653}, "google_id": "ChIJE_qokOhzhlQRg2WJvscN8QQ"},{"name": "Subway", "address": "98 E Broadway #104, Vancouver, BC V6T 1V6, Canada", "phone": "+1 604-568-9288", "tags": ["meal_takeaway", "restaurant", "food", "point_of_interest", "establishment"], "rating": 3.3, "website": "http://w.subway.com/en-ca", "location": {"lat": 49.26281540000001, "lng": -123.1031965}, "google_id": "ChIJzQk_jftyhlQRf6xL_TSRL58"},{"name": "La Taqueria Pinche Taco Shop", "address": "2450 Yukon St, Vancouver, BC V5Y 0A4, Canada", "phone": "+1 604-558-2549", "tags": ["restaurant", "food", "point_of_interest", "establishment"], "rating": 4.3, "website": "https://www.lataqueria.com/contact", "location": {"lat": 49.26354899999999, "lng": -123.112736}, "google_id": "ChIJKSKEqHlxhlQR9Qk6ghOR3a0"},{"name": "Indochine Kitchen + Bar", "address": "1 E Broadway, Vancouver, BC V5T 1V4, Canada", "phone": "+1 604-568-0828", "tags": ["restaurant", "food", "point_of_interest", "establishment"], "rating": 3.7, "website": "", "location": {"lat": 49.2631601, "lng": -123.1046852}, "google_id": "ChIJcYP7_uBzhlQRK2y_KZ9kMPI"},{"name": "Fable Diner", "address": "151 E Broadway, Vancouver, BC V5T 1W1, Canada", "phone": "+1 604-563-3463", "tags": ["restaurant", "food", "point_of_interest", "establishment"], "rating": 4.2, "website": "http://www.fablediner.com/", "location": {"lat": 49.26303360000001, "lng": -123.1017025}, "google_id": "ChIJYczMx-FzhlQRs31Ol0csSVQ"},{"name": "Verdura", "address": "2509 Main St, Vancouver, BC V5T 3E5, Canada", "phone": "+1 604-879-4852", "tags": ["restaurant", "food", "point_of_interest", "establishment"], "rating": 4.3, "website": "http://www.verdurasalads.com/", "location": {"lat": 49.2626009, "lng": -123.1014144}, "google_id": "ChIJjTGPv-FzhlQREQkk7mZ599Y"},{"name": "Rosemary Rocksalt", "address": "2515 Main St, Vancouver, BC V5T 3E5, Canada", "phone": "+1 604-874-4570", "tags": ["bakery", "cafe", "restaurant", "food", "point_of_interest", "store", "establishment"], "rating": 4, "website": "https://rosemaryrocksalt.com/", "location": {"lat": 49.2625743, "lng": -123.1013305}, "google_id": "ChIJ20Haw-FzhlQRSofmK-10Hjg"},{"name": "Freshslice Pizza", "address": "183 E Broadway, Vancouver, BC V5T 1W2, Canada", "phone": "+1 604-568-5258", "tags": ["meal_delivery", "meal_takeaway", "restaurant", "food", "point_of_interest", "establishment"], "rating": 4, "website": "http://www.freshslice.com/", "location": {"lat": 49.2630352, "lng": -123.101287}, "google_id": "ChIJeXQHxOFzhlQRNsrXeepoy-A"},{"name": "Mangia Cucina & Bar", "address": "2211 Manitoba St, Vancouver, BC V5Y 1K1, Canada", "phone": "+1 604-620-5445", "tags": ["restaurant", "food", "point_of_interest", "establishment"], "rating": 4.7, "website": "http://www.mangiacucina.com/", "location": {"lat": 49.265428, "lng": -123.106916}, "google_id": "ChIJQX000d9zhlQRQlsPtjga5ws"},{"name": "Emelle's Westside Kitchen", "address": "177 W 7th Ave, Vancouver, BC V5Y 1L8, Canada", "phone": "+1 604-875-6551", "tags": ["restaurant", "food", "point_of_interest", "establishment"], "rating": 4.5, "website": "http://www.emelles.com", "location": {"lat": 49.26494290000001, "lng": -123.1086381}, "google_id": "ChIJL4jkI95zhlQRTl9e4MGrAyY"},{"name": "Pizza 604", "address": "2444 Main St, Vancouver, BC V5T 3E2, Canada", "phone": "+1 604-555-1212", "tags": ["restaurant", "food", "point_of_interest", "establishment"], "rating": 4.2, "website": "http://pizza604.com/", "location": {"lat": 49.2632973, "lng": -123.1007563}, "google_id": "ChIJ1xKW2uFzhlQRJAI7sE0Crh4"}]