[{"name": "Cactus Club Cafe", "address": "855 Main St, West Vancouver, BC V7T 2Z3, Canada", "phone": "+1 604-922-1707", "tags": ["restaurant", "bar", "food", "point_of_interest", "establishment"], "rating": 4.1, "website": "https://www.cactusclubcafe.com/?utm_source=google-maps&utm_medium=organic&utm_campaign=park-royal", "location": {"lat": 49.3258485, "lng": -123.1421839}, "google_id": "ChIJmX862CFuhlQRitmKPWS9a6Q"},{"name": "White Spot Park Royal", "address": "797 Main St, West Vancouver, BC V7T 0A5, Canada", "phone": "+1 604-922-8221", "tags": ["restaurant", "food", "point_of_interest", "establishment"], "rating": 3.9, "website": "http://www.whitespot.ca/", "location": {"lat": 49.3264622, "lng": -123.139313}, "google_id": "ChIJwUzRVWVxhlQR3yE2I_TddUg"},{"name": "Hiro Japan", "address": "1031 Park Royal S, West Vancouver, BC V7T 1A1, Canada", "phone": "", "tags": ["restaurant", "food", "point_of_interest", "establishment"], "rating": 2.7, "website": "https://hirojapan.ca/wpsite/", "location": {"lat": 49.3263587, "lng": -123.1394013}, "google_id": "ChIJ_70zayBuhlQRVzmwxq2kOFM"},{"name": "Italian Kitchen Park Royal", "address": "2nd Level, 757 Main Street, Park Royal South, West Vancouver, BC V7T 0A5, Canada", "phone": "+1 604-424-8778", "tags": ["restaurant", "food", "point_of_interest", "establishment"], "rating": 3.5, "website": "http://www.glowbalgroup.com/italiankitchen/italian-kitchen-park-royal.html", "location": {"lat": 49.326706, "lng": -123.1380931}, "google_id": "ChIJu0bnByFuhlQRJNfcDeR0Lyk"},{"name": "The Keg Steakhouse + Bar - Park Royal", "address": "731 Main St Unit 110, West Vancouver, BC V7T 0A5, Canada", "phone": "+1 604-922-1387", "tags": ["restaurant", "food", "point_of_interest", "establishment"], "rating": 4.3, "website": "https://kegsteakhouse.com/locations/parkroyal/", "location": {"lat": 49.3266169, "lng": -123.1375716}, "google_id": "ChIJO1Msy_FvhlQRdLhZql1Bz7k"},{"name": "OPA! of Greece Park Royal", "address": "2002 Park Royal S, West Vancouver, BC V7T 1G2, Canada", "phone": "+1 604-616-6861", "tags": ["restaurant", "food", "point_of_interest", "establishment"], "rating": 3.7, "website": "http://www.opasouvlaki.ca/", "location": {"lat": 49.3253528, "lng": -123.1374396}, "google_id": "ChIJTx-C_CBuhlQROamerhrpdMY"},{"name": "A&W Canada", "address": "2002 Marine Dr, West Vancouver, BC V7T 1A1, Canada", "phone": "+1 604-925-3367", "tags": ["restaurant", "food", "point_of_interest", "establishment"], "rating": 3.8, "website": "http://aw.ca/", "location": {"lat": 49.32499, "lng": -123.1361819}, "google_id": "ChIJV03bthhuhlQRPrrIQQQ9PQQ"},{"name": "New York Fries - Park Royal Shopping Centre", "address": "2002 Park Royal S, West Vancouver, BC V7T 2W4, Canada", "phone": "+1 604-281-0780", "tags": ["restaurant", "food", "point_of_interest", "establishment"], "rating": 3.6, "website": "http://www.newyorkfries.com/", "location": {"lat": 49.32484669999999, "lng": -123.1363956}, "google_id": "ChIJ4wLYryFuhlQRXKu493QpWY8"},{"name": "Subway", "address": "Park Royal Shopping Centre, Unit FC04 Food Court, 2002 Park Royal S, West Vancouver, BC V7T 2W4, Canada", "phone": "+1 604-281-1063", "tags": ["restaurant", "food", "point_of_interest", "establishment"], "rating": 4, "website": "http://www.subway.com/", "location": {"lat": 49.3248794, "lng": -123.136189}, "google_id": "ChIJRdOSFCBuhlQRBltJuJUGjDY"},{"name": "Chez Michel", "address": "1373 Marine Dr 2nd Floor, West Vancouver, BC V7T 1B6, Canada", "phone": "+1 604-926-4913", "tags": ["restaurant", "food", "point_of_interest", "establishment"], "rating": 4.3, "website": "https://chezmichelvancouver.com/", "location": {"lat": 49.3279376, "lng": -123.1535598}, "google_id": "ChIJA1zqmRluhlQRdhMGsuKuzYA"},{"name": "Mer's Kitchen Catering, Restaurant, Venue", "address": "1425 Marine Dr #115, West Vancouver, BC V7T 1B8, Canada", "phone": "+1 604-262-2277", "tags": ["restaurant", "food", "point_of_interest", "establishment"], "rating": 4, "website": "", "location": {"lat": 49.328173, "lng": -123.1547335}, "google_id": "ChIJY5ch9BluhlQR98fDs0YBtcI"},{"name": "Milestones", "address": "1096 Park Royal S, West Vancouver, BC V7T 1A1, Canada", "phone": "+1 604-925-9825", "tags": ["restaurant", "food", "point_of_interest", "establishment"], "rating": 3.3, "website": "http://www.milestonesrestaurants.com/", "location": {"lat": 49.32629619999999, "lng": -123.1439501}, "google_id": "ChIJsWgyTh9uhlQR-bZhNzrnmH8"},{"name": "Delany's Coffee House", "address": "815 Main St, West Vancouver, BC V7T 2Z3, Canada", "phone": "+1 604-922-5100", "tags": ["cafe", "bakery", "restaurant", "food", "point_of_interest", "store", "establishment"], "rating": 4.1, "website": "https://www.delanyscoffee.com/", "location": {"lat": 49.3259188, "lng": -123.1410429}, "google_id": "ChIJmX862CFuhlQRM3lJ2xjWAHk"},{"name": "Carmelo's Ristorante Italiano", "address": "1448 Marine Dr, West Vancouver, BC V7T 1B5, Canada", "phone": "+1 604-922-4719", "tags": ["meal_takeaway", "bar", "restaurant", "food", "point_of_interest", "establishment"], "rating": 4.5, "website": "http://www.carmelos.ca/", "location": {"lat": 49.328016, "lng": -123.155582}, "google_id": "ChIJi4HjHBpuhlQRwsi2c7JuaJQ"},{"name": "McDonald's", "address": "808 Marine Dr, West Vancouver, BC V7T 1A1, Canada", "phone": "+1 604-922-1012", "tags": ["cafe", "restaurant", "food", "point_of_interest", "establishment"], "rating": 3.2, "website": "https://www.mcdonalds.com/ca/en-ca/restaurant-locator.html", "location": {"lat": 49.3265141, "lng": -123.1397069}, "google_id": "ChIJnzQ9SDNwhlQRWxrmVzbWQww"},{"name": "Five Guys", "address": "728 Main St, West Vancouver, BC V7T 0A5, Canada", "phone": "+1 604-925-3483", "tags": ["meal_takeaway", "restaurant", "food", "point_of_interest", "establishment"], "rating": 4.3, "website": "http://fiveguys.com/", "location": {"lat": 49.32616679999999, "lng": -123.1363107}, "google_id": "ChIJV03bthhuhlQRCa8l3XYLTQs"},{"name": "Chipotle Mexican Grill", "address": "Unit 879, Park Royal N, West Vancouver, BC V7T 1H9, Canada", "phone": "+1 604-922-0301", "tags": ["restaurant", "food", "point_of_interest", "establishment"], "rating": 4, "website": "https://locations.chipotle.com/bc/west-vancouver/unit-879-park-royal-north?utm_source=google&utm_medium=yext&utm_campaign=yext_listings", "location": {"lat": 49.32786790000001, "lng": -123.1394488}, "google_id": "ChIJbU7iEiFuhlQRd-TUErGrsMU"},{"name": "Vina Vietnamese", "address": "1031 Park Royal S, West Vancouver, BC V7T 1A1, Canada", "phone": "", "tags": ["restaurant", "food", "point_of_interest", "establishment"], "rating": 1.5, "website": "", "location": {"lat": 49.3263587, "lng": -123.1394013}, "google_id": "ChIJSbvnFCBuhlQRk6Fk8Ju4myc"},{"name": "Thaigo", "address": "1031 Park Royal S, West Vancouver, BC V7T 1A1, Canada", "phone": "+1 604-281-2080", "tags": ["restaurant", "food", "point_of_interest", "establishment"], "rating": 3.7, "website": "", "location": {"lat": 49.3263587, "lng": -123.1394013}, "google_id": "ChIJL1VgEyBuhlQRAVpNK-uQbPM"},{"name": "Legendary Hot Pot", "address": "796 Main St, West Vancouver, BC V7T 1A2, Canada", "phone": "+1 778-279-7888", "tags": ["restaurant", "food", "point_of_interest", "establishment"], "rating": 4, "website": "https://legendary-hot-pot-restaurant.business.site/", "location": {"lat": 49.3260743, "lng": -123.1394531}, "google_id": "ChIJBe0ptCFuhlQRudnFWX5WmD8"},{"name": "Artisan pizza", "address": "Park Royal S, West Vancouver, BC V7T, Canada", "phone": "", "tags": ["restaurant", "food", "point_of_interest", "establishment"], "rating": 4, "website": "", "location": {"lat": 49.3263137, "lng": -123.138767}, "google_id": "ChIJG4FOriFuhlQRgDKI14aZsws"},{"name": "Bento Sushi", "address": "861-845 Park Royal N, West Vancouver, BC V7T 1H9, Canada", "phone": "", "tags": ["meal_takeaway", "restaurant", "food", "point_of_interest", "establishment"], "rating": "", "website": "https://www.bentosushi.com/", "location": {"lat": 49.32749980000001, "lng": -123.1375183}, "google_id": "ChIJRwVbqM5vhlQRnh9DAHVuuUs"},{"name": "Trattoria Park Royal", "address": "757 Main St, Park Royal S, West Vancouver, BC V7T 0A5, Canada", "phone": "+1 604-424-8777", "tags": ["restaurant", "food", "point_of_interest", "establishment"], "rating": 3.9, "website": "http://www.glowbalgroup.com/trattoria/", "location": {"lat": 49.3266001, "lng": -123.1379687}, "google_id": "ChIJu50w2CFuhlQRvUdsbvoflFw"},{"name": "Splendido Cafe", "address": "798 Park Royal N, West Vancouver, BC V7T 1H9, Canada", "phone": "+1 604-925-8119", "tags": ["restaurant", "food", "point_of_interest", "establishment"], "rating": "", "website": "", "location": {"lat": 49.3276061, "lng": -123.1364036}, "google_id": "ChIJc25GPCFuhlQRDgTfUMYMA1w"},{"name": "Nishiki Sushi Restaurant", "address": "1377 Marine Dr, West Vancouver, BC V7T 1B6, Canada", "phone": "+1 604-925-5057", "tags": ["restaurant", "food", "point_of_interest", "establishment"], "rating": 4, "website": "http://www.nishikisushi.ca/", "location": {"lat": 49.32794409999999, "lng": -123.1536632}, "google_id": "ChIJZRx-khluhlQRA8cEYa_Z-I0"},{"name": "Blaze Pizza", "address": "701 Park Royal N, West Vancouver, BC V7T 1H9, Canada", "phone": "+1 604-800-5329", "tags": ["restaurant", "food", "point_of_interest", "establishment"], "rating": 4.3, "website": "http://blazepizza.com/", "location": {"lat": 49.3276151, "lng": -123.1354384}, "google_id": "ChIJz5-cM1NvhlQRWYz8lC31L90"},{"name": "Salad Loop Enterprises Ltd", "address": "680 Park Royal N, West Vancouver, BC V7T 1H9, Canada", "phone": "+1 604-913-8365", "tags": ["restaurant", "food", "point_of_interest", "establishment"], "rating": 3.6, "website": "", "location": {"lat": 49.327534, "lng": -123.1354588}, "google_id": "ChIJyW7vLyFuhlQRlRICf6cLIAk"},{"name": "Eve restaurant", "address": "Capilano 5, West Vancouver, BC V7T, Canada", "phone": "", "tags": ["restaurant", "food", "point_of_interest", "establishment"], "rating": 3, "website": "", "location": {"lat": 49.3245176, "lng": -123.1390106}, "google_id": "ChIJz2fbPCBuhlQRFnzmjY9Nujg"},{"name": "Freshii", "address": "2002 Park Royal N, West Vancouver, BC V7T 2W4, Canada", "phone": "+1 778-279-0225", "tags": ["restaurant", "food", "point_of_interest", "establishment"], "rating": 3.8, "website": "https://www.freshii.com/", "location": {"lat": 49.3248366, "lng": -123.1379072}, "google_id": "ChIJAQBfbyFuhlQRhkyMk3Ny7Z0"},{"name": "Nando's Park Royal (West Van)", "address": "Park Royal South, 722 Main St, West Vancouver, BC V7T 0A5, Canada", "phone": "+1 604-926-1400", "tags": ["meal_takeaway", "restaurant", "food", "point_of_interest", "establishment"], "rating": 4.2, "website": "https://www.nandos.ca/", "location": {"lat": 49.3261842, "lng": -123.135984}, "google_id": "ChIJy-ruLyFuhlQRJQp45-5QeKA"},{"name": "Fortune Wok", "address": "2002 Park Royal S, West Vancouver, BC V7T 1B2, Canada", "phone": "+1 604-925-0773", "tags": ["restaurant", "food", "point_of_interest", "establishment"], "rating": 3.3, "website": "", "location": {"lat": 49.3249068, "lng": -123.1371613}, "google_id": "ChIJV03bthhuhlQRFdmMNXENoRQ"},{"name": "Park Royal Food Court 2/F", "address": "West Vancouver, BC V7T 2Y5, Canada", "phone": "+1 604-922-3211", "tags": ["restaurant", "food", "point_of_interest", "establishment"], "rating": 5, "website": "", "location": {"lat": 49.3248991, "lng": -123.1368978}, "google_id": "ChIJo7kb98VvhlQRTSt50qyPlIw"},{"name": "Food Court in Park Royal South Mall", "address": "923 Park Royal S, West Vancouver, BC V7T 1H9 Park Royal S, West Vancouver, BC V7T 1H9, Canada", "phone": "+1 604-922-3211", "tags": ["restaurant", "food", "point_of_interest", "establishment"], "rating": 4.4, "website": "http://www.shopparkroyal.com/", "location": {"lat": 49.3254732, "lng": -123.1360741}, "google_id": "ChIJM_Nv9CBuhlQRzbiJzBqJC_8"},{"name": "Freshslice Pizza", "address": "1387 Marine Dr, West Vancouver, BC V7T 1B5, Canada", "phone": "+1 604-281-3114", "tags": ["meal_delivery", "meal_takeaway", "restaurant", "food", "point_of_interest", "establishment"], "rating": 4.1, "website": "http://www.freshslice.com/", "location": {"lat": 49.32797600000001, "lng": -123.1539032}, "google_id": "ChIJkcdAjRluhlQR-iqFOd8KQQI"},{"name": "The Boatshed Ambleside", "address": "1200 Argyle Ave, West Vancouver, BC V7W 1C1, Canada", "phone": "+1 604-921-0078", "tags": ["restaurant", "food", "point_of_interest", "establishment"], "rating": 4.6, "website": "https://www.facebook.com/The-Boat-Shed-Ambleside-Beach-2357960374270287/", "location": {"lat": 49.3249291, "lng": -123.1507946}, "google_id": "ChIJJRVqkoBvhlQRM1fYi_erpWg"},{"name": "Dinner in the Sky Canada", "address": "1089 - 1121 Argyle Ave, West Vancouver, BC V7M 1A7, Canada", "phone": "+1 604-299-6101", "tags": ["restaurant", "food", "point_of_interest", "establishment"], "rating": 4.5, "website": "https://dinnerintheskycanada.com/", "location": {"lat": 49.323702, "lng": -123.1486816}, "google_id": "ChIJVVVxLHhxhlQRPS5AK_e6NSc"},{"name": "Ancora Waterfront Dining and Patio - Ambleside", "address": "1351 Bellevue Ave, West Vancouver, BC V7T 2P9, Canada", "phone": "+1 604-926-0287", "tags": ["restaurant", "food", "point_of_interest", "establishment"], "rating": 4.6, "website": "https://www.ancoradining.com/", "location": {"lat": 49.32718269999999, "lng": -123.1531682}, "google_id": "ChIJ1ZLU0y9vhlQRfaATYCu-Tjw"},{"name": "Heirloom Ambleside", "address": "1390 Marine Dr, West Vancouver, BC V7T 1A7, Canada", "phone": "+1 604-281-2241", "tags": ["restaurant", "food", "point_of_interest", "establishment"], "rating": 4, "website": "http://heirloomveg.ca/", "location": {"lat": 49.3276776, "lng": -123.1540352}, "google_id": "ChIJ4ckRnBluhlQRARYPEyBCNos"},{"name": "Earls Kitchen + Bar", "address": "1375 Bellevue Ave, West Vancouver, BC V7T 2Y9, Canada", "phone": "+1 604-262-3632", "tags": ["restaurant", "food", "point_of_interest", "establishment"], "rating": 4, "website": "https://www.earls.ca/locations/ambleside-beach", "location": {"lat": 49.32745029999999, "lng": -123.1540889}, "google_id": "ChIJoyq_sNFvhlQR0qyVpoGg2iM"},{"name": "Wooden Fish", "address": "1403 Marine Dr, West Vancouver, BC V7T 1B8, Canada", "phone": "+1 604-926-6789", "tags": ["restaurant", "food", "point_of_interest", "establishment"], "rating": 4.3, "website": "http://www.thewoodenfish.ca/", "location": {"lat": 49.3280711, "lng": -123.1545466}, "google_id": "ChIJAzekDpRvhlQRKdgeAyzzgYg"},{"name": "Ichiban Japanese Kitchen & Sushi", "address": "1405 Marine Dr, West Vancouver, BC V7T 1B8, Canada", "phone": "+1 604-913-2322", "tags": ["meal_takeaway", "restaurant", "food", "point_of_interest", "establishment"], "rating": 4.4, "website": "http://gintaroichiban.com/", "location": {"lat": 49.3281414, "lng": -123.1546138}, "google_id": "ChIJRc3z95NvhlQR6vyO0Z9VCFA"},{"name": "B C Aboriginal Fisheries", "address": "100 Park Royal S, West Vancouver, BC V7T 1A2, Canada", "phone": "+1 604-913-9060", "tags": ["restaurant", "food", "point_of_interest", "establishment"], "rating": "", "website": "", "location": {"lat": 49.3252564, "lng": -123.1335654}, "google_id": "ChIJsY7noiBuhlQRK8-IJDz2GTM"},{"name": "Mani Persian Food", "address": "205-1425 Marine Dr, West Vancouver, BC V7T 1B8, Canada", "phone": "+1 604-726-6264", "tags": ["restaurant", "food", "point_of_interest", "establishment"], "rating": 4.3, "website": "http://www.manipersianfood.com/", "location": {"lat": 49.3285483, "lng": -123.154968}, "google_id": "ChIJTzHKCtpvhlQRc85uUmiMO-s"},{"name": "Lao Cai Chinese Cuisine \u8001\u8521\u98df\u5e9c", "address": "130-1425 Marine Dr, West Vancouver, BC V7T 1B5, Canada", "phone": "+1 604-925-9231", "tags": ["restaurant", "cafe", "food", "point_of_interest", "establishment"], "rating": 4.1, "website": "http://www.laocai.ca/", "location": {"lat": 49.3281806, "lng": -123.1550493}, "google_id": "ChIJgXtp8BluhlQR_Myo45TFn54"}]