[{"name": "Subway", "address": "Parkgate Village Shopping Ctr, 3650 Mt Seymour Pkwy Unit 152, North Vancouver, BC V7H 2Y5, Canada", "phone": "+1 604-924-3230", "tags": ["meal_takeaway", "restaurant", "food", "point_of_interest", "establishment"], "rating": 3.9, "website": "http://www.subway.com/", "location": {"lat": 49.3162477, "lng": -122.9710268}, "google_id": "ChIJX_OT5ml6hlQROAeHuhgXqPs"},{"name": "Deep Cove Pizza", "address": "4385 Gallant Ave, North Vancouver, BC V7G 1L2, Canada", "phone": "+1 604-929-6123", "tags": ["restaurant", "food", "point_of_interest", "establishment"], "rating": 3.2, "website": "http://www.deepcovepizza.ca/", "location": {"lat": 49.32669730000001, "lng": -122.9498033}, "google_id": "ChIJTdlnik16hlQRaRJSwKfLkUo"},{"name": "Northlands Golf Course", "address": "3400 Anne Macdonald Way, North Vancouver, BC V7G 2S7, Canada", "phone": "+1 604-924-2950", "tags": ["restaurant", "food", "point_of_interest", "establishment"], "rating": 4.3, "website": "http://www.golfnorthlands.com/", "location": {"lat": 49.32152070000001, "lng": -122.9803642}, "google_id": "ChIJT1cRE2d6hlQR2X-D50C9dYw"},{"name": "A&W Canada", "address": "1133 Mt Seymour Rd #128, North Vancouver, BC V7H 2Y4, Canada", "phone": "+1 604-985-5944", "tags": ["restaurant", "food", "point_of_interest", "establishment"], "rating": 4.1, "website": "http://aw.ca/", "location": {"lat": 49.31644499999999, "lng": -122.969331}, "google_id": "ChIJs6Oi32l6hlQR8o6cPJ6AR_k"},{"name": "Momiji Japanese Cuisine", "address": "3720 Mt Seymour Pkwy, North Vancouver, BC V7G 1C3, Canada", "phone": "+1 604-929-0990", "tags": ["restaurant", "food", "point_of_interest", "establishment"], "rating": 4.4, "website": "", "location": {"lat": 49.31619600000001, "lng": -122.968222}, "google_id": "ChIJDTxyCEJ6hlQRJl0OvVFJSYQ"},{"name": "InGrain Pastificio", "address": "126-1133 Mt Seymour Rd, North Vancouver, BC V7H 2Y4, Canada", "phone": "+1 604-988-8926", "tags": ["restaurant", "food", "point_of_interest", "establishment"], "rating": 4.5, "website": "http://ingrainpastificio.com/", "location": {"lat": 49.31664809999999, "lng": -122.9692864}, "google_id": "ChIJqW_wdUJ6hlQREmm_FJ2lTYs"},{"name": "Caf\u00e9 Orso", "address": "4316 Gallant Ave, North Vancouver, BC V7J 1C8, Canada", "phone": "+1 778-340-3222", "tags": ["cafe", "restaurant", "food", "point_of_interest", "store", "establishment"], "rating": 4.5, "website": "http://cafeorso.net/", "location": {"lat": 49.3269009, "lng": -122.9515133}, "google_id": "ChIJ1zABBVJ6hlQR3_WV_TrkgxE"},{"name": "Deepwater Micro Eatery", "address": "4369 Gallant Ave, North Vancouver, BC V7G 1L1, Canada", "phone": "+1 604-770-0280", "tags": ["restaurant", "food", "point_of_interest", "establishment"], "rating": 3.9, "website": "http://www.deepwatermicroeatery.ca/", "location": {"lat": 49.3265965, "lng": -122.9502495}, "google_id": "ChIJOTzAClJ6hlQRLuO0498sTaI"},{"name": "Arms Reach Bistro", "address": "4390 Gallant Ave #107c, North Vancouver, BC V7G 1L2, Canada", "phone": "+1 604-929-7442", "tags": ["restaurant", "food", "point_of_interest", "establishment"], "rating": 4.4, "website": "http://www.armsreachbistro.com/", "location": {"lat": 49.32686469999999, "lng": -122.9493194}, "google_id": "ChIJJ-AIiU16hlQRBCpbWTNnbSc"},{"name": "The Raven Pub", "address": "1052 Deep Cove Rd, North Vancouver, BC V7G 1S3, Canada", "phone": "+1 604-929-3834", "tags": ["bar", "restaurant", "food", "point_of_interest", "establishment"], "rating": 3.9, "website": "http://www.theravenpub.com/", "location": {"lat": 49.31646569999999, "lng": -122.9532962}, "google_id": "ChIJiZcwpkd6hlQR6EOqEZcSB8E"},{"name": "DeepCove Osaka Sushi", "address": "4355 Gallant Ave, North Vancouver, BC V7G 2C1, Canada", "phone": "+1 604-929-5033", "tags": ["restaurant", "food", "point_of_interest", "establishment"], "rating": 4.3, "website": "http://www.deepcoveosakasushi.com/", "location": {"lat": 49.3266761, "lng": -122.9508481}, "google_id": "ChIJj-aB9U16hlQR1Ox7RF5ZyRg"},{"name": "Little Caesars Pizza", "address": "3662 Mt Seymour Pkwy, North Vancouver, BC V7H 2Y5, Canada", "phone": "+1 604-924-2333", "tags": ["meal_takeaway", "restaurant", "food", "point_of_interest", "establishment"], "rating": 3.8, "website": "http://www.littlecaesars.ca/?utm_source=google&utm_medium=local&utm_campaign=localmaps&utm_content=47810002", "location": {"lat": 49.31635479999999, "lng": -122.9706789}, "google_id": "ChIJi7aV5ml6hlQROsWUcJWkuQs"},{"name": "Nektar's Pizza & Greek Food", "address": "397 Dollarton Hwy N, North Vancouver, BC V7G 1M9, Canada", "phone": "+1 604-929-4900", "tags": ["restaurant", "food", "point_of_interest", "establishment"], "rating": 4.1, "website": "http://www.nektars.ca/", "location": {"lat": 49.3069139, "lng": -122.9535884}, "google_id": "ChIJXTqyvz16hlQRBs1N7CZBnaU"},{"name": "Genji Japanese Restaurant", "address": "3650 Mt Seymour Pkwy #153, North Vancouver, BC V7H 2Y4, Canada", "phone": "+1 604-980-6886", "tags": ["restaurant", "food", "point_of_interest", "establishment"], "rating": 4.2, "website": "http://genjiparkgate.blogspot.ca/", "location": {"lat": 49.316264, "lng": -122.971146}, "google_id": "ChIJX_OT5ml6hlQR6q6jX8jlGAc"},{"name": "Cove Sushi", "address": "449 Dollarton Hwy N, North Vancouver, BC V7G 1M9, Canada", "phone": "+1 604-924-9168", "tags": ["restaurant", "food", "point_of_interest", "establishment"], "rating": 4.3, "website": "http://covesushi.blogspot.ca/", "location": {"lat": 49.3073353, "lng": -122.9539142}, "google_id": "ChIJL-koyD16hlQR5kDocuU1FPM"},{"name": "Scratch Kitchen", "address": "437 Dollarton Hwy N, North Vancouver, BC V7G 1M9, Canada", "phone": "+1 604-770-1237", "tags": ["restaurant", "food", "point_of_interest", "establishment"], "rating": 4.8, "website": "http://www.eatscratchkitchen.com/", "location": {"lat": 49.3072549, "lng": -122.9539014}, "google_id": "ChIJ99xf4eJ7hlQRMA8rwsMxCFs"},{"name": "Belcara", "address": "2200 Caledonia Ave, North Vancouver, BC V7G 1T9, Canada", "phone": "", "tags": ["restaurant", "food", "point_of_interest", "establishment"], "rating": "", "website": "", "location": {"lat": 49.326817, "lng": -122.9519941}, "google_id": "ChIJ0WOdsw97hlQRtSVbOA3HnRo"},{"name": "Comida rica", "address": "2200 Panorama Dr, North Vancouver, BC V7G 1L2, Canada", "phone": "", "tags": ["restaurant", "food", "point_of_interest", "establishment"], "rating": "", "website": "", "location": {"lat": 49.3267672, "lng": -122.9507148}, "google_id": "ChIJ5ySpF597hlQRj7ScwCelO1I"},{"name": "Bluhouse Market & Cafe", "address": "4342 Gallant Ave, North Vancouver, BC V7G 1K8, Canada", "phone": "+1 778-340-6667", "tags": ["restaurant", "food", "point_of_interest", "establishment"], "rating": 4.5, "website": "http://www.bluhousecafe.com/", "location": {"lat": 49.3269066, "lng": -122.9510858}, "google_id": "ChIJF-bgC1J6hlQRQAhW1AOPLCM"},{"name": "Pomegranate Grillhouse & Cafe", "address": "4361 Gallant Ave, North Vancouver, BC V7G 1L1, Canada", "phone": "+1 604-929-7666", "tags": ["restaurant", "food", "point_of_interest", "establishment"], "rating": 3.8, "website": "", "location": {"lat": 49.326699, "lng": -122.9504119}, "google_id": "ChIJ2w8NClJ6hlQRf7psiww9tv8"},{"name": "Sinclair\u2019s restaurant", "address": "2507 Caledonia Ave, North Vancouver, BC V7G 1T8, Canada", "phone": "", "tags": ["restaurant", "food", "point_of_interest", "establishment"], "rating": "", "website": "", "location": {"lat": 49.32973699999999, "lng": -122.952318}, "google_id": "ChIJz5AZX7t7hlQRDRw34vFh5JU"},{"name": "Northlands Bar and Grill", "address": "3400 Anne Macdonald Way, North Vancouver, BC V7G 2S7, Canada", "phone": "+1 604-924-2950", "tags": ["bar", "restaurant", "food", "point_of_interest", "establishment"], "rating": 3.9, "website": "http://golfnorthlands.com/bar-grill/menu/", "location": {"lat": 49.3216063, "lng": -122.980454}, "google_id": "ChIJT1cRE2d6hlQReUvQffiGsEs"}]