[{"name": "Seasons in the Park", "address": "W 33rd Ave, Vancouver, BC V5Y 2M4, Canada", "phone": "+1 604-874-8008", "tags": ["restaurant", "bar", "food", "point_of_interest", "establishment"], "rating": 4.3, "website": "http://vancouverdine.com/seasons-park", "location": {"lat": 49.2419848, "lng": -123.1118624}, "google_id": "ChIJZ0UuanRuhlQRab4hMds18Uo"},{"name": "Shaughnessy Restaurant", "address": "5251 Oak St, Vancouver, BC V6M 4H1, Canada", "phone": "+1 604-261-0011", "tags": ["restaurant", "food", "point_of_interest", "establishment"], "rating": 3.7, "website": "http://www.shaughnessyrestaurant.com/", "location": {"lat": 49.2386995, "lng": -123.1296129}, "google_id": "ChIJU2TMMYZzhlQR4Fl7xNjFAiE"},{"name": "White Spot", "address": "613-A, 650 W 41st Ave, Vancouver, BC V5Z 4H2, Canada", "phone": "+1 604-261-2820", "tags": ["restaurant", "food", "point_of_interest", "establishment"], "rating": 3.9, "website": "http://www.whitespot.ca/", "location": {"lat": 49.2333135, "lng": -123.1175456}, "google_id": "ChIJFQ8vNHd0hlQRahRVfx1oEM8"},{"name": "De Dutch Pannekoek House", "address": "3192 Oak St, Vancouver, BC V6H 2L1, Canada", "phone": "+1 604-732-1915", "tags": ["restaurant", "food", "point_of_interest", "establishment"], "rating": 4, "website": "http://dedutch.com/", "location": {"lat": 49.25724289999999, "lng": -123.1269065}, "google_id": "ChIJZzB-iupzhlQRCX2r-Q-vRl8"},{"name": "the Kino", "address": "3456 Cambie St, Vancouver, BC V5Z 2W8, Canada", "phone": "+1 604-875-1998", "tags": ["restaurant", "bar", "food", "point_of_interest", "establishment"], "rating": 4.3, "website": "http://thekino.ca/", "location": {"lat": 49.2543715, "lng": -123.1149986}, "google_id": "ChIJL6R98e5zhlQRFlmC3_N5UI4"},{"name": "Samurai Sushi House", "address": "5888 Cambie St, Vancouver, BC V5Z 3A8, Canada", "phone": "+1 604-325-8597", "tags": ["restaurant", "food", "point_of_interest", "establishment"], "rating": 3.9, "website": "", "location": {"lat": 49.2318904, "lng": -123.1159603}, "google_id": "ChIJo_2vlHB0hlQR6RN_OGTAvBw"},{"name": "New York Fries - Oakridge Centre", "address": "650 W 41st Ave Unit F11, Vancouver, BC V5Z 2M9, Canada", "phone": "+1 604-267-0242", "tags": ["restaurant", "food", "point_of_interest", "establishment"], "rating": 3.5, "website": "http://www.newyorkfries.com/", "location": {"lat": 49.2313145, "lng": -123.1171957}, "google_id": "ChIJFQ8vNHd0hlQRAZ6f716V8BQ"},{"name": "Sabra Kosher Bakery & Restaurant Ltd", "address": "3844 Oak St, Vancouver, BC V6H 2M6, Canada", "phone": "+1 604-733-4912", "tags": ["bakery", "restaurant", "food", "point_of_interest", "store", "establishment"], "rating": 4.5, "website": "", "location": {"lat": 49.2513234, "lng": -123.1272918}, "google_id": "ChIJgRy5bJNzhlQRGzjjttg1MzY"},{"name": "Togo Sushi Oakridge Center", "address": "650 W 41st Ave, Vancouver, BC V5Z 4H2, Canada", "phone": "", "tags": ["restaurant", "food", "point_of_interest", "establishment"], "rating": 3.5, "website": "http://www.togosushi.ca/", "location": {"lat": 49.23287199999999, "lng": -123.117689}, "google_id": "ChIJFQ8vNHd0hlQRPLBP1rHvzqQ"},{"name": "Best Neighbours Restaurant & Pizza House", "address": "3838 Oak St, Vancouver, BC V6H 2M5, Canada", "phone": "+1 604-732-3777", "tags": ["restaurant", "food", "point_of_interest", "establishment"], "rating": 4.2, "website": "http://www.bestneighbours.ca/", "location": {"lat": 49.25141, "lng": -123.127289}, "google_id": "ChIJY29n8q13hlQR_AuS1MP2CyI"},{"name": "Landmark Hotpot House", "address": "4023 Cambie St, Vancouver, BC V5Z 2X9, Canada", "phone": "+1 604-872-2868", "tags": ["restaurant", "food", "point_of_interest", "establishment"], "rating": 4, "website": "http://www.landmarkhotpot.com/", "location": {"lat": 49.2498509, "lng": -123.1155536}, "google_id": "ChIJx3HmbvJzhlQRHVKLidWMFCU"},{"name": "Kim Express", "address": "952 W King Edward Ave, Vancouver, BC V5Z 2E2, Canada", "phone": "+1 604-733-0911", "tags": ["restaurant", "food", "point_of_interest", "establishment"], "rating": 4.3, "website": "http://kimexpressburnaby.com/", "location": {"lat": 49.2485277, "lng": -123.1254524}, "google_id": "ChIJdWFNX5JzhlQR3IVLUjxVfOo"},{"name": "Osaka Sushi", "address": "960 W King Edward Ave, Vancouver, BC V5Z 2E2, Canada", "phone": "+1 604-558-0828", "tags": ["restaurant", "food", "point_of_interest", "establishment"], "rating": 3.8, "website": "https://kingedosakasushi.com/", "location": {"lat": 49.2485394, "lng": -123.1255618}, "google_id": "ChIJw_vfWJJzhlQR445pra31zWE"},{"name": "Copa Cafe", "address": "4032 Cambie St, Vancouver, BC V5Z 2X8, Canada", "phone": "+1 604-873-8974", "tags": ["restaurant", "food", "point_of_interest", "establishment"], "rating": 3.4, "website": "http://www.copacafe.ca/", "location": {"lat": 49.2497262, "lng": -123.1151312}, "google_id": "ChIJwX4pavJzhlQR9hl8wZl-9Yw"},{"name": "Corner 23", "address": "4008 Cambie St, Vancouver, BC V5Y 2H5, Canada", "phone": "+1 604-709-9788", "tags": ["restaurant", "food", "point_of_interest", "establishment"], "rating": 3.9, "website": "https://www.facebook.com/pages/Corner-23/129926833723598", "location": {"lat": 49.24997680000001, "lng": -123.1151383}, "google_id": "ChIJjQrr3vF-C0ERRkr-40XcsMk"},{"name": "Caf\u00e9 FortyOne", "address": "5750 Oak St, Vancouver, BC V6M 2V9, Canada", "phone": "+1 604-563-4141", "tags": ["restaurant", "food", "point_of_interest", "establishment"], "rating": 4.5, "website": "https://www.cafefortyone.ca/", "location": {"lat": 49.233466, "lng": -123.127615}, "google_id": "ChIJmY4h7Hh0hlQR5QpmeH9ZQLk"},{"name": "Thai Away Home", "address": "3315 Cambie St, Vancouver, BC V5Z 2W6, Canada", "phone": "+1 604-873-8424", "tags": ["restaurant", "food", "point_of_interest", "establishment"], "rating": 3.7, "website": "http://www.thaiaway.com/", "location": {"lat": 49.2557107, "lng": -123.1153488}, "google_id": "ChIJQ2QP2e5zhlQRbBBZdAiTsvE"},{"name": "Sushi 7", "address": "3488 Cambie St, Vancouver, BC V5Z 2W8, Canada", "phone": "+1 604-709-8150", "tags": ["meal_delivery", "meal_takeaway", "restaurant", "food", "point_of_interest", "establishment"], "rating": 4.1, "website": "http://www.sushi7.ca/?utm_source=google&utm_medium=organic&utm_campaign=google%20places", "location": {"lat": 49.25416949999999, "lng": -123.1150141}, "google_id": "ChIJaZeA8-5zhlQR63f2DmHb54Q"},{"name": "Soho Tea Room", "address": "3466 Cambie St, Vancouver, BC V5Y 2A9, Canada", "phone": "+1 604-873-3686", "tags": ["restaurant", "food", "point_of_interest", "establishment"], "rating": 3.6, "website": "http://www.sohotearoom.com/index.html", "location": {"lat": 49.2542698, "lng": -123.1149562}, "google_id": "ChIJET-x8-5zhlQRcwY2X-wJiuk"},{"name": "BierCraft Bistro", "address": "3305 Cambie St, Vancouver, BC V5Z 2W6, Canada", "phone": "+1 604-874-6900", "tags": ["restaurant", "food", "point_of_interest", "establishment"], "rating": 4.2, "website": "http://biercraft.com/cambie", "location": {"lat": 49.2558194, "lng": -123.1153698}, "google_id": "ChIJIRXU2e5zhlQR2rnY-FBKrR4"},{"name": "McDonald's", "address": "4445 Main St, Vancouver, BC V5V 3R2, Canada", "phone": "+1 604-872-8310", "tags": ["cafe", "restaurant", "food", "point_of_interest", "establishment"], "rating": 3.5, "website": "https://www.mcdonalds.com/ca/en-ca/restaurant-locator.html", "location": {"lat": 49.2452489, "lng": -123.1015217}, "google_id": "ChIJ16tNNPZzhlQRfFQd7blHDuc"},{"name": "Peninsula (Oakridge) Seafood Restaurant", "address": "650 W 41st Ave, Vancouver, BC V5Z 2M9, Canada", "phone": "+1 604-428-9999", "tags": ["restaurant", "food", "point_of_interest", "establishment"], "rating": 3.4, "website": "http://www.bandao.ca/", "location": {"lat": 49.23146, "lng": -123.1190893}, "google_id": "ChIJdY5QDHp0hlQRFjwF2coYEM4"},{"name": "KFC", "address": "650 W 41st Ave, Vancouver, BC V5Z 2M9, Canada", "phone": "+1 604-261-6813", "tags": ["meal_takeaway", "restaurant", "food", "point_of_interest", "establishment"], "rating": 3.1, "website": "https://www.skipthedishes.com/kfc-avenue", "location": {"lat": 49.2316275, "lng": -123.1167918}, "google_id": "ChIJNy2zr3B0hlQROHY3IKqQPvw"},{"name": "Pho Xe Lua 24", "address": "3346 Cambie St, Vancouver, BC V5Z 2W5, Canada", "phone": "+1 604-876-6618", "tags": ["restaurant", "food", "point_of_interest", "establishment"], "rating": 4.2, "website": "", "location": {"lat": 49.2554106, "lng": -123.1149547}, "google_id": "ChIJI1GP3u5zhlQRY0GMwIpNj4w"},{"name": "Caf\u00e9 Gloucester", "address": "3338 Cambie St, Vancouver, BC V5Z 2W5, Canada", "phone": "+1 604-873-3338", "tags": ["cafe", "restaurant", "food", "point_of_interest", "establishment"], "rating": 3.9, "website": "", "location": {"lat": 49.2555483, "lng": -123.1149548}, "google_id": "ChIJfdqU3u5zhlQRuyU2sQvVfWY"},{"name": "A&W Canada", "address": "650 W 41st Ave W, Vancouver, BC V5Z 2M9, Canada", "phone": "+1 604-266-3660", "tags": ["restaurant", "food", "point_of_interest", "establishment"], "rating": 3.8, "website": "http://aw.ca/", "location": {"lat": 49.23133, "lng": -123.116966}, "google_id": "ChIJDe-fm3B0hlQRUljOxbFz95M"},{"name": "Mp Station", "address": "3318 Cambie St, Vancouver, BC V5Z 2W5, Canada", "phone": "+1 778-522-3191", "tags": ["restaurant", "food", "point_of_interest", "establishment"], "rating": 3.7, "website": "http://www.ttob.ca/", "location": {"lat": 49.2556115, "lng": -123.1149545}, "google_id": "ChIJ2dzM2O5zhlQRtWKkDzfKzO8"},{"name": "Rayhan", "address": "3170 Oak St, Vancouver, BC V6H 2L1, Canada", "phone": "+1 604-731-3553", "tags": ["restaurant", "food", "point_of_interest", "establishment"], "rating": 4.4, "website": "http://www.rayhanrestaurant.ca/", "location": {"lat": 49.25732659999999, "lng": -123.1269899}, "google_id": "ChIJU8DtYepzhlQR9IUz37U4e5w"},{"name": "Subway", "address": "3297 Cambie St #2, Vancouver, BC V5Z 2W3, Canada", "phone": "+1 604-336-2755", "tags": ["restaurant", "food", "point_of_interest", "establishment"], "rating": 3.3, "website": "http://www.subway.com/", "location": {"lat": 49.256048, "lng": -123.1153769}, "google_id": "ChIJQwD71-5zhlQRSH4AWbRh098"},{"name": "Feedback Feeds - Restaurants Satisfaction Metrics", "address": "592 W 16th Ave #206, Vancouver, BC V5Z 1S3, Canada", "phone": "+1 604-725-4666", "tags": ["restaurant", "food", "point_of_interest", "establishment"], "rating": "", "website": "http://www.feedbackfeeds.com/", "location": {"lat": 49.2569518, "lng": -123.1181343}, "google_id": "ChIJzxEAPelzhlQRO7IEs1Ew4Iw"},{"name": "Grand Honour Restaurant \u963f\u4e00\u9c8d\u9c7c", "address": "5701 Granville St, Vancouver, BC V6M 4J7, Canada", "phone": "+1 604-263-3983", "tags": ["restaurant", "food", "point_of_interest", "establishment"], "rating": 3.6, "website": "", "location": {"lat": 49.2340116, "lng": -123.140195}, "google_id": "ChIJ5byQMYBzhlQRb2GqFTVT4vA"},{"name": "Truffles fine foods", "address": "5151 Oak St, Vancouver, BC V6M 4H1, Canada", "phone": "+1 604-505-4961", "tags": ["restaurant", "cafe", "food", "point_of_interest", "establishment"], "rating": 3.6, "website": "https://trufflesfinefoods.com/", "location": {"lat": 49.2394052, "lng": -123.1288986}, "google_id": "ChIJ2bsre2BwhlQR2Nn_AMb35Rg"},{"name": "Nava Creative Kosher Cuisine", "address": "950 W 41st Ave, Vancouver, BC V5Z 2N7, Canada", "phone": "+1 604-676-7632", "tags": ["restaurant", "food", "point_of_interest", "establishment"], "rating": 4.8, "website": "", "location": {"lat": 49.23344280000001, "lng": -123.1267225}, "google_id": "ChIJta5c93h0hlQRocLRO2lgpz4"},{"name": "City 1 Cafe", "address": "954 W King Edward Ave, Vancouver, BC V5Z 2E2, Canada", "phone": "+1 604-569-1199", "tags": ["restaurant", "food", "point_of_interest", "establishment"], "rating": 3.7, "website": "", "location": {"lat": 49.24854089999999, "lng": -123.1254517}, "google_id": "ChIJM7e1WJJzhlQRpAKFOufgaIk"},{"name": "Flying Wedge Pizza Co", "address": "3357 Cambie St, Vancouver, BC V5Z 2W6, Canada", "phone": "+1 604-874-8284", "tags": ["meal_delivery", "restaurant", "food", "point_of_interest", "establishment"], "rating": 3.9, "website": "http://www.flyingwedge.com/", "location": {"lat": 49.2555016, "lng": -123.1154329}, "google_id": "ChIJScApi-5zhlQR3HDwy5T_IC8"},{"name": "Long's Noodle House", "address": "4853 Main St, Vancouver, BC V5V 3R9, Canada", "phone": "+1 604-879-7879", "tags": ["restaurant", "food", "point_of_interest", "establishment"], "rating": 4.2, "website": "", "location": {"lat": 49.2412341, "lng": -123.1017681}, "google_id": "ChIJQwf3LAp0hlQRZYWjyfwt59k"},{"name": "Mimibuloveme", "address": "3A2, 5556 Cambie St, Vancouver, BC V5Z 3A2, Canada", "phone": "+1 604-327-6368", "tags": ["restaurant", "food", "point_of_interest", "establishment"], "rating": 4.2, "website": "http://www.facebook.com/Mimibuloveme/", "location": {"lat": 49.2348617, "lng": -123.1158336}, "google_id": "ChIJx2a5w3Z0hlQR6qaEyEFfMrw"},{"name": "Sun Garden Chinese Restaurant", "address": "3832 Oak St, Vancouver, BC V6H 2M5, Canada", "phone": "+1 604-733-3922", "tags": ["meal_delivery", "meal_takeaway", "restaurant", "food", "point_of_interest", "establishment"], "rating": 3.8, "website": "http://www.sungardenmenu.ca/?utm_source=google&utm_medium=organic&utm_campaign=google%20places", "location": {"lat": 49.2514875, "lng": -123.1272813}, "google_id": "ChIJhzuAa5NzhlQRIG-P1XOisAo"},{"name": "Copa Management Ltd", "address": "4030 Cambie St, Vancouver, BC V5Z 2X8, Canada", "phone": "+1 604-873-8974", "tags": ["restaurant", "food", "point_of_interest", "establishment"], "rating": 2.7, "website": "https://www.copacafe.ca/", "location": {"lat": 49.2497211, "lng": -123.1152123}, "google_id": "ChIJuRQLafJzhlQRkndxOp7U5ok"},{"name": "Zaccary's Pizza", "address": "3150 Oak St, Vancouver, BC V6H 2L1, Canada", "phone": "+1 604-737-1933", "tags": ["meal_takeaway", "restaurant", "food", "point_of_interest", "establishment"], "rating": 4.5, "website": "http://zaccaryspizza.com/", "location": {"lat": 49.2574657, "lng": -123.1270033}, "google_id": "ChIJU4Q4YupzhlQRxaxlN0N6cXg"},{"name": "Extreme Pita", "address": "Women's & Children Hospital, 4500 Oak St, Vancouver, BC V6H 3N1, Canada", "phone": "+1 778-888-6012", "tags": ["restaurant", "food", "point_of_interest", "establishment"], "rating": 4.5, "website": "https://extremepita.com/view-all-locations/?utm_source=G&utm_medium=LPM&utm_campaign=MTY", "location": {"lat": 49.24437879999999, "lng": -123.1241862}, "google_id": "ChIJ7bOdc-1zhlQRuhvct8pcZ9Q"},{"name": "Mandarin Hong Kong Cafe \u6587\u83ef\u9910\u5ef3", "address": "904 W King Edward Ave, Vancouver, BC V5Z 2E2, Canada", "phone": "+1 604-620-0518", "tags": ["restaurant", "food", "point_of_interest", "establishment"], "rating": 3.5, "website": "", "location": {"lat": 49.2486262, "lng": -123.1252502}, "google_id": "ChIJgUcbiZJzhlQR1FAQKMpVJUU"},{"name": "Zun Chinese Dining \u5364\u6c34\u7687", "address": "3424 Cambie St, Vancouver, BC V5Z 2Z5, Canada", "phone": "+1 778-723-3309", "tags": ["restaurant", "food", "point_of_interest", "establishment"], "rating": "", "website": "", "location": {"lat": 49.24033439999999, "lng": -123.1179682}, "google_id": "ChIJhaeSFUpzhlQRRmNn36rivV4"},{"name": "Subway", "address": "3890 Oak St, Vancouver, BC V6H 2M5, Canada", "phone": "+1 604-732-4576", "tags": ["restaurant", "food", "point_of_interest", "establishment"], "rating": 3.4, "website": "http://www.subway.com/", "location": {"lat": 49.2509438, "lng": -123.1270301}, "google_id": "ChIJdVXmEZNzhlQRY-Extl-6pdU"},{"name": "Sushi TonTon", "address": "4018 Cambie St, Vancouver, BC V5Y 2H5, Canada", "phone": "+1 604-428-2742", "tags": ["restaurant", "food", "point_of_interest", "establishment"], "rating": 4.1, "website": "http://www.tontonsushi.ca/", "location": {"lat": 49.24985170000001, "lng": -123.1150166}, "google_id": "ChIJDxxK9V9zhlQRKohrRXdNE-w"},{"name": "Soupspoons", "address": "3381 Cambie St #414, Vancouver, BC V5Z 4R3, Canada", "phone": "+1 604-765-1824", "tags": ["restaurant", "food", "point_of_interest", "establishment"], "rating": 5, "website": "http://www.soupspoons.com/", "location": {"lat": 49.2552537, "lng": -123.1154207}, "google_id": "ChIJoQzDy19xhlQRrO0Kfel39y8"},{"name": "Subway", "address": "650 West 41st Avenue F2 Oakridge Centre, Vancouver, BC V5Z 2M9, Canada", "phone": "+1 604-267-2211", "tags": ["restaurant", "food", "point_of_interest", "establishment"], "rating": 2.9, "website": "http://www.subway.com/", "location": {"lat": 49.2316404, "lng": -123.1169822}, "google_id": "ChIJf5I80RN0hlQREVQXBpVHHpg"},{"name": "Hachibei", "address": "778 W 16th Ave, Vancouver, BC V5Z 4L5, Canada", "phone": "+1 604-879-3357", "tags": ["restaurant", "food", "point_of_interest", "establishment"], "rating": 4.2, "website": "https://www.facebook.com/HachibeiRestaurant/", "location": {"lat": 49.2569287, "lng": -123.1215773}, "google_id": "ChIJJ2FL1OtzhlQRfl7QqYXcCWU"},{"name": "Hey Y'All!", "address": "Vancouver, BC V5V 3H4, Canada", "phone": "", "tags": ["restaurant", "food", "point_of_interest", "establishment"], "rating": 5, "website": "https://www.heyyallsoutherntea.com/", "location": {"lat": 49.2425398, "lng": -123.1057564}, "google_id": "ChIJrUIRdgp0hlQRw5Bf0w1VzZk"},{"name": "Xing Fu Tang @Cambie", "address": "3432 Cambie St, Vancouver, BC V5Z 2W8, Canada", "phone": "+1 604-707-0275", "tags": ["cafe", "restaurant", "food", "point_of_interest", "establishment"], "rating": 3.8, "website": "http://www.xingfutang.ca/", "location": {"lat": 49.2545298, "lng": -123.114907}, "google_id": "ChIJRao4JcpzhlQR_xf7JgJ3NYc"},{"name": "ZUN Chinese Dining", "address": "3424 Cambie St, Vancouver, BC V5Z 2W8, Canada", "phone": "+1 778-723-3308", "tags": ["restaurant", "food", "point_of_interest", "establishment"], "rating": 3.5, "website": "", "location": {"lat": 49.25458620000001, "lng": -123.1149963}, "google_id": "ChIJQa_ms0NzhlQRGfpbdUNi7Ts"},{"name": "Viet House", "address": "3420 Cambie St, Vancouver, BC V5Z 2W8, Canada", "phone": "+1 778-379-9388", "tags": ["restaurant", "food", "point_of_interest", "establishment"], "rating": 4.4, "website": "http://www.viethouserestaurant.com/", "location": {"lat": 49.2546251, "lng": -123.1149973}, "google_id": "ChIJvcjK7-5zhlQR_zXenPNFW5k"},{"name": "Las Tortas Mexican Gourmet Sandwiches", "address": "3353 Cambie St, Vancouver, BC V5Z 2W6, Canada", "phone": "+1 604-569-1402", "tags": ["restaurant", "food", "point_of_interest", "establishment"], "rating": 4.6, "website": "http://www.lastortas.ca/", "location": {"lat": 49.25552, "lng": -123.115286}, "google_id": "ChIJM7j42-5zhlQRjJrzbZziM2Y"},{"name": "Teriyaki Experience", "address": "650 W 41st Ave, Vancouver, BC V5Z 2M9, Canada", "phone": "+1 604-266-8476", "tags": ["restaurant", "food", "point_of_interest", "establishment"], "rating": 1.9, "website": "https://www.teriyakiexperience.com/", "location": {"lat": 49.2313115, "lng": -123.1171249}, "google_id": "ChIJFQ8vNHd0hlQR9Im8MPyqgdw"},{"name": "Taco Luis", "address": "650 W 41st Ave, Vancouver, BC V5Z 4H2, Canada", "phone": "+1 778-881-6825", "tags": ["restaurant", "food", "point_of_interest", "establishment"], "rating": 3.7, "website": "", "location": {"lat": 49.2316481, "lng": -123.1168643}, "google_id": "ChIJneVRxnB0hlQRL7c3fBnRQUw"},{"name": "Sorella", "address": "3369 Cambie St, Vancouver, BC V5Z 2W6, Canada", "phone": "+1 604-873-3131", "tags": ["restaurant", "food", "point_of_interest", "establishment"], "rating": 4.5, "website": "http://sorellayvr.com/", "location": {"lat": 49.255387, "lng": -123.1154507}, "google_id": "ChIJN7uM3O5zhlQRlDuVujfLUUg"},{"name": "My Toan", "address": "650 W 41st Ave, Vancouver, BC V5Z 2M9, Canada", "phone": "+1 604-325-2985", "tags": ["restaurant", "food", "point_of_interest", "establishment"], "rating": 3.6, "website": "http://mytoan.ca/", "location": {"lat": 49.2316391, "lng": -123.1170399}, "google_id": "ChIJrYLamXB0hlQR4bVES0--VuM"},{"name": "Tokyo John Sushi", "address": "3365 Cambie St, Vancouver, BC V5Z 2W6, Canada", "phone": "+1 604-872-3434", "tags": ["restaurant", "food", "point_of_interest", "establishment"], "rating": 4.1, "website": "https://www.tokyojohnsushi.com/", "location": {"lat": 49.2554333, "lng": -123.1154416}, "google_id": "ChIJL2tf2e5zhlQRKPP8Jegc6zQ"},{"name": "Indian Junction Bar & Grill", "address": "3364 Cambie St, Vancouver, BC V5Z 2W5, Canada", "phone": "+1 604-875-6999", "tags": ["restaurant", "food", "point_of_interest", "establishment"], "rating": 4.7, "website": "https://www.indianjunction.ca/", "location": {"lat": 49.2552634, "lng": -123.1149516}, "google_id": "ChIJCw5jUalzhlQRURH3a2fcp_Y"},{"name": "Crepe Delicious", "address": "650 W 41st Ave, Vancouver, BC V5Z 2M9, Canada", "phone": "+1 604-332-7780", "tags": ["restaurant", "food", "point_of_interest", "store", "establishment"], "rating": 3, "website": "https://www.crepedelicious.com/", "location": {"lat": 49.23153009999999, "lng": -123.1173852}, "google_id": "ChIJ5wn-dHp0hlQRynW2vpazluM"}]