[{"name": "Subway", "address": "8347 Granville St, Vancouver, BC V6P 4Z8, Canada", "phone": "+1 604-263-5515", "tags": ["meal_takeaway", "restaurant", "food", "point_of_interest", "establishment"], "rating": 3.7, "website": "http://www.subway.com/", "location": {"lat": 49.211083, "lng": -123.1406811}, "google_id": "ChIJK7VneZN0hlQRaEpkDjlfPpo"},{"name": "Cravings Restaurant And Sports Bar", "address": "8808 Osler St, Vancouver, BC V6P 4G2, Canada", "phone": "+1 778-379-3127", "tags": ["meal_takeaway", "bar", "restaurant", "food", "point_of_interest", "establishment"], "rating": 3.9, "website": "https://www.cravings.ca/", "location": {"lat": 49.2052111, "lng": -123.1311545}, "google_id": "ChIJK_2LmO50hlQRlSJC6tB7H6Y"},{"name": "Sushi King House", "address": "8176 Granville St, Vancouver, BC V6P 4Z6, Canada", "phone": "+1 604-269-3555", "tags": ["restaurant", "food", "point_of_interest", "establishment"], "rating": 4.2, "website": "", "location": {"lat": 49.2116711, "lng": -123.1402055}, "google_id": "ChIJFeHunZN0hlQRzqvyeSQDmZY"},{"name": "Panago Pizza", "address": "8333 Granville St, Vancouver, BC V6P 4Z8, Canada", "phone": "+1 866-310-0001", "tags": ["meal_delivery", "meal_takeaway", "restaurant", "food", "point_of_interest", "establishment"], "rating": 4.1, "website": "http://www.panago.com/", "location": {"lat": 49.21111719999999, "lng": -123.1408204}, "google_id": "ChIJ-9KDfJN0hlQRw5KliIJDOGQ"},{"name": "Red Star", "address": "8298 Granville St, Vancouver, BC V6P 4Z4, Canada", "phone": "+1 604-261-8389", "tags": ["restaurant", "food", "point_of_interest", "establishment"], "rating": 4, "website": "https://www.redstarvancouver.com/", "location": {"lat": 49.21113709999999, "lng": -123.1400707}, "google_id": "ChIJGYSUD4FxhlQRPynZNtbWUDM"},{"name": "Denny's", "address": "622 SW Marine Dr, Vancouver, BC V6P 5Y1, Canada", "phone": "+1 604-325-3712", "tags": ["restaurant", "food", "point_of_interest", "establishment"], "rating": 3.9, "website": "https://locations.dennys.ca/BC/VANCOUVER/247768", "location": {"lat": 49.2088243, "lng": -123.1193474}, "google_id": "ChIJJzC1T_F0hlQR588oL97EMLg"},{"name": "Samurai Sushi House", "address": "5888 Cambie St, Vancouver, BC V5Z 3A8, Canada", "phone": "+1 604-325-8597", "tags": ["restaurant", "food", "point_of_interest", "establishment"], "rating": 3.9, "website": "", "location": {"lat": 49.2318904, "lng": -123.1159603}, "google_id": "ChIJo_2vlHB0hlQR6RN_OGTAvBw"},{"name": "White Spot", "address": "613-A, 650 W 41st Ave, Vancouver, BC V5Z 4H2, Canada", "phone": "+1 604-261-2820", "tags": ["restaurant", "food", "point_of_interest", "establishment"], "rating": 3.9, "website": "http://www.whitespot.ca/", "location": {"lat": 49.2333135, "lng": -123.1175456}, "google_id": "ChIJFQ8vNHd0hlQRahRVfx1oEM8"},{"name": "New York Fries - Oakridge Centre", "address": "650 W 41st Ave Unit F11, Vancouver, BC V5Z 2M9, Canada", "phone": "+1 604-267-0242", "tags": ["restaurant", "food", "point_of_interest", "establishment"], "rating": 3.5, "website": "http://www.newyorkfries.com/", "location": {"lat": 49.2313145, "lng": -123.1171957}, "google_id": "ChIJFQ8vNHd0hlQRAZ6f716V8BQ"},{"name": "White Spot", "address": "1041 SW Marine Dr, Vancouver, BC V6P 6L6, Canada", "phone": "+1 604-263-6667", "tags": ["restaurant", "food", "point_of_interest", "establishment"], "rating": 3.6, "website": "http://www.whitespot.ca/", "location": {"lat": 49.204754, "lng": -123.1307936}, "google_id": "ChIJsR4Wx-50hlQRraBRLz20in0"},{"name": "Togo Sushi Oakridge Center", "address": "650 W 41st Ave, Vancouver, BC V5Z 4H2, Canada", "phone": "", "tags": ["restaurant", "food", "point_of_interest", "establishment"], "rating": 3.5, "website": "http://www.togosushi.ca/", "location": {"lat": 49.23287199999999, "lng": -123.117689}, "google_id": "ChIJFQ8vNHd0hlQRPLBP1rHvzqQ"},{"name": "A&W Canada", "address": "6491 Oak St, Vancouver, BC V6M 2W7, Canada", "phone": "+1 604-266-0502", "tags": ["restaurant", "food", "point_of_interest", "establishment"], "rating": 3.9, "website": "http://aw.ca/", "location": {"lat": 49.22675, "lng": -123.128831}, "google_id": "ChIJuTRXDZ9zhlQRuGKaUegoK7g"},{"name": "Domino's Pizza", "address": "6469 Oak St, Vancouver, BC V6M 2W7, Canada", "phone": "+1 604-264-0300", "tags": ["meal_delivery", "meal_takeaway", "restaurant", "food", "point_of_interest", "establishment"], "rating": 3.4, "website": "https://pizza.dominos.ca/Vancouver-British-Columbia-10069/", "location": {"lat": 49.2269424, "lng": -123.1287783}, "google_id": "ChIJsXHu2yVGK4gRaCIVKR3NTuw"},{"name": "Chuan Yue", "address": "8329 Oak St, Vancouver, BC V6P 4A9, Canada", "phone": "+1 604-336-6238", "tags": ["restaurant", "food", "point_of_interest", "establishment"], "rating": 4.2, "website": "https://chuanyuechinese.com/", "location": {"lat": 49.2104689, "lng": -123.1304716}, "google_id": "ChIJx_ejbmbZhVQRuXTDuLRZJUE"},{"name": "Pizza Hut", "address": "8155 Granville St, Vancouver, BC V6P 4Z6, Canada", "phone": "+1 604-269-9116", "tags": ["meal_delivery", "meal_takeaway", "restaurant", "food", "point_of_interest", "establishment"], "rating": 3.4, "website": "https://www.pizzahut.ca/store-details/store-R31101/pizza-hut-Vancouver", "location": {"lat": 49.2121552, "lng": -123.1409273}, "google_id": "ChIJj50jnpN0hlQRTgOfkC4fqkI"},{"name": "Sushi Wow", "address": "8273 Granville St, Vancouver, BC V6P 4Z6, Canada", "phone": "+1 604-261-8112", "tags": ["restaurant", "food", "point_of_interest", "establishment"], "rating": 4.4, "website": "http://wowsushi.wixsite.com/home", "location": {"lat": 49.2116562, "lng": -123.1407218}, "google_id": "ChIJh0gInZN0hlQRIu7VobALFYE"},{"name": "Talay Thai Restaurant", "address": "8369 Granville St, Vancouver, BC V6P 4Z8, Canada", "phone": "+1 604-568-2012", "tags": ["restaurant", "food", "point_of_interest", "establishment"], "rating": 4.3, "website": "http://www.talaythai.net/", "location": {"lat": 49.2107661, "lng": -123.1407372}, "google_id": "ChIJJXtmfZN0hlQRhE4-nqoFfVw"},{"name": "Subway", "address": "644 SW Marine Dr Unit 101, Vancouver, BC V6P 5Y1, Canada", "phone": "+1 604-325-2575", "tags": ["restaurant", "food", "point_of_interest", "establishment"], "rating": 3.8, "website": "http://www.subway.com/", "location": {"lat": 49.20857, "lng": -123.1197365}, "google_id": "ChIJy8m911h0hlQRVlxnrYOEqvM"},{"name": "Freshslice Pizza", "address": "498 SW Marine Dr, Vancouver, BC V5X 0C4, Canada", "phone": "+1 604-630-0030", "tags": ["restaurant", "food", "point_of_interest", "establishment"], "rating": 4.1, "website": "http://www.freshslice.com/", "location": {"lat": 49.2099567, "lng": -123.1168429}, "google_id": "ChIJ46UHRKx1hlQRPlovXNckj8g"},{"name": "Cafe Mai-Mai", "address": "8636 Granville St, Vancouver, BC V6P 5A1, Canada", "phone": "+1 604-428-4191", "tags": ["restaurant", "food", "point_of_interest", "establishment"], "rating": 4.3, "website": "http://www.cafe-mai-mai.com/", "location": {"lat": 49.2080893, "lng": -123.1400808}, "google_id": "ChIJgX5WN-t0hlQRx0_WW40f_V4"},{"name": "A&W Canada", "address": "468 SW Marine Dr, Vancouver, BC V5X 0C4, Canada", "phone": "+1 604-327-0468", "tags": ["restaurant", "food", "point_of_interest", "establishment"], "rating": 4, "website": "http://aw.ca/", "location": {"lat": 49.20936399999999, "lng": -123.116783}, "google_id": "ChIJUaeYv_Z0hlQRj_EpoX3KYy8"},{"name": "Peninsula (Oakridge) Seafood Restaurant", "address": "650 W 41st Ave, Vancouver, BC V5Z 2M9, Canada", "phone": "+1 604-428-9999", "tags": ["restaurant", "food", "point_of_interest", "establishment"], "rating": 3.4, "website": "http://www.bandao.ca/", "location": {"lat": 49.23146, "lng": -123.1190893}, "google_id": "ChIJdY5QDHp0hlQRFjwF2coYEM4"},{"name": "Caf\u00e9 FortyOne", "address": "5750 Oak St, Vancouver, BC V6M 2V9, Canada", "phone": "+1 604-563-4141", "tags": ["restaurant", "food", "point_of_interest", "establishment"], "rating": 4.5, "website": "https://www.cafefortyone.ca/", "location": {"lat": 49.233466, "lng": -123.127615}, "google_id": "ChIJmY4h7Hh0hlQR5QpmeH9ZQLk"},{"name": "A&W Canada", "address": "650 W 41st Ave W, Vancouver, BC V5Z 2M9, Canada", "phone": "+1 604-266-3660", "tags": ["restaurant", "food", "point_of_interest", "establishment"], "rating": 3.8, "website": "http://aw.ca/", "location": {"lat": 49.23133, "lng": -123.116966}, "google_id": "ChIJDe-fm3B0hlQRUljOxbFz95M"},{"name": "Triple O's Langara College", "address": "100 W 49th Ave, Vancouver, BC V5Y 2Z6, Canada", "phone": "+1 604-323-5295", "tags": ["restaurant", "food", "point_of_interest", "establishment"], "rating": 3.3, "website": "http://www.tripleos.com/", "location": {"lat": 49.22460400000001, "lng": -123.107379}, "google_id": "ChIJ4XauU290hlQR8ay1ORphF40"},{"name": "KFC", "address": "650 W 41st Ave, Vancouver, BC V5Z 2M9, Canada", "phone": "+1 604-261-6813", "tags": ["meal_takeaway", "restaurant", "food", "point_of_interest", "establishment"], "rating": 3.1, "website": "https://www.skipthedishes.com/kfc-avenue", "location": {"lat": 49.2316275, "lng": -123.1167918}, "google_id": "ChIJNy2zr3B0hlQROHY3IKqQPvw"},{"name": "Grand Honour Restaurant \u963f\u4e00\u9c8d\u9c7c", "address": "5701 Granville St, Vancouver, BC V6M 4J7, Canada", "phone": "+1 604-263-3983", "tags": ["restaurant", "food", "point_of_interest", "establishment"], "rating": 3.6, "website": "", "location": {"lat": 49.2340116, "lng": -123.140195}, "google_id": "ChIJ5byQMYBzhlQRb2GqFTVT4vA"},{"name": "Applause Japanese Restaurant", "address": "8269 Oak St, Vancouver, BC V6P 4A8, Canada", "phone": "+1 604-263-8968", "tags": ["meal_delivery", "meal_takeaway", "restaurant", "food", "point_of_interest", "establishment"], "rating": 4.1, "website": "https://www.applauserestaurant.ca/", "location": {"lat": 49.2109319, "lng": -123.1305183}, "google_id": "ChIJC2NtpPJ0hlQROZoNC1bL5Z4"},{"name": "Pho Hoa Noodle Soup | Oak", "address": "1011 W 49th Ave, Vancouver, BC V6M 2W7, Canada", "phone": "+1 604-263-3555", "tags": ["restaurant", "food", "point_of_interest", "establishment"], "rating": 3.1, "website": "http://www.phohoa.com/", "location": {"lat": 49.2269521, "lng": -123.1287229}, "google_id": "ChIJWzznCX10hlQRng2V3Gi1hIM"},{"name": "McDonald's", "address": "160 SW Marine Dr, Vancouver, BC V5X 2R1, Canada", "phone": "+1 604-718-1043", "tags": ["cafe", "restaurant", "food", "point_of_interest", "establishment"], "rating": 3.5, "website": "https://www.mcdonalds.com/ca/en-ca/restaurant-locator.html", "location": {"lat": 49.2118797, "lng": -123.1092291}, "google_id": "ChIJnRUJyFh0hlQRjYWSUB-fnZY"},{"name": "McDonald's", "address": "830 SW Marine Dr, Vancouver, BC V6P 5Y8, Canada", "phone": "+1 604-718-1177", "tags": ["cafe", "restaurant", "food", "point_of_interest", "establishment"], "rating": 3.6, "website": "https://www.mcdonalds.com/ca/en-ca/restaurant-locator.html", "location": {"lat": 49.2060663, "lng": -123.1254973}, "google_id": "ChIJk00dH-50hlQRuFg6Si9b_YM"},{"name": "Mirchi", "address": "7964 Granville St, Vancouver, BC V6P 4Z2, Canada", "phone": "+1 604-266-7000", "tags": ["restaurant", "food", "point_of_interest", "establishment"], "rating": 4.3, "website": "https://mirchirestaurant.com/", "location": {"lat": 49.21355800000001, "lng": -123.140141}, "google_id": "ChIJsY-AzpN0hlQRUDNi12On4Og"},{"name": "Sushi Mura", "address": "6485 Oak St, Vancouver, BC V6M 2W7, Canada", "phone": "+1 604-428-1145", "tags": ["restaurant", "food", "point_of_interest", "establishment"], "rating": 4.1, "website": "https://sushi-mura-japanese-restaurant.business.site/?utm_source=gmb&utm_medium=referral", "location": {"lat": 49.2268638, "lng": -123.1288576}, "google_id": "ChIJGWYxCH10hlQRLARrdkVpCsY"},{"name": "Milltown Bar & Grill", "address": "9191 Bentley St #101, Vancouver, BC V6P 6G2, Canada", "phone": "+1 604-269-2348", "tags": ["bar", "restaurant", "food", "point_of_interest", "establishment"], "rating": 4.3, "website": "http://milltownbar.com/", "location": {"lat": 49.2023399, "lng": -123.1443201}, "google_id": "ChIJO9_NhsF0hlQRM9o_-ipikuQ"},{"name": "Parm'z Pizza Factory", "address": "8319 Oak St, Vancouver, BC V6P 4A9, Canada", "phone": "+1 604-264-8484", "tags": ["restaurant", "food", "point_of_interest", "establishment"], "rating": 4, "website": "https://www.parmzpizzafactory.com/", "location": {"lat": 49.2105495, "lng": -123.1304717}, "google_id": "ChIJmTgHoPJ0hlQRe34FUA9CSWQ"},{"name": "Wendy's", "address": "10 SE Marine Dr, Vancouver, BC V5X 2S2, Canada", "phone": "+1 604-327-2912", "tags": ["restaurant", "food", "point_of_interest", "establishment"], "rating": 3.9, "website": "https://locations.wendys.com/canada/bc/vancouver/10-s-e-marine-dr?utm_source=Yext&utm_medium=Google_My_Business&utm_campaign=Local_Search", "location": {"lat": 49.2119168, "lng": -123.1061545}, "google_id": "ChIJsyHnGVl0hlQRyCDjNCmsKmI"},{"name": "Nava Creative Kosher Cuisine", "address": "950 W 41st Ave, Vancouver, BC V5Z 2N7, Canada", "phone": "+1 604-676-7632", "tags": ["restaurant", "food", "point_of_interest", "establishment"], "rating": 4.8, "website": "", "location": {"lat": 49.23344280000001, "lng": -123.1267225}, "google_id": "ChIJta5c93h0hlQRocLRO2lgpz4"},{"name": "Johnny's Pizza Factory", "address": "7970 Granville St, Vancouver, BC V6P 4Z2, Canada", "phone": "+1 604-688-3313", "tags": ["restaurant", "food", "point_of_interest", "establishment"], "rating": 1.9, "website": "http://www.johnnys-pizza-factory.com/", "location": {"lat": 49.2134752, "lng": -123.1401284}, "google_id": "ChIJzcH-stVzhlQRT_gSmyXfYIg"},{"name": "Freshslice Pizza", "address": "8618 Granville St, Vancouver, BC V6P 5A1, Canada", "phone": "+1 604-569-3111", "tags": ["meal_delivery", "meal_takeaway", "restaurant", "food", "point_of_interest", "establishment"], "rating": 4.4, "website": "http://www.freshslice.com/", "location": {"lat": 49.208208, "lng": -123.140128}, "google_id": "ChIJkbCrN-t0hlQRccJLDCzYmRI"},{"name": "Jasmine Flower Shanghai Cuisine", "address": "8532 Granville St, Vancouver, BC V6P 4Z7, Canada", "phone": "+1 604-264-7663", "tags": ["restaurant", "food", "point_of_interest", "establishment"], "rating": 3.9, "website": "", "location": {"lat": 49.2092285, "lng": -123.140248}, "google_id": "ChIJS9atsZR0hlQRjSA4VBcF3lg"},{"name": "Wang's Taiwan Beef Noodle House", "address": "8390 Granville St, Vancouver, BC V6P 4Z7, Canada", "phone": "+1 604-266-7966", "tags": ["restaurant", "food", "point_of_interest", "establishment"], "rating": 3.9, "website": "", "location": {"lat": 49.2101872, "lng": -123.1401129}, "google_id": "ChIJU1XYoZR0hlQRidzWBktFPJI"},{"name": "McDonald's", "address": "8631 Granville Avenue, Vancouver, BC V6P 5A2, Canada", "phone": "+1 604-718-1142", "tags": ["cafe", "restaurant", "food", "point_of_interest", "establishment"], "rating": 3.4, "website": "https://www.mcdonalds.com/ca/en-ca/restaurant-locator.html", "location": {"lat": 49.2081426, "lng": -123.1409376}, "google_id": "ChIJV-fjMOt0hlQRFHheEv4Yop8"},{"name": "Original Tandoori Kitchen", "address": "7215 Main St, Vancouver, BC V5X 3J3, Canada", "phone": "+1 604-327-8900", "tags": ["restaurant", "food", "point_of_interest", "establishment"], "rating": 3.8, "website": "http://originaltandoorikitchens.com/", "location": {"lat": 49.2191404, "lng": -123.1020607}, "google_id": "ChIJDf5DMl10hlQRSkJuZs97PG4"},{"name": "Subway", "address": "650 West 41st Avenue F2 Oakridge Centre, Vancouver, BC V5Z 2M9, Canada", "phone": "+1 604-267-2211", "tags": ["restaurant", "food", "point_of_interest", "establishment"], "rating": 2.9, "website": "http://www.subway.com/", "location": {"lat": 49.2316404, "lng": -123.1169822}, "google_id": "ChIJf5I80RN0hlQREVQXBpVHHpg"},{"name": "\u522b\u4e0d\u540c\u8336\u9910\u5385 Ming Tak Hong Kong Style Restaurant", "address": "8363 Granville St, Vancouver, BC V6P 4Z8, Canada", "phone": "+1 604-263-1388", "tags": ["restaurant", "food", "point_of_interest", "establishment"], "rating": 3.6, "website": "http://www.mingtak.ca/", "location": {"lat": 49.21083340000001, "lng": -123.1407047}, "google_id": "ChIJIy0YfZN0hlQR5GiftEFdvLk"},{"name": "Dylan's", "address": "561 W 57th Ave, Vancouver, BC V5X 3V8, Canada", "phone": "+1 604-323-8064", "tags": ["restaurant", "food", "point_of_interest", "establishment"], "rating": 4, "website": "", "location": {"lat": 49.21942550000001, "lng": -123.1180213}, "google_id": "ChIJ21kdsmF0hlQRXIljFG2cQYA"},{"name": "Subway", "address": "6471 Oak St, Vancouver, BC V6M 2W7, Canada", "phone": "+1 604-266-1998", "tags": ["restaurant", "food", "point_of_interest", "establishment"], "rating": 3.9, "website": "http://www.subway.com/", "location": {"lat": 49.2269097, "lng": -123.1287825}, "google_id": "ChIJRQspoX10hlQRjJZJFbCvUOc"},{"name": "G8 Taiwan Cuisine", "address": "8335 Oak St, Vancouver, BC V6P 4A9, Canada", "phone": "+1 604-266-8718", "tags": ["restaurant", "food", "point_of_interest", "establishment"], "rating": 4, "website": "https://g8taiwan.com/", "location": {"lat": 49.2104102, "lng": -123.1306356}, "google_id": "ChIJD5MWYO10hlQRknG6bqGDCTs"},{"name": "The Meat Up \u805a\u70b9\u4e32\u5427", "address": "7994 Granville St, Vancouver, BC V6P 4Z2, Canada", "phone": "+1 604-428-9656", "tags": ["restaurant", "food", "point_of_interest", "establishment"], "rating": 3.9, "website": "https://themeatup.business.site/", "location": {"lat": 49.2132843, "lng": -123.1400589}, "google_id": "ChIJEcFH9fl1hlQReigZBkalKFw"},{"name": "Tai Tung Chinese Seafood Restaurant", "address": "8012 Granville St, Vancouver, BC V6P 4Z5, Canada", "phone": "+1 604-261-6328", "tags": ["restaurant", "food", "point_of_interest", "establishment"], "rating": 3.8, "website": "", "location": {"lat": 49.212883, "lng": -123.1401989}, "google_id": "ChIJsZfwuJN0hlQRnt3UvnryIXU"},{"name": "Big 2 Cafe", "address": "8028 Granville St, Vancouver, BC V6P 4Z4, Canada", "phone": "+1 604-620-3399", "tags": ["restaurant", "food", "point_of_interest", "establishment"], "rating": 3.9, "website": "http://www.big2cafe.com/", "location": {"lat": 49.212812, "lng": -123.1402062}, "google_id": "ChIJWZaFuZN0hlQRZfNWAQZzrQw"},{"name": "Sushi bar Shu", "address": "8099 Granville St, Vancouver, BC V6P 4Z5, Canada", "phone": "+1 604-428-1868", "tags": ["restaurant", "food", "point_of_interest", "establishment"], "rating": 4.7, "website": "http://www.sushibarshu.com/", "location": {"lat": 49.2123904, "lng": -123.1406506}, "google_id": "ChIJ8Uf4nUJ1hlQR7DReziYfR6E"},{"name": "Bing & Noodle World (\u597d\u5403\u7684\u997c)", "address": "8185 Granville St, Vancouver, BC V6P 4Z6, Canada", "phone": "+1 604-264-7873", "tags": ["restaurant", "food", "point_of_interest", "establishment"], "rating": 3.6, "website": "", "location": {"lat": 49.2119458, "lng": -123.1406091}, "google_id": "ChIJUb9fR8t1hlQRVI-KERekW88"},{"name": "Pho", "address": "W 65th Ave, Vancouver, BC V6P 4Z6, Canada", "phone": "", "tags": ["restaurant", "food", "point_of_interest", "establishment"], "rating": 3.6, "website": "", "location": {"lat": 49.2120436, "lng": -123.1408597}, "google_id": "ChIJiQBvmpN0hlQRpHhf_dOgu04"},{"name": "Pho Ever", "address": "8178 Granville St, Vancouver, BC V6P 4Z4, Canada", "phone": "+1 778-379-8387", "tags": ["restaurant", "food", "point_of_interest", "establishment"], "rating": 4.3, "website": "https://phoevervancouver.com/", "location": {"lat": 49.21161170000001, "lng": -123.1402119}, "google_id": "ChIJL8TunZN0hlQRvuJ8dwgvnD0"},{"name": "Golden Pair Vietnamese Asian Cuisine", "address": "8167 Granville St, Vancouver, BC V6P 4Z8, Canada", "phone": "+1 778-229-6889", "tags": ["restaurant", "food", "point_of_interest", "establishment"], "rating": 3.5, "website": "", "location": {"lat": 49.211983, "lng": -123.140896}, "google_id": "ChIJo3c6mJN0hlQRWMSQxynA1JA"},{"name": "Neptune BBQ House \u9cf3\u9cf4\u71d2\u81d8", "address": "8175 Granville St, Vancouver, BC V6P 4Z6, Canada", "phone": "+1 604-221-6623", "tags": ["restaurant", "food", "point_of_interest", "establishment"], "rating": 3.8, "website": "https://www.neptunegroup.ca/", "location": {"lat": 49.21193969999999, "lng": -123.1408327}, "google_id": "ChIJlYhrmZN0hlQReU6c3SCucH8"},{"name": "Friends Cafe", "address": "1750 W 75th Ave, Vancouver, BC V6P 6S1, Canada", "phone": "+1 604-264-4419", "tags": ["restaurant", "food", "point_of_interest", "establishment"], "rating": 3.9, "website": "https://www.friendscafebc.com/", "location": {"lat": 49.2064613, "lng": -123.1477817}, "google_id": "ChIJ5aFrir90hlQR2N09ThpuCJs"},{"name": "Fortune Terrace Chinese Cuisine (\u798f\u6eff\u6a13) - Vancouver", "address": "8238 Lord St, Vancouver, BC V6P 6L2, Canada", "phone": "", "tags": ["restaurant", "food", "point_of_interest", "establishment"], "rating": "", "website": "http://www.fortuneterrace.com/", "location": {"lat": 49.210098, "lng": -123.1181433}, "google_id": "ChIJbzJ0ZUd1hlQRaTO4PK_wHn0"},{"name": "Panago Pizza", "address": "120-511 SW Marine Dr, Vancouver, BC V6P 0G8, Canada", "phone": "+1 866-310-0001", "tags": ["meal_delivery", "meal_takeaway", "restaurant", "food", "point_of_interest", "establishment"], "rating": 4, "website": "https://www.panago.com/", "location": {"lat": 49.2100905, "lng": -123.1178353}, "google_id": "ChIJ17xXj651hlQRBNEnhBKcBGM"}]