[{"name": "Boston Pizza", "address": "190-1333 Broadway W, Vancouver, BC V6H 4C1, Canada", "phone": "+1 604-730-2822", "tags": ["restaurant", "food", "point_of_interest", "establishment"], "rating": 3.8, "website": "https://bostonpizza.com/broadway", "location": {"lat": 49.26387259999999, "lng": -123.1342629}, "google_id": "ChIJW2wi48ZzhlQRMrotX09z9xw"},{"name": "Suika Japanese Restaurant", "address": "1626 W Broadway, Vancouver, BC V6J 1X6, Canada", "phone": "+1 604-730-1678", "tags": ["restaurant", "food", "point_of_interest", "establishment"], "rating": 4.5, "website": "http://www.suika-snackbar.com/", "location": {"lat": 49.26341049999999, "lng": -123.1416899}, "google_id": "ChIJ_4mfbbhzhlQRMEEC_lcgKOE"},{"name": "Banana Leaf On Broadway", "address": "820 W Broadway, Vancouver, BC V5Z 1J8, Canada", "phone": "+1 604-731-6333", "tags": ["restaurant", "food", "point_of_interest", "establishment"], "rating": 4.2, "website": "http://www.bananaleaf-vancouver.com/", "location": {"lat": 49.2631098, "lng": -123.1224983}, "google_id": "ChIJdxjrGMNzhlQREy0YgBUfdvs"},{"name": "Dynasty Seafood Restaurant", "address": "108-777 W Broadway, Vancouver, BC V5Z 4J7, Canada", "phone": "+1 604-876-8388", "tags": ["restaurant", "food", "point_of_interest", "establishment"], "rating": 4.1, "website": "http://www.dynasty-restaurant.ca/", "location": {"lat": 49.26376809999999, "lng": -123.1216281}, "google_id": "ChIJUxfUJcNzhlQR6ohfXAT0j7o"},{"name": "Tojo's Restaurant", "address": "1133 W Broadway, Vancouver, BC V6H 1G1, Canada", "phone": "+1 604-872-8050", "tags": ["restaurant", "food", "point_of_interest", "establishment"], "rating": 4.2, "website": "http://www.tojos.com/", "location": {"lat": 49.26368829999999, "lng": -123.1297832}, "google_id": "ChIJMYJSAcRzhlQRypjt6a7nKlQ"},{"name": "Subway", "address": "1288 W Broadway, Vancouver, BC V6H 1G6, Canada", "phone": "+1 604-736-3311", "tags": ["restaurant", "food", "point_of_interest", "establishment"], "rating": 3.2, "website": "http://www.subway.com/", "location": {"lat": 49.2632755, "lng": -123.1329022}, "google_id": "ChIJe9-9wcZzhlQRNV7qp9n8FVM"},{"name": "Cactus Club Cafe West Broadway", "address": "1530 W Broadway, Vancouver, BC V6J 5K9, Canada", "phone": "+1 604-733-0434", "tags": ["restaurant", "bar", "food", "point_of_interest", "establishment"], "rating": 4.3, "website": "https://www.cactusclubcafe.com/?utm_source=google-maps&utm_medium=organic&utm_campaign=west-broadway", "location": {"lat": 49.26343029999999, "lng": -123.1396429}, "google_id": "ChIJx_AshMdzhlQRNYTKRxzKHGE"},{"name": "QQ Sushi", "address": "1640 W Broadway, Vancouver, BC V6J 1X6, Canada", "phone": "+1 604-568-9018", "tags": ["meal_delivery", "meal_takeaway", "restaurant", "food", "point_of_interest", "establishment"], "rating": 3.6, "website": "https://qq-sushi.ca/", "location": {"lat": 49.2634926, "lng": -123.1419998}, "google_id": "ChIJA4TAbLhzhlQRpijq2TElSHQ"},{"name": "West Restaurant", "address": "2881 Granville St, Vancouver, BC V6H 3J4, Canada", "phone": "+1 604-738-8938", "tags": ["bar", "restaurant", "food", "point_of_interest", "establishment"], "rating": 4.3, "website": "http://www.westrestaurant.com/", "location": {"lat": 49.260046, "lng": -123.1390872}, "google_id": "ChIJHWxdMb9zhlQR5bKCBaxPvcM"},{"name": "Earls Kitchen + Bar", "address": "1601 W Broadway, Vancouver, BC V6J 1W9, Canada", "phone": "+1 604-736-5663", "tags": ["restaurant", "night_club", "bar", "food", "point_of_interest", "establishment"], "rating": 4, "website": "https://earls.ca/locations/fir-street", "location": {"lat": 49.26394209999999, "lng": -123.1414697}, "google_id": "ChIJsUCZc7hzhlQRaxh7j09mwVo"},{"name": "Culinary Capers Catering", "address": "1545 W 3rd Ave, Vancouver, BC V6J 1J8, Canada", "phone": "+1 604-875-0123", "tags": ["restaurant", "food", "point_of_interest", "establishment"], "rating": 4.9, "website": "http://www.culinarycapers.com/", "location": {"lat": 49.2689566, "lng": -123.1399755}, "google_id": "ChIJpz_BGMlzhlQRqxMJAyFgZRI"},{"name": "IHOP", "address": "950 W Broadway Suite 200, Vancouver, BC V5Z 3T2, Canada", "phone": "", "tags": ["restaurant", "food", "point_of_interest", "establishment"], "rating": 3.7, "website": "http://www.ihop.com/?utm_source=Google&utm_medium=Maps&utm_campaign=Google+Places", "location": {"lat": 49.263169, "lng": -123.1255685}, "google_id": "ChIJDXR8n8NzhlQRVMH-92L8-Jo"},{"name": "Kyo Korean BBQ & Sushi House", "address": "2993 Granville St, Vancouver, BC V6H 3J6, Canada", "phone": "+1 604-739-8868", "tags": ["restaurant", "food", "point_of_interest", "establishment"], "rating": 3.2, "website": "http://www.kyobbq.com/", "location": {"lat": 49.2590978, "lng": -123.1390213}, "google_id": "ChIJ0QPkIb9zhlQRGTAParfu6Wo"},{"name": "De Dutch Pannekoek House", "address": "3192 Oak St, Vancouver, BC V6H 2L1, Canada", "phone": "+1 604-732-1915", "tags": ["restaurant", "food", "point_of_interest", "establishment"], "rating": 4, "website": "http://dedutch.com/", "location": {"lat": 49.25724289999999, "lng": -123.1269065}, "google_id": "ChIJZzB-iupzhlQRCX2r-Q-vRl8"},{"name": "Domino's Pizza", "address": "1312 W Broadway, Vancouver, BC V6H 1H2, Canada", "phone": "+1 604-731-8200", "tags": ["meal_delivery", "meal_takeaway", "restaurant", "food", "point_of_interest", "establishment"], "rating": 3.8, "website": "https://pizza.dominos.ca/Vancouver-British-Columbia-10068", "location": {"lat": 49.2633748, "lng": -123.1341752}, "google_id": "ChIJpekH58ZzhlQR2TxoLoiF2BI"},{"name": "Memphis Blues Barbeque House", "address": "1465 W Broadway, Vancouver, BC V6H 3G6, Canada", "phone": "+1 604-738-6806", "tags": ["bar", "restaurant", "food", "point_of_interest", "establishment"], "rating": 4.2, "website": "https://www.memphisbluesbbq.com/", "location": {"lat": 49.2637253, "lng": -123.1375388}, "google_id": "ChIJ9XlxCsdzhlQRDJeU8ZKKCo8"},{"name": "New India Buffet + Bar & Restaurant", "address": "901 W Broadway, Vancouver, BC V5Z 4M3, Canada", "phone": "+1 604-874-5800", "tags": ["meal_delivery", "meal_takeaway", "bar", "restaurant", "food", "point_of_interest", "establishment"], "rating": 4.3, "website": "https://newindiabuffet.com/", "location": {"lat": 49.263535, "lng": -123.1244587}, "google_id": "ChIJMZfgI8NzhlQRxMA6BNWpX5U"},{"name": "Paul's Omelettery", "address": "2211 Granville St, Vancouver, BC V6H 3G1, Canada", "phone": "+1 604-737-2857", "tags": ["restaurant", "food", "point_of_interest", "establishment"], "rating": 4.3, "website": "http://paulsomelettery.com/", "location": {"lat": 49.26597519999999, "lng": -123.1386833}, "google_id": "ChIJk5Qv1cdzhlQRC9m9Hes_il8"},{"name": "Salmon n' Bannock", "address": "1128 W Broadway #7, Vancouver, BC V6H 1G5, Canada", "phone": "+1 604-568-8971", "tags": ["restaurant", "food", "point_of_interest", "establishment"], "rating": 4.6, "website": "http://www.salmonandbannock.net/menu.html", "location": {"lat": 49.263303, "lng": -123.1297697}, "google_id": "ChIJu6VAq8ZzhlQR04WRjQzdZ_A"},{"name": "The Ouisi Bistro", "address": "3014 Granville St, Vancouver, BC V6H 3J8, Canada", "phone": "+1 604-732-7550", "tags": ["restaurant", "food", "point_of_interest", "establishment"], "rating": 4.2, "website": "https://ouisibistro.com/", "location": {"lat": 49.2585729, "lng": -123.1385542}, "google_id": "ChIJuzaMHb9zhlQRg2v1BO1OMF0"},{"name": "Dockside restaurant", "address": "1253 Johnston St, Vancouver, BC V6H 3R9, Canada", "phone": "+1 604-685-7070", "tags": ["restaurant", "bar", "food", "point_of_interest", "establishment"], "rating": 3.9, "website": "http://www.docksidevancouver.com/", "location": {"lat": 49.26948609999999, "lng": -123.131177}, "google_id": "ChIJP6I2o89zhlQRSd2949wlALs"},{"name": "Tomokazu", "address": "1128 W Broadway #201, Vancouver, BC V6H 1G5, Canada", "phone": "+1 604-677-0434", "tags": ["restaurant", "food", "point_of_interest", "establishment"], "rating": 3.5, "website": "", "location": {"lat": 49.26331159999999, "lng": -123.1299656}, "google_id": "ChIJu6VAq8ZzhlQRw71nTMOg98Q"},{"name": "Heirloom Vegetarian Restaurant", "address": "1509 W 12th Ave, Vancouver, BC V6H 3J2, Canada", "phone": "+1 604-733-2231", "tags": ["restaurant", "food", "point_of_interest", "establishment"], "rating": 4.3, "website": "http://www.heirloomveg.ca/", "location": {"lat": 49.2608971, "lng": -123.1391587}, "google_id": "ChIJE6nut7hzhlQR9Qh7XJBeGQA"},{"name": "Vij's Rangoli", "address": "1480 W 11th Ave, Vancouver, BC V6H 1L1, Canada", "phone": "+1 604-736-5711", "tags": ["restaurant", "food", "point_of_interest", "establishment"], "rating": 4.2, "website": "http://vijs.ca/vijs-rangoli/", "location": {"lat": 49.261622, "lng": -123.1381219}, "google_id": "ChIJQ2zXprhzhlQRn6i67UIRQL4"},{"name": "Caf\u00e9 Salade de Fruits", "address": "1545 W 7th Ave, Vancouver, BC V6J 1S1, Canada", "phone": "+1 604-714-5987", "tags": ["restaurant", "food", "point_of_interest", "establishment"], "rating": 4.6, "website": "http://www.saladedefruits.com/", "location": {"lat": 49.265375, "lng": -123.139829}, "google_id": "ChIJu2sq3MdzhlQRP7DJ2Q8Odls"},{"name": "Osaka Teppanyaki", "address": "1788 W Broadway #103, Vancouver, BC V6J 1Y1, Canada", "phone": "+1 604-733-8258", "tags": ["restaurant", "food", "point_of_interest", "establishment"], "rating": 4.4, "website": "http://www.osakavancouver.com/", "location": {"lat": 49.26346520000001, "lng": -123.1452407}, "google_id": "ChIJ-e6pLLhzhlQRGWDhLGYMzwg"},{"name": "Afghan Horsemen Restaurant", "address": "1833 Anderson St, Vancouver, BC V6H 4E5, Canada", "phone": "+1 604-873-5923", "tags": ["restaurant", "food", "point_of_interest", "establishment"], "rating": 4.3, "website": "http://www.afghanhorsemen.com/", "location": {"lat": 49.2692592, "lng": -123.13868}, "google_id": "ChIJr1DcLslzhlQRFSst7yoSmwY"},{"name": "Royal Seoul House Restaurant", "address": "1215 W Broadway, Vancouver, BC V6H 1G7, Canada", "phone": "+1 604-739-9001", "tags": ["restaurant", "food", "point_of_interest", "establishment"], "rating": 3.8, "website": "http://www.royalseoulhouse.com/", "location": {"lat": 49.2636494, "lng": -123.1317927}, "google_id": "ChIJIdP7usZzhlQR_sznvH1QV7o"},{"name": "The Marquis", "address": "2666 Granville St, Vancouver, BC V6H 3H8, Canada", "phone": "+1 604-568-0670", "tags": ["restaurant", "food", "point_of_interest", "establishment"], "rating": 4, "website": "http://www.themarquis.ca/", "location": {"lat": 49.26214169999999, "lng": -123.1384342}, "google_id": "ChIJlf0knrhzhlQR3MENgJSV1SI"},{"name": "Bella Pizza", "address": "2525 Hemlock St, Vancouver, BC V6H 1H2, Canada", "phone": "+1 604-732-6565", "tags": ["restaurant", "food", "point_of_interest", "establishment"], "rating": 4, "website": "http://bellapizza.ca/", "location": {"lat": 49.26326849999999, "lng": -123.1365604}, "google_id": "ChIJBQEIEMdzhlQRlGJ5zQ6rYNI"},{"name": "Pacific Institute of Culinary Arts", "address": "1505 W 2nd Ave #101, Vancouver, BC V6H 3Y4, Canada", "phone": "+1 604-734-4488", "tags": ["bakery", "restaurant", "food", "point_of_interest", "store", "establishment"], "rating": 4.4, "website": "https://www.picachef.com/", "location": {"lat": 49.2698683, "lng": -123.1378827}, "google_id": "ChIJ9WYgLclzhlQRa_dggqHldBw"},{"name": "Trattoria", "address": "1850 W 4th Ave, Vancouver, BC V6J 1M3, Canada", "phone": "+1 604-732-1441", "tags": ["meal_takeaway", "bar", "restaurant", "food", "point_of_interest", "establishment"], "rating": 4.1, "website": "http://www.glowbalgroup.com/trattoria", "location": {"lat": 49.2679137, "lng": -123.1466793}, "google_id": "ChIJdUUqGbZzhlQRGW3ix3rNCGk"},{"name": "Lin Chinese Cuisine and Tea House", "address": "1537 W Broadway, Vancouver, BC V6J 1W6, Canada", "phone": "+1 604-733-9696", "tags": ["cafe", "restaurant", "food", "point_of_interest", "establishment"], "rating": 4, "website": "http://www.linchinese.ca/", "location": {"lat": 49.2637706, "lng": -123.1397342}, "google_id": "ChIJbxuvj8dzhlQRfzF4AF_TYvI"},{"name": "The Keg Steakhouse + Bar - Granville Island", "address": "1499 Anderson St, Vancouver, BC V6H 3R5, Canada", "phone": "+1 604-685-4735", "tags": ["restaurant", "food", "point_of_interest", "establishment"], "rating": 4.2, "website": "https://kegsteakhouse.com/locations/granville-island-keg/#siteContent", "location": {"lat": 49.2712624, "lng": -123.1357429}, "google_id": "ChIJK-T5ZUbKcFMRssnXn4ubAnI"},{"name": "Pizza Hut", "address": "1829 W 4th Ave, Vancouver, BC V6J 1M4, Canada", "phone": "+1 604-742-0966", "tags": ["meal_delivery", "meal_takeaway", "restaurant", "food", "point_of_interest", "establishment"], "rating": 3.1, "website": "https://www.pizzahut.ca/store-details/store-R31110/pizza-hut-Vancouver", "location": {"lat": 49.26822119999999, "lng": -123.1463332}, "google_id": "ChIJawd-HLZzhlQRxEgxHs5iZbE"},{"name": "Tony's Fish & Oyster Cafe", "address": "1511 Anderson St, Vancouver, BC V6H 3R5, Canada", "phone": "+1 604-683-7127", "tags": ["bar", "restaurant", "food", "point_of_interest", "establishment"], "rating": 4.1, "website": "http://www.tonysfishandoystercafe.com/", "location": {"lat": 49.2707061, "lng": -123.1364206}, "google_id": "ChIJU2aU7s5zhlQRICX9WHYo0K8"},{"name": "Noodlebox", "address": "1867 W 4th Ave, Vancouver, BC V6J 1M3, Canada", "phone": "+1 604-734-1310", "tags": ["restaurant", "food", "point_of_interest", "establishment"], "rating": 3.8, "website": "http://www.noodlebox.ca/", "location": {"lat": 49.26817699999999, "lng": -123.1471509}, "google_id": "ChIJWa72GrZzhlQR0vd2RZxGeFY"},{"name": "Shaolin Noodle House", "address": "656 W Broadway, Vancouver, BC V5Z 1G1, Canada", "phone": "+1 604-873-1618", "tags": ["restaurant", "food", "point_of_interest", "establishment"], "rating": 3.7, "website": "https://shaolinhouse.ca/", "location": {"lat": 49.2631568, "lng": -123.1188407}, "google_id": "ChIJ091ua91zhlQRGBjqO7I5Fx0"},{"name": "Sabra Kosher Bakery & Restaurant Ltd", "address": "3844 Oak St, Vancouver, BC V6H 2M6, Canada", "phone": "+1 604-733-4912", "tags": ["bakery", "restaurant", "food", "point_of_interest", "store", "establishment"], "rating": 4.5, "website": "", "location": {"lat": 49.2513234, "lng": -123.1272918}, "google_id": "ChIJgRy5bJNzhlQRGzjjttg1MzY"},{"name": "The Stable House Bistro", "address": "1520 W 13th Ave, Vancouver, BC V6H 1P1, Canada", "phone": "+1 604-736-1520", "tags": ["bar", "restaurant", "food", "point_of_interest", "establishment"], "rating": 4.4, "website": "http://thestablehouse.ca/", "location": {"lat": 49.25971089999999, "lng": -123.1393388}, "google_id": "ChIJLcQPLr9zhlQRpmUhaerIKsI"},{"name": "Masa Japanese Restaurant Vancouver", "address": "1418 W Broadway, Vancouver, BC V6H 1H4, Canada", "phone": "+1 604-732-0112", "tags": ["restaurant", "food", "point_of_interest", "establishment"], "rating": 4, "website": "http://www.sushimasa.ca/", "location": {"lat": 49.2633914, "lng": -123.1366221}, "google_id": "ChIJ5Qg8CcdzhlQRLVzT-a95-FA"},{"name": "SushiVan", "address": "2566 Granville St, Vancouver, BC V6H 3G8, Canada", "phone": "+1 604-739-9440", "tags": ["restaurant", "food", "point_of_interest", "establishment"], "rating": 4.1, "website": "http://www.facebook.com/sushivancouver", "location": {"lat": 49.2629781, "lng": -123.1383525}, "google_id": "ChIJ176bd8dzhlQROiMYHNZhHlo"},{"name": "Liquids + Solids", "address": "1550 W Broadway, Vancouver, BC V6J 5K9, Canada", "phone": "+1 604-558-0544", "tags": ["restaurant", "food", "point_of_interest", "establishment"], "rating": 4.3, "website": "http://www.liquidsandsolids.ca/index.php", "location": {"lat": 49.2634713, "lng": -123.1399872}, "google_id": "ChIJ7x3Vh8dzhlQRTvrGfFLBF8o"},{"name": "Freshslice Pizza", "address": "2418 Granville St, Vancouver, BC V6H 3G6, Canada", "phone": "+1 604-336-1310", "tags": ["meal_delivery", "meal_takeaway", "restaurant", "food", "point_of_interest", "establishment"], "rating": 4.1, "website": "http://www.freshslice.com/", "location": {"lat": 49.2641697, "lng": -123.1383591}, "google_id": "ChIJL0aFvcdzhlQR9KNGZNJs3So"},{"name": "Trees Organic Coffee South Granville", "address": "1598 W Broadway, Vancouver, BC V6J 5K9, Canada", "phone": "+1 778-379-4050", "tags": ["cafe", "restaurant", "food", "point_of_interest", "store", "establishment"], "rating": 3.8, "website": "http://treescoffee.com/", "location": {"lat": 49.2634708, "lng": -123.1408056}, "google_id": "ChIJAQBAeLhzhlQRXAixCtACYh4"},{"name": "Storm Crow Alehouse", "address": "1619 W Broadway, Vancouver, BC V6J 1W9, Canada", "phone": "+1 604-428-9670", "tags": ["bar", "restaurant", "food", "point_of_interest", "establishment"], "rating": 4.3, "website": "http://stormcrowalehouse.com/", "location": {"lat": 49.2638197, "lng": -123.1416809}, "google_id": "ChIJ2bLkcrhzhlQRhOLCxW3brh4"},{"name": "Apollonia Greek Restaurant", "address": "1830 Fir St, Vancouver, BC V6J 3B1, Canada", "phone": "+1 604-736-9559", "tags": ["restaurant", "food", "point_of_interest", "establishment"], "rating": 4.4, "website": "http://www.apolloniagreekrestaurant.com/", "location": {"lat": 49.2694416, "lng": -123.1406537}, "google_id": "ChIJh4OQFclzhlQRv31FeuNELts"},{"name": "Yanaki Sushi", "address": "816 W 6th Ave, Vancouver, BC V5Z 6N4, Canada", "phone": "+1 604-708-5006", "tags": ["restaurant", "food", "point_of_interest", "establishment"], "rating": 4.3, "website": "http://www.yanakisushi.com/", "location": {"lat": 49.26573299999999, "lng": -123.122379}, "google_id": "ChIJyd0dWNtzhlQRA8dYED0eZy8"},{"name": "Rayhan", "address": "3170 Oak St, Vancouver, BC V6H 2L1, Canada", "phone": "+1 604-731-3553", "tags": ["restaurant", "food", "point_of_interest", "establishment"], "rating": 4.4, "website": "http://www.rayhanrestaurant.ca/", "location": {"lat": 49.25732659999999, "lng": -123.1269899}, "google_id": "ChIJU8DtYepzhlQR9IUz37U4e5w"},{"name": "P & M Investment Inc", "address": "500 \u2013 999 W Broadway, Vancouver, BC V5Z 1K5, Canada", "phone": "+1 604-736-8846", "tags": ["finance", "restaurant", "food", "point_of_interest", "establishment"], "rating": "", "website": "", "location": {"lat": 49.26357519999999, "lng": -123.1261338}, "google_id": "ChIJEWPtkMNzhlQRTc_XogP1Cac"},{"name": "Farmer's Apprentice Restaurant", "address": "1535 W 6th Ave, Vancouver, BC V6J 1R1, Canada", "phone": "+1 604-620-2070", "tags": ["restaurant", "food", "point_of_interest", "establishment"], "rating": 4.3, "website": "http://www.farmersapprentice.ca/menu", "location": {"lat": 49.2663496, "lng": -123.1396414}, "google_id": "ChIJiVOKeshzhlQRH8k4h0rMVc4"},{"name": "Grapes & Soda", "address": "1541 W 6th Ave, Vancouver, BC V6J 1R1, Canada", "phone": "+1 604-336-2456", "tags": ["bar", "restaurant", "food", "point_of_interest", "establishment"], "rating": 4.6, "website": "http://www.grapesandsoda.ca/", "location": {"lat": 49.266381, "lng": -123.1396628}, "google_id": "ChIJExh0e8hzhlQRkaIGSBt6eQU"},{"name": "Gyu-Kaku Japanese BBQ", "address": "950 W Broadway #201, Vancouver, BC V5Z 1K7, Canada", "phone": "+1 604-558-3898", "tags": ["restaurant", "food", "point_of_interest", "establishment"], "rating": 4.4, "website": "http://www.gyu-kaku.com/", "location": {"lat": 49.2631381, "lng": -123.1255703}, "google_id": "ChIJGfxOoMNzhlQRs7_KVYOz3r0"},{"name": "Little Sheep Mongolian Hot Pot, Vancouver", "address": "1788 W Broadway, Vancouver, BC V6J 1Y1, Canada", "phone": "+1 604-563-4868", "tags": ["restaurant", "food", "point_of_interest", "establishment"], "rating": 3.9, "website": "", "location": {"lat": 49.2634754, "lng": -123.1450968}, "google_id": "ChIJ49eb1LlzhlQR5JTNZl3CtJM"},{"name": "Denny's", "address": "1759 W Broadway, Vancouver, BC V6J 1Y2, Canada", "phone": "+1 604-678-9973", "tags": ["restaurant", "food", "point_of_interest", "establishment"], "rating": 3.9, "website": "https://locations.dennys.ca/BC/VANCOUVER/249234", "location": {"lat": 49.263982, "lng": -123.1448293}, "google_id": "ChIJFx8XKbhzhlQRs4CTHYMO2mg"},{"name": "Moderne Burger", "address": "865 W Broadway, Vancouver, BC V5Z 1J9, Canada", "phone": "+1 604-739-0005", "tags": ["restaurant", "food", "point_of_interest", "establishment"], "rating": 4.3, "website": "http://www.moderneburger.com/", "location": {"lat": 49.26340150000001, "lng": -123.1233951}, "google_id": "ChIJrfJO4q1zhlQRz8sWaxozU7w"},{"name": "Carlos O`Bryan's Neighborhood Pub", "address": "1774 W 7th Ave, Vancouver, BC V6J 4Z9, Canada", "phone": "+1 604-732-0010", "tags": ["parking", "bar", "restaurant", "food", "point_of_interest", "establishment"], "rating": 4.1, "website": "http://kitsilanopub.com/", "location": {"lat": 49.265325, "lng": -123.1452}, "google_id": "ChIJ57qrv7dzhlQRRuI062Hll2o"},{"name": "Sushigo", "address": "1833 Anderson St, Vancouver, BC V6J 1H2, Canada", "phone": "+1 604-731-9990", "tags": ["restaurant", "food", "point_of_interest", "establishment"], "rating": 3.4, "website": "https://www.sushigo.ca/", "location": {"lat": 49.26935539999999, "lng": -123.1388537}, "google_id": "ChIJ4RApKclzhlQRVlKFn1t-Scc"},{"name": "Best Neighbours Restaurant & Pizza House", "address": "3838 Oak St, Vancouver, BC V6H 2M5, Canada", "phone": "+1 604-732-3777", "tags": ["restaurant", "food", "point_of_interest", "establishment"], "rating": 4.2, "website": "http://www.bestneighbours.ca/", "location": {"lat": 49.25141, "lng": -123.127289}, "google_id": "ChIJY29n8q13hlQR_AuS1MP2CyI"},{"name": "Fortune Garden Restaurant Ltd", "address": "1475 W Broadway, Vancouver, BC V6H 1H6, Canada", "phone": "+1 604-736-6868", "tags": ["restaurant", "food", "point_of_interest", "establishment"], "rating": 3.8, "website": "", "location": {"lat": 49.2637297, "lng": -123.1376529}, "google_id": "ChIJpTx8oMdzhlQR8N-e6KlRl7Y"}]