[{"name": "Kintaro Ramen", "address": "788 Denman St, Vancouver, BC V6G 1C9, Canada", "phone": "+1 604-682-7568", "tags": ["restaurant", "food", "point_of_interest", "establishment"], "rating": 4.3, "website": "", "location": {"lat": 49.2915486, "lng": -123.1349856}, "google_id": "ChIJJYzxPohxhlQRFHN7EYdtbZE"},{"name": "Lift Bar Grill View - Downtown Vancouver", "address": "333 Menchion Mews, Vancouver, BC V6G 3H2, Canada", "phone": "+1 604-689-5438", "tags": ["bar", "restaurant", "food", "point_of_interest", "establishment"], "rating": 4.2, "website": "http://www.liftbarandgrill.com/", "location": {"lat": 49.29359830000001, "lng": -123.1295507}, "google_id": "ChIJdVf3y4hxhlQR55KiHpZHEDE"},{"name": "Domino's Pizza", "address": "777 Denman St, Vancouver, BC V6G 2L6, Canada", "phone": "+1 604-662-3030", "tags": ["meal_delivery", "meal_takeaway", "restaurant", "food", "point_of_interest", "establishment"], "rating": 3.2, "website": "https://pizza.dominos.ca/Vancouver-British-Columbia-10066/", "location": {"lat": 49.291793, "lng": -123.135216}, "google_id": "ChIJvZngOIhxhlQRDXvzGvDLVno"},{"name": "Zakkushi on Denman", "address": "823 Denman St, Vancouver, BC V6G 2L7, Canada", "phone": "+1 604-685-1136", "tags": ["restaurant", "food", "point_of_interest", "establishment"], "rating": 4.3, "website": "https://zakkushi-japanese-restaurant.business.site/", "location": {"lat": 49.2912, "lng": -123.136293}, "google_id": "ChIJ77z7IYhxhlQRYq44T6nqqB0"},{"name": "Ukrainian Village", "address": "815 Denman St, Vancouver, BC V6G 2L7, Canada", "phone": "+1 604-687-7440", "tags": ["restaurant", "food", "point_of_interest", "establishment"], "rating": 4.2, "website": "http://ukrainianvillage.wix.com/canada", "location": {"lat": 49.2914077, "lng": -123.1358246}, "google_id": "ChIJ1y0YI4hxhlQRXIEmfZiXgEw"},{"name": "Stanley's Bar and Grill", "address": "610 Pipeline Rd, Vancouver, BC V6G 3E2, Canada", "phone": "+1 604-602-3088", "tags": ["bar", "restaurant", "food", "point_of_interest", "establishment"], "rating": 4.1, "website": "https://www.stanleysbargrill.com/", "location": {"lat": 49.29962399999999, "lng": -123.133678}, "google_id": "ChIJV7bp-oxxhlQRmXCdb93TBgc"},{"name": "Motomachi Shokudo", "address": "740 Denman St, Vancouver, BC V6G 2L5, Canada", "phone": "+1 604-609-0310", "tags": ["restaurant", "food", "point_of_interest", "establishment"], "rating": 4.3, "website": "https://ryugetsuservices.wixsite.com/motomachi-shokudo", "location": {"lat": 49.2918534, "lng": -123.1345642}, "google_id": "ChIJGZbDRohxhlQRxeHcVVCArcc"},{"name": "The Teahouse in Stanley Park", "address": "7501 Stanley Park Dr, Vancouver, BC V6G 1Z4, Canada", "phone": "+1 604-669-3281", "tags": ["restaurant", "food", "point_of_interest", "establishment"], "rating": 4.4, "website": "http://vancouverdine.com/teahouse", "location": {"lat": 49.3012531, "lng": -123.1570794}, "google_id": "ChIJ7-_t7CFyhlQRi7LZGVmtdSs"},{"name": "Prospect Point Stanley Park", "address": "5601 Stanley Park Dr, Vancouver, BC V6G 3E2, Canada", "phone": "+1 604-669-2737", "tags": ["restaurant", "cafe", "food", "point_of_interest", "store", "establishment"], "rating": 4.4, "website": "http://www.prospectpoint.com/", "location": {"lat": 49.312677, "lng": -123.1425949}, "google_id": "ChIJ33omHyRyhlQRdJcxrjLKxeM"},{"name": "Second Beach Concession", "address": "8501 Stanley Park Dr, Vancouver, BC V6G 3E2, Canada", "phone": "", "tags": ["restaurant", "food", "point_of_interest", "establishment"], "rating": 3.7, "website": "", "location": {"lat": 49.29555739999999, "lng": -123.1507357}, "google_id": "ChIJs6jf1CNyhlQRHsiDwDBOs8E"},{"name": "Nook", "address": "781 Denman St, Vancouver, BC V6G 2L6, Canada", "phone": "+1 604-568-4554", "tags": ["restaurant", "food", "point_of_interest", "establishment"], "rating": 4.5, "website": "http://nookrestaurant.ca/", "location": {"lat": 49.291747, "lng": -123.1353434}, "google_id": "ChIJWX04OYhxhlQRrj8ua53qkZc"},{"name": "Buckstop", "address": "833 Denman St, Vancouver, BC V6G 2L7, Canada", "phone": "+1 604-428-2528", "tags": ["restaurant", "food", "point_of_interest", "establishment"], "rating": 3.8, "website": "http://buckstop.ca/", "location": {"lat": 49.2910152, "lng": -123.1363737}, "google_id": "ChIJi6H4H4hxhlQRJd2LHY0gxMY"},{"name": "Ma Dang Goul", "address": "847 Denman St, Vancouver, BC V6G 2L7, Canada", "phone": "+1 604-688-3585", "tags": ["restaurant", "food", "point_of_interest", "establishment"], "rating": 4.2, "website": "https://www.facebook.com/mdgvancouver/", "location": {"lat": 49.2909606, "lng": -123.1364642}, "google_id": "ChIJ3TcD9SdyhlQR0oZJEJ_jZAs"},{"name": "Sushiholic", "address": "836 Denman St, Vancouver, BC V6G 2L8, Canada", "phone": "+1 604-559-4888", "tags": ["restaurant", "food", "point_of_interest", "establishment"], "rating": 4.1, "website": "http://www.sushiholic.ca/", "location": {"lat": 49.29095880000001, "lng": -123.1360842}, "google_id": "ChIJXXHG8rd9C0ERxNdBWUEffLc"},{"name": "Tavola", "address": "1829 Robson St, Vancouver, BC V6G 1E4, Canada", "phone": "+1 604-606-4680", "tags": ["restaurant", "food", "point_of_interest", "establishment"], "rating": 4.5, "website": "https://tavolavancouver.com/", "location": {"lat": 49.2918584, "lng": -123.1357745}, "google_id": "ChIJfZnyOohxhlQRAX10LargB0E"},{"name": "Third Beach Concession", "address": "Tatlow Walk, Vancouver, BC V6G 3E2, Canada", "phone": "+1 604-685-9549", "tags": ["restaurant", "food", "point_of_interest", "establishment"], "rating": 3.7, "website": "http://vancouver.ca/parks-recreation-culture/restaurants-and-snack-bars.aspx/", "location": {"lat": 49.3031758, "lng": -123.1559806}, "google_id": "ChIJUz8nCB1yhlQRnzxU7iJCnYA"},{"name": "Stanley Park Brewing Restaurant & Brewpub", "address": "8901 Stanley Park Dr, Vancouver, BC V6G 3E2, Canada", "phone": "+1 604-681-0460", "tags": ["restaurant", "bar", "food", "point_of_interest", "establishment"], "rating": 4.1, "website": "http://www.stanleyparkbrewing.com/brewpub/", "location": {"lat": 49.2923231, "lng": -123.1464802}, "google_id": "ChIJ28t23QxzhlQRlPVAoZUunSU"},{"name": "Neptune Jewels Yacht Charters", "address": "450 Denman St, Vancouver, BC V6G 3H1, Canada", "phone": "+1 604-828-3268", "tags": ["travel_agency", "restaurant", "food", "point_of_interest", "establishment"], "rating": 5, "website": "http://www.neptunesyachtcharters.com/", "location": {"lat": 49.2940382, "lng": -123.1309856}, "google_id": "ChIJKeZTH_lxhlQRE0kuTtkhRIw"},{"name": "Robba da Matti (West End)", "address": "1906 Haro St, Vancouver, BC V6G 1H7, Canada", "phone": "+1 604-423-3553", "tags": ["restaurant", "food", "point_of_interest", "establishment"], "rating": 4.2, "website": "https://robbadamatti.com/", "location": {"lat": 49.2917344, "lng": -123.1385969}, "google_id": "ChIJ___7dydyhlQRH6syoy4hoIo"},{"name": "Verre", "address": "550 Denman St, Vancouver, BC V6G 3H1, Canada", "phone": "+1 604-428-4843", "tags": ["bar", "restaurant", "food", "point_of_interest", "establishment"], "rating": 4.3, "website": "https://www.verreyvr.com/", "location": {"lat": 49.2933274, "lng": -123.1322076}, "google_id": "ChIJ4QmrRTBxhlQRFUFj36Hx2Bw"},{"name": "Tetsu Sushi Bar", "address": "775 Denman St, Vancouver, BC V6G 2L6, Canada", "phone": "+1 604-428-5775", "tags": ["restaurant", "food", "point_of_interest", "establishment"], "rating": 4.6, "website": "", "location": {"lat": 49.291798, "lng": -123.1351192}, "google_id": "ChIJV3vgOIhxhlQRa7tQLte4kDk"},{"name": "Banana Leaf Malaysian Cafe", "address": "1779 Robson St, Vancouver, BC V6G 1C9, Canada", "phone": "+1 604-569-3363", "tags": ["restaurant", "food", "point_of_interest", "establishment"], "rating": 4.2, "website": "http://www.bananaleaf-vancouver.com/", "location": {"lat": 49.29140710000001, "lng": -123.1349205}, "google_id": "ChIJ1cv4PYhxhlQRE-YsD8Iaaac"},{"name": "The Spot Cafe", "address": "805 Denman St, Vancouver, BC V6G 2L7, Canada", "phone": "+1 604-602-9529", "tags": ["cafe", "restaurant", "food", "point_of_interest", "establishment"], "rating": 3.8, "website": "", "location": {"lat": 49.2914824, "lng": -123.1356977}, "google_id": "ChIJ_SAsPYhxhlQRzCkrI6eAGm4"},{"name": "Yadori Bar & Bistro", "address": "792 Denman St, Vancouver, BC V6G 1C9, Canada", "phone": "+1 604-662-7311", "tags": ["restaurant", "food", "point_of_interest", "establishment"], "rating": 3.8, "website": "https://www.instagram.com/yadori.bar", "location": {"lat": 49.29155790000001, "lng": -123.1350671}, "google_id": "ChIJvwvKeGxxhlQR4Bwx-5Gayq4"},{"name": "Pacific Poke", "address": "1795 Robson St, Vancouver, BC V6G 1C9, Canada", "phone": "+1 604-336-9500", "tags": ["restaurant", "food", "point_of_interest", "establishment"], "rating": 4.6, "website": "http://thepacificpoke.com/", "location": {"lat": 49.2915021, "lng": -123.1352122}, "google_id": "ChIJWZ4V6OtxhlQR4cp5fhyi0eU"},{"name": "Simba\u2019s Grill Ltd", "address": "825 Denman St, Vancouver, BC V6G 2L7, Canada", "phone": "+1 604-974-0649", "tags": ["restaurant", "food", "point_of_interest", "establishment"], "rating": 4.6, "website": "http://simbasgrill.com/", "location": {"lat": 49.2910973, "lng": -123.1362495}, "google_id": "ChIJk0S1IYhxhlQR6yPpAYongOQ"},{"name": "Donair Town Robson", "address": "1793 Robson St, Vancouver, BC V6G 1C9, Canada", "phone": "+1 604-569-1124", "tags": ["restaurant", "food", "point_of_interest", "establishment"], "rating": 4.5, "website": "", "location": {"lat": 49.2914723, "lng": -123.1351595}, "google_id": "ChIJF-zxPYhxhlQRz2nehz3oMaA"},{"name": "Modern Handi Indian Cuisine", "address": "827 Denman St, Vancouver, BC V6G 2L7, Canada", "phone": "+1 604-559-5244", "tags": ["restaurant", "food", "point_of_interest", "establishment"], "rating": 4.6, "website": "http://www.modernhandi.com/", "location": {"lat": 49.2911252, "lng": -123.1363577}, "google_id": "ChIJ54NpIIhxhlQRhb2k3PoxCTo"},{"name": "Habibi Donair", "address": "835 Denman St, Vancouver, BC V6G 2L7, Canada", "phone": "+1 604-331-0058", "tags": ["restaurant", "food", "point_of_interest", "establishment"], "rating": 5, "website": "https://www.habibidonair.com/", "location": {"lat": 49.29102040000001, "lng": -123.1365717}, "google_id": "ChIJdSdf_FhzhlQRf-CZXumGkB0"},{"name": "Saku", "address": "1773 Robson St, Vancouver, BC V6G 1C9, Canada", "phone": "+1 778-379-5872", "tags": ["restaurant", "food", "point_of_interest", "establishment"], "rating": 4.3, "website": "http://sakuvancouver.com/", "location": {"lat": 49.2913126, "lng": -123.1348901}, "google_id": "ChIJVYCScjxxhlQR5l5L231taMA"},{"name": "KG's Restaurant", "address": "851 Denman St, Vancouver, BC V6G 2L8, Canada", "phone": "+1 604-620-7688", "tags": ["restaurant", "food", "point_of_interest", "establishment"], "rating": 3.3, "website": "", "location": {"lat": 49.2907922, "lng": -123.136813}, "google_id": "ChIJ06J0wSlzhlQRH6Mo6oIByek"},{"name": "khaghan Restaurant vancouver", "address": "851 Denman St, Vancouver, BC V6G 2L9, Canada", "phone": "+1 604-620-7688", "tags": ["restaurant", "food", "point_of_interest", "establishment"], "rating": 4, "website": "http://khaghan.ca/", "location": {"lat": 49.2907922, "lng": -123.136813}, "google_id": "ChIJhd_AaSpzhlQRR0HKIE5tj_w"}]