[{"name": "Pizzeria Farina", "address": "915 Main St, Vancouver, BC V6A 2V8, Canada", "phone": "+1 604-681-9334", "tags": ["restaurant", "food", "point_of_interest", "establishment"], "rating": 4.5, "website": "http://www.pizzeriafarina.com/", "location": {"lat": 49.276605, "lng": -123.1000944}, "google_id": "ChIJsXdUEmVxhlQR-g2A0LEWJV0"},{"name": "Bao Bei", "address": "163 Keefer St, Vancouver, BC V6A 1X4, Canada", "phone": "+1 604-688-0876", "tags": ["restaurant", "food", "point_of_interest", "establishment"], "rating": 4.4, "website": "http://bao-bei.ca/", "location": {"lat": 49.2796534, "lng": -123.1006157}, "google_id": "ChIJWco1DnBxhlQRWIzGva76dZc"},{"name": "Campagnolo", "address": "1020 Main St, Vancouver, BC V6A 2W1, Canada", "phone": "+1 604-484-6018", "tags": ["restaurant", "food", "point_of_interest", "establishment"], "rating": 4.1, "website": "http://www.campagnolorestaurant.ca/", "location": {"lat": 49.27539770000001, "lng": -123.0994843}, "google_id": "ChIJ_csgr2VxhlQRV_3fxjwV9zw"},{"name": "Phnom Penh Restaurant", "address": "244 E Georgia St, Vancouver, BC V6A 1Z7, Canada", "phone": "+1 604-734-8898", "tags": ["restaurant", "food", "point_of_interest", "establishment"], "rating": 4.5, "website": "http://phnompenhrestaurant.ca/", "location": {"lat": 49.2784513, "lng": -123.0982106}, "google_id": "ChIJs8IJ5W9xhlQR37XQMO_WQ04"},{"name": "The Union", "address": "219 Union St, Vancouver, BC V6A 2B2, Canada", "phone": "+1 604-568-3230", "tags": ["restaurant", "food", "point_of_interest", "establishment"], "rating": 4.3, "website": "http://www.theunionvancouver.ca/", "location": {"lat": 49.27778530000001, "lng": -123.0989703}, "google_id": "ChIJ520OW2VxhlQRrtnRuj2B6xc"},{"name": "Alibi Room", "address": "157 Alexander St, Vancouver, BC V6A 1B8, Canada", "phone": "+1 604-623-3383", "tags": ["bar", "restaurant", "food", "point_of_interest", "establishment"], "rating": 4.5, "website": "http://www.alibi.ca/", "location": {"lat": 49.2842487, "lng": -123.1002422}, "google_id": "ChIJV5W1NHFxhlQRAbJlOCVZW-c"},{"name": "The Ramen Butcher", "address": "223 E Georgia St, Vancouver, BC V6A 1Z6, Canada", "phone": "+1 604-806-4646", "tags": ["restaurant", "food", "point_of_interest", "establishment"], "rating": 4.4, "website": "http://theramenbutcher.com/", "location": {"lat": 49.2786645, "lng": -123.0986883}, "google_id": "ChIJM_Nl-29xhlQRZ0mdKW-fQ7k"},{"name": "Fat Mao Noodles", "address": "217 E Georgia St, Vancouver, BC V6A 1Z6, Canada", "phone": "+1 604-569-8192", "tags": ["restaurant", "food", "point_of_interest", "establishment"], "rating": 4.4, "website": "http://www.fatmaonoodles.com/", "location": {"lat": 49.2787559, "lng": -123.0989242}, "google_id": "ChIJoySK_m9xhlQRWkJZNwcfGsU"},{"name": "Matchstick Chinatown", "address": "213 E Georgia St, Vancouver, BC V6A 0B1, Canada", "phone": "+1 604-336-0213", "tags": ["bakery", "cafe", "restaurant", "food", "point_of_interest", "store", "establishment"], "rating": 4.4, "website": "http://www.matchstickyvr.com/", "location": {"lat": 49.2786729, "lng": -123.0992643}, "google_id": "ChIJD-O2_29xhlQRTfyQpL_cseY"},{"name": "Pacific Poke", "address": "625 Main St, Vancouver, BC V6A 2V4, Canada", "phone": "+1 604-559-5304", "tags": ["restaurant", "food", "point_of_interest", "establishment"], "rating": 4.4, "website": "http://www.thepacificpoke.com/", "location": {"lat": 49.2790547, "lng": -123.1000169}, "google_id": "ChIJoaA4BHBxhlQRmZ_Vcw5DSsA"},{"name": "DALINA", "address": "687 Main St, Vancouver, BC V6A 2V4, Canada", "phone": "+1 604-428-4364", "tags": ["cafe", "grocery_or_supermarket", "meal_takeaway", "restaurant", "food", "point_of_interest", "store", "establishment"], "rating": 4.3, "website": "https://www.dalina.ca/?utm_source=google-my-business&utm_medium=organic", "location": {"lat": 49.27871380000001, "lng": -123.1000571}, "google_id": "ChIJ_fGDAHBxhlQRn89xwijmzuo"},{"name": "Virtuous Pie", "address": "583 Main St, Vancouver, BC V6A 2V1, Canada", "phone": "+1 604-620-0060", "tags": ["meal_delivery", "meal_takeaway", "restaurant", "food", "point_of_interest", "store", "establishment"], "rating": 4.5, "website": "https://virtuouspie.com/", "location": {"lat": 49.2797302, "lng": -123.0999765}, "google_id": "ChIJfTY_EnBxhlQRTEuUOuEbJMI"},{"name": "Juke Fried Chicken", "address": "182 Keefer St, Vancouver, BC V6A 1X4, Canada", "phone": "+1 604-336-5853", "tags": ["restaurant", "meal_takeaway", "bar", "food", "point_of_interest", "establishment"], "rating": 4.2, "website": "http://www.jukefriedchicken.com/", "location": {"lat": 49.2793089, "lng": -123.1002447}, "google_id": "ChIJD5wsCXBxhlQRUP7gLFWlyjo"},{"name": "The American", "address": "926 Main St, Vancouver, BC V6A 2W1, Canada", "phone": "+1 778-945-6751", "tags": ["bar", "liquor_store", "restaurant", "food", "point_of_interest", "store", "establishment"], "rating": 4.1, "website": "http://www.theamerican.ca/", "location": {"lat": 49.2762821, "lng": -123.099661}, "google_id": "ChIJUQ1yDGVxhlQRV5UFZa1zmqI"},{"name": "Floata Seafood Restaurant", "address": "180 Keefer St, Vancouver, BC V6A 1X4, Canada", "phone": "+1 604-602-0368", "tags": ["restaurant", "food", "point_of_interest", "establishment"], "rating": 3.6, "website": "http://www.floata.com/", "location": {"lat": 49.27927099999999, "lng": -123.1008214}, "google_id": "ChIJddANvXpxhlQRkcJECJwhFNo"},{"name": "St Lawrence Restaurant", "address": "269 Powell St, Vancouver, BC V6A 1G3, Canada", "phone": "+1 604-620-3800", "tags": ["restaurant", "food", "point_of_interest", "establishment"], "rating": 4.7, "website": "http://www.stlawrencerestaurant.com/", "location": {"lat": 49.28325659999999, "lng": -123.0979829}, "google_id": "ChIJl9_waXFxhlQRbBq6lKwoHic"},{"name": "Say Hey Cafe", "address": "156 E Pender St, Vancouver, BC V6A 1T3, Canada", "phone": "+1 604-564-4604", "tags": ["restaurant", "food", "point_of_interest", "establishment"], "rating": 4.7, "website": "http://sayheycafe.ca/", "location": {"lat": 49.28031169999999, "lng": -123.1009419}, "google_id": "ChIJ5y4CcXBxhlQRekLKjqk-kC8"},{"name": "A&W Canada", "address": "1150 Station St, Vancouver, BC V6A 4C7, Canada", "phone": "+1 604-681-1000", "tags": ["restaurant", "food", "point_of_interest", "establishment"], "rating": 3.8, "website": "http://aw.ca/", "location": {"lat": 49.27377500000001, "lng": -123.0981189}, "google_id": "ChIJv_mvUoV0j1QRhJrRxvVgQOI"},{"name": "New Town Bakery & Restaurant", "address": "148 E Pender St, Vancouver, BC V6A 1T3, Canada", "phone": "+1 604-689-7835", "tags": ["bakery", "restaurant", "food", "point_of_interest", "store", "establishment"], "rating": 4.2, "website": "http://www.newtownbakery.ca/#content-locations", "location": {"lat": 49.2802956, "lng": -123.1011606}, "google_id": "ChIJtwODcHBxhlQREpbs5MTETQg"},{"name": "Ask For Luigi Restaurant", "address": "305 Alexander St, Vancouver, BC V6A 1C4, Canada", "phone": "+1 604-428-2544", "tags": ["restaurant", "food", "point_of_interest", "establishment"], "rating": 4.5, "website": "http://www.askforluigi.com/", "location": {"lat": 49.284201, "lng": -123.0977241}, "google_id": "ChIJe-XLV3FxhlQRp_RhBdLadTM"},{"name": "Brickhouse Late Nite Bistro & Bar", "address": "730 Main St, Vancouver, BC V6A 2V7, Canada", "phone": "+1 604-689-8645", "tags": ["restaurant", "food", "point_of_interest", "establishment"], "rating": 4.3, "website": "", "location": {"lat": 49.278029, "lng": -123.0995867}, "google_id": "ChIJSVdbV2VxhlQRQHOlFG41Cno"},{"name": "Kent's Kitchen", "address": "232 Keefer St, Vancouver, BC V6A 1X5, Canada", "phone": "+1 604-669-2237", "tags": ["meal_takeaway", "restaurant", "food", "point_of_interest", "establishment"], "rating": 3.9, "website": "", "location": {"lat": 49.2793684, "lng": -123.0988074}, "google_id": "ChIJr907GXBxhlQRyy4rdK_zN9k"},{"name": "Taco Del Mar", "address": "420 Terminal Ave, Vancouver, BC V6A 0C1, Canada", "phone": "+1 604-688-9651", "tags": ["restaurant", "food", "point_of_interest", "establishment"], "rating": 3.2, "website": "http://www.tacodelmar.com/", "location": {"lat": 49.27162509999999, "lng": -123.0949437}, "google_id": "ChIJkRdJUmZxhlQRZDsCithaZYc"},{"name": "Subway", "address": "428 Terminal Ave, Vancouver, BC V6A 0C1, Canada", "phone": "+1 604-688-9485", "tags": ["restaurant", "food", "point_of_interest", "establishment"], "rating": 2.8, "website": "http://www.subway.com/", "location": {"lat": 49.271575, "lng": -123.0950889}, "google_id": "ChIJN6laq2dxhlQRt83yWV8RaOE"},{"name": "Silk Dinner Lounge and Restaurant", "address": "132 Powell St, Vancouver, BC V6A 1G1, Canada", "phone": "+1 778-379-6900", "tags": ["restaurant", "food", "point_of_interest", "establishment"], "rating": 4.4, "website": "http://www.silk-lounge.ca/", "location": {"lat": 49.2831042, "lng": -123.1010731}, "google_id": "ChIJW_BJ2HBxhlQROigxpBlXa7c"},{"name": "Hanoi Pho Restaurant", "address": "406 E Hastings St, Vancouver, BC V6A 1P7, Canada", "phone": "+1 604-251-6566", "tags": ["restaurant", "food", "point_of_interest", "establishment"], "rating": 4.4, "website": "", "location": {"lat": 49.2810367, "lng": -123.0952344}, "google_id": "ChIJ-8gI7HFxhlQRj6YQU-ItGrM"},{"name": "Cuchillo", "address": "261 Powell St, Vancouver, BC V6A 2Z1, Canada", "phone": "+1 604-559-7585", "tags": ["restaurant", "food", "point_of_interest", "establishment"], "rating": 4.5, "website": "http://www.cuchillo.ca/", "location": {"lat": 49.283259, "lng": -123.0981176}, "google_id": "ChIJGzNQznBxhlQRUfJ4lO6Hwnc"},{"name": "LanaLou's Restaurant", "address": "362 Powell St, Vancouver, BC V6A 1G4, Canada", "phone": "+1 604-563-5055", "tags": ["restaurant", "food", "point_of_interest", "establishment"], "rating": 4.4, "website": "http://lanalous.wixsite.com/lanalous", "location": {"lat": 49.28302739999999, "lng": -123.0962677}, "google_id": "ChIJi-YOfHFxhlQRQv-uuK9EoUk"},{"name": "Fujiya Japanese Foods Office", "address": "450 Alexander St, Vancouver, BC V6A 1C5, Canada", "phone": "+1 604-251-9093", "tags": ["restaurant", "food", "point_of_interest", "establishment"], "rating": 3.6, "website": "http://www.fujiya.ca/", "location": {"lat": 49.28384759999999, "lng": -123.093933}, "google_id": "ChIJkcEFuHNxhlQRQLF9OQ6L19o"},{"name": "Prime Time Chicken and Chinese Food", "address": "416 Main St, Vancouver, BC V6A 1T5, Canada", "phone": "+1 604-568-6999", "tags": ["restaurant", "food", "point_of_interest", "establishment"], "rating": 3.7, "website": "", "location": {"lat": 49.2809433, "lng": -123.099231}, "google_id": "ChIJKUC8W3BxhlQRNlAvSHLeWtQ"},{"name": "Pink Pearl Chinese Seafood Restaurant", "address": "1132 E Hastings St, Vancouver, BC V6A 1S2, Canada", "phone": "+1 604-253-4316", "tags": ["restaurant", "food", "point_of_interest", "establishment"], "rating": 3.9, "website": "http://www.pinkpearl.com/", "location": {"lat": 49.2807518, "lng": -123.0802219}, "google_id": "ChIJzWQYFRNxhlQRo1Mdt1UaFW4"},{"name": "Deacon's Corner", "address": "101 Main St, Vancouver, BC V6A 2S5, Canada", "phone": "+1 604-684-1555", "tags": ["restaurant", "food", "point_of_interest", "establishment"], "rating": 4.3, "website": "http://www.deaconscorner.ca/", "location": {"lat": 49.2838981, "lng": -123.0997232}, "google_id": "ChIJpwIoNHFxhlQRdXKssvNQr20"},{"name": "Ba Le Sandwich Shop", "address": "633 Main St, Vancouver, BC V6A 2V4, Canada", "phone": "+1 604-662-8108", "tags": ["restaurant", "food", "point_of_interest", "establishment"], "rating": 4.2, "website": "", "location": {"lat": 49.27873930000001, "lng": -123.0994826}, "google_id": "ChIJNSGDqnpxhlQR6jF4xUjXRc0"},{"name": "Jade Dynasty Restaurant", "address": "137 E Pender St, Vancouver, BC V6A 1T6, Canada", "phone": "+1 604-683-8816", "tags": ["restaurant", "food", "point_of_interest", "establishment"], "rating": 4.1, "website": "", "location": {"lat": 49.280523, "lng": -123.1009819}, "google_id": "ChIJQboZZXBxhlQRhpqHCR2PcF8"},{"name": "Bestie", "address": "105 E Pender St, Vancouver, BC V6A 1T5, Canada", "phone": "+1 604-620-1175", "tags": ["restaurant", "food", "point_of_interest", "establishment"], "rating": 4.4, "website": "https://instagram.com/bestiewurst", "location": {"lat": 49.28055140000001, "lng": -123.1020105}, "google_id": "ChIJfbLzfnBxhlQRX3jmub-q-SA"},{"name": "The Boss Bakery & Restaurant Chinatown", "address": "532 Main St, Vancouver, BC V6A 2T9, Canada", "phone": "+1 604-683-3860", "tags": ["bakery", "restaurant", "food", "point_of_interest", "store", "establishment"], "rating": 3.8, "website": "", "location": {"lat": 49.2798127, "lng": -123.0992736}, "google_id": "ChIJoasPFHBxhlQRpEZzN4UA_04"},{"name": "Wilder Snail Neighborhood Grocery & Coffee", "address": "799 Keefer St, Vancouver, BC V6A 1Y6, Canada", "phone": "+1 604-216-0640", "tags": ["cafe", "restaurant", "food", "point_of_interest", "store", "establishment"], "rating": 4.5, "website": "https://www.wildersnail.ca/", "location": {"lat": 49.279433, "lng": -123.0874543}, "google_id": "ChIJgQhjTmxxhlQR0_feexjneAU"},{"name": "Kam Wai Dim Sum", "address": "249 E Pender St, Vancouver, BC V6A 1T8, Canada", "phone": "+1 604-683-2333", "tags": ["restaurant", "food", "point_of_interest", "establishment"], "rating": 4.2, "website": "http://kamwaidimsum.ca/", "location": {"lat": 49.2804922, "lng": -123.098433}, "google_id": "ChIJdwUEMnBxhlQRdoApBIMnj-Q"},{"name": "Harvest Community Foods", "address": "243 Union St, Vancouver, BC V6A 2Z7, Canada", "phone": "+1 604-682-8851", "tags": ["restaurant", "food", "point_of_interest", "establishment"], "rating": 4.4, "website": "http://harvestunion.ca/", "location": {"lat": 49.2777501, "lng": -123.0981685}, "google_id": "ChIJV2NNi29xhlQRFjqUkpWmszY"},{"name": "The Chinese Tea Shop", "address": "101 E Pender St, Vancouver, BC V6A 1T6, Canada", "phone": "+1 604-633-1322", "tags": ["restaurant", "food", "point_of_interest", "store", "establishment"], "rating": 4.8, "website": "https://www.thechineseteashop.com/", "location": {"lat": 49.2805303, "lng": -123.1021373}, "google_id": "ChIJYZf-fnBxhlQR6F6wQilJKZY"},{"name": "Gain Wah Restaurant Ltd", "address": "218 Keefer St, Vancouver, BC V6A 1X5, Canada", "phone": "+1 604-684-1740", "tags": ["restaurant", "food", "point_of_interest", "establishment"], "rating": 4.1, "website": "", "location": {"lat": 49.2793717, "lng": -123.0989354}, "google_id": "ChIJNyKZGXBxhlQRQm981OXurdU"},{"name": "Uncle Henry's Restaurant", "address": "Vancouver, BC V6A 1P9, Canada", "phone": "", "tags": ["restaurant", "food", "point_of_interest", "establishment"], "rating": "", "website": "", "location": {"lat": 49.2813576, "lng": -123.0920872}, "google_id": "ChIJqXeTCHJxhlQRvOgs1v9LeBM"},{"name": "Treasure Green Tea Company", "address": "227 E Georgia St, Vancouver, BC V6A 1Z6, Canada", "phone": "+1 604-687-4181", "tags": ["cafe", "restaurant", "food", "point_of_interest", "store", "establishment"], "rating": 4.9, "website": "https://treasuregreen.com/", "location": {"lat": 49.278651, "lng": -123.098625}, "google_id": "ChIJbzY2-29xhlQRScfO0qUjnFo"},{"name": "Hunnybee Bruncheonette", "address": "789 Gore Ave, Vancouver, BC V6A 2Z9, Canada", "phone": "", "tags": ["restaurant", "food", "point_of_interest", "establishment"], "rating": 4.3, "website": "https://www.hunnybeebrunch.com/", "location": {"lat": 49.2777421, "lng": -123.0971616}, "google_id": "ChIJvfCKYvhxhlQRXY_nS1P38W4"},{"name": "Kokomo", "address": "611 Gore Ave, Vancouver, BC V6A 2Z8, Canada", "phone": "+1 604-428-6599", "tags": ["cafe", "restaurant", "food", "point_of_interest", "establishment"], "rating": 4.6, "website": "http://heykokomo.ca/", "location": {"lat": 49.2791736, "lng": -123.0973488}, "google_id": "ChIJQRs-2W9xhlQR8FfzBtTP-C0"},{"name": "Oyster Express", "address": "296 Keefer St, Vancouver, BC V6A 1X4, Canada", "phone": "+1 604-684-3300", "tags": ["restaurant", "food", "point_of_interest", "establishment"], "rating": 4.6, "website": "", "location": {"lat": 49.279292, "lng": -123.097424}, "google_id": "ChIJEcMJ2G9xhlQRXDCcU027qqs"},{"name": "Dosanko Restaurant", "address": "566 Powell St Unit #100, Vancouver, BC V6A 1G9, Canada", "phone": "+1 604-251-2020", "tags": ["restaurant", "food", "point_of_interest", "establishment"], "rating": 4.2, "website": "http://dosankorestaurant.ca/", "location": {"lat": 49.2827993, "lng": -123.0919369}, "google_id": "ChIJET2uRHJxhlQRIGUbZ-5Hi1Y"},{"name": "Manpuku Bento", "address": "288 E Pender St, Vancouver, BC V6A 1T7, Canada", "phone": "+1 604-687-0849", "tags": ["restaurant", "food", "point_of_interest", "establishment"], "rating": 4.7, "website": "http://manpukubento.com/", "location": {"lat": 49.2801711, "lng": -123.0975279}, "google_id": "ChIJvWhUmgFxhlQRvzLy1VFKRO4"},{"name": "Maxim's Bakery & Restaurant Chinatown", "address": "257 Keefer St, Vancouver, BC V6A 1X6, Canada", "phone": "+1 604-687-0949", "tags": ["bakery", "restaurant", "food", "point_of_interest", "store", "establishment"], "rating": 4, "website": "", "location": {"lat": 49.27956289999999, "lng": -123.0978406}, "google_id": "ChIJC4DYJnBxhlQRsMN3SgG3KIo"},{"name": "Mamie Taylor's", "address": "251 E Georgia St, Vancouver, BC V6A 1Z6, Canada", "phone": "+1 604-620-8818", "tags": ["restaurant", "food", "point_of_interest", "establishment"], "rating": 4.2, "website": "http://mamietaylors.ca/location/", "location": {"lat": 49.2786407, "lng": -123.0979906}, "google_id": "ChIJOfGI5m9xhlQRNYflI7JdOjA"},{"name": "Jang Mo Jib \uc7a5\ubaa8\uc9d1 \u5916\u6bcd\u5c4b", "address": "268 Keefer St #108, Vancouver, BC V6A 1X6, Canada", "phone": "+1 604-688-8303", "tags": ["restaurant", "food", "point_of_interest", "establishment"], "rating": 3.8, "website": "", "location": {"lat": 49.27932020000001, "lng": -123.0979457}, "google_id": "ChIJY8xWIHBxhlQRiKg4pEw6kRM"},{"name": "S2 Cafe House", "address": "874 E Hastings St, Vancouver, BC V6A 1R6, Canada", "phone": "+1 604-255-8488", "tags": ["restaurant", "food", "point_of_interest", "establishment"], "rating": 4.4, "website": "", "location": {"lat": 49.2808977, "lng": -123.0854572}, "google_id": "ChIJFymBGG1xhlQRW-lGLw9oeT8"},{"name": "Sing Chong Food Centre Ltd", "address": "253 Keefer St, Vancouver, BC V6A 1X6, Canada", "phone": "+1 604-684-0253", "tags": ["restaurant", "food", "point_of_interest", "establishment"], "rating": 3.8, "website": "", "location": {"lat": 49.27953280000001, "lng": -123.0979434}, "google_id": "ChIJg9VMIXBxhlQRUEH0PO8iXC8"},{"name": "La Boqueria Tasting Room", "address": "291 E Pender St, Vancouver, BC V6A 1T8, Canada", "phone": "+1 604-423-4300", "tags": ["restaurant", "food", "point_of_interest", "establishment"], "rating": 4.7, "website": "http://www.boqueria.ca/", "location": {"lat": 49.28060010000001, "lng": -123.0976188}, "google_id": "ChIJr2vL6VlxhlQRqJBkjxFsd1s"},{"name": "Mahjong Social & Shanghai Alley Noodle Shack", "address": "276 E Pender St, Vancouver, BC V6A 1T7, Canada", "phone": "+1 604-683-0036", "tags": ["restaurant", "food", "point_of_interest", "establishment"], "rating": "", "website": "http://www.seventeen88.ca/", "location": {"lat": 49.28027429999999, "lng": -123.097905}, "google_id": "ChIJn23-7npxhlQRgsVltY0q1dM"},{"name": "The Tuck Shoppe", "address": "237 Union St, Vancouver, BC V6A 2B2, Canada", "phone": "+1 604-620-6773", "tags": ["bar", "restaurant", "food", "point_of_interest", "establishment"], "rating": 4.6, "website": "http://thetuckshoppe.com/", "location": {"lat": 49.2777672, "lng": -123.0984597}, "google_id": "ChIJY2fnW2VxhlQRfsjuUPYKEcI"},{"name": "Kissa Tanto", "address": "263 E Pender St, Vancouver, BC V6A 1T8, Canada", "phone": "+1 778-379-8078", "tags": ["restaurant", "food", "point_of_interest", "establishment"], "rating": 4.6, "website": "http://www.kissatanto.com/", "location": {"lat": 49.2806047, "lng": -123.0981249}, "google_id": "ChIJD8oBSnBxhlQRaX3X1supJ0g"},{"name": "Wing Hing Co Ltd", "address": "882 E Cordova St, Vancouver, BC V6A 1M4, Canada", "phone": "+1 604-253-1554", "tags": ["restaurant", "food", "point_of_interest", "establishment"], "rating": "", "website": "", "location": {"lat": 49.2819215, "lng": -123.0852895}, "google_id": "ChIJGQ_pNW1xhlQR7i3Ho2Mwpog"},{"name": "Liquids + Solids", "address": "901 E Hastings St, Vancouver, BC V6V 1C2, Canada", "phone": "+1 604-336-7687", "tags": ["restaurant", "food", "point_of_interest", "establishment"], "rating": 4.3, "website": "http://www.liquidsandsolids.ca/", "location": {"lat": 49.28134259999999, "lng": -123.0845603}, "google_id": "ChIJVVXpL21xhlQRTZDCEtp1CWc"},{"name": "The Mackenzie Room", "address": "415 Powell St, Vancouver, BC V6A 1G7, Canada", "phone": "+1 604-253-0705", "tags": ["bar", "restaurant", "food", "point_of_interest", "establishment"], "rating": 4.6, "website": "http://www.themackenzieroom.com/", "location": {"lat": 49.2832152, "lng": -123.0949183}, "google_id": "ChIJm4H60nNxhlQR_hsfmwtOHUk"}]