[{"name": "Burgoo", "address": "4434 W 10th Ave, Vancouver, BC V6R 1H9, Canada", "phone": "+1 604-221-7839", "tags": ["restaurant", "food", "point_of_interest", "establishment"], "rating": 4.3, "website": "http://burgoo.ca/", "location": {"lat": 49.26369209999999, "lng": -123.207232}, "google_id": "ChIJrWeiUuRyhlQRV3tmdEi6wFc"},{"name": "Subway", "address": "4367 W 10th Ave, Vancouver, BC V6R 2H6, Canada", "phone": "+1 604-222-3528", "tags": ["meal_takeaway", "restaurant", "food", "point_of_interest", "establishment"], "rating": 4, "website": "http://www.subway.com/", "location": {"lat": 49.26390680000001, "lng": -123.2049784}, "google_id": "ChIJeweG-uRyhlQRXJzkriWsULA"},{"name": "Ginger & Chili Restaurant", "address": "4409 W 10th Ave, Vancouver, BC V6R 2H8, Canada", "phone": "+1 604-222-2223", "tags": ["restaurant", "food", "point_of_interest", "establishment"], "rating": 3.5, "website": "http://www.gingerandchili.ca/", "location": {"lat": 49.263958, "lng": -123.206341}, "google_id": "ChIJGdsIU-RyhlQRRpbfk63Xtcg"},{"name": "Pizza Hut", "address": "4540 W 10th Ave, Vancouver, BC V6R 2J1, Canada", "phone": "+1 604-221-4267", "tags": ["meal_delivery", "meal_takeaway", "restaurant", "food", "point_of_interest", "establishment"], "rating": 3.2, "website": "https://www.pizzahut.ca/store-details/store-R31138/pizza-hut-Vancouver", "location": {"lat": 49.26362899999999, "lng": -123.210387}, "google_id": "ChIJKcgO2eVyhlQRyuS7A5wS3HM"},{"name": "The Well Caf\u00e9", "address": "5800 University Blvd, Vancouver, BC V6T 2E4, Canada", "phone": "+1 604-221-3351", "tags": ["cafe", "restaurant", "food", "point_of_interest", "store", "establishment"], "rating": 4.7, "website": "http://www.thewellcafe.ca/", "location": {"lat": 49.265648, "lng": -123.244093}, "google_id": "ChIJt3eRBshyhlQRNjbZO0iuprw"},{"name": "Perugia Italian Caff\u00e8", "address": "Life Sciences Centre, 2350 Health Sciences Mall, Vancouver, BC V6T 2B9, Canada", "phone": "+1 604-827-3291", "tags": ["cafe", "restaurant", "food", "point_of_interest", "establishment"], "rating": 3.3, "website": "http://food.ubc.ca/place/caffe-perugia/", "location": {"lat": 49.2621911, "lng": -123.2449632}, "google_id": "ChIJ12vSC8lyhlQRKc0MuP873R4"},{"name": "Pacific Poke", "address": "2366 Main Mall, Vancouver, BC V6T 1Z4, Canada", "phone": "+1 604-822-1992", "tags": ["restaurant", "food", "point_of_interest", "establishment"], "rating": 3.8, "website": "http://www.thepacificpoke.com/", "location": {"lat": 49.2611012, "lng": -123.2483053}, "google_id": "ChIJoeaVxctyhlQRxLhQQPtU-tY"},{"name": "Pie R Squared", "address": "6133 University Blvd #1501, Vancouver, BC V6T 1Z1, Canada", "phone": "+1 604-822-4396", "tags": ["restaurant", "food", "point_of_interest", "establishment"], "rating": 3.7, "website": "http://www.ams.ubc.ca/foodanddrink/piersquared/", "location": {"lat": 49.26625910000001, "lng": -123.2497835}, "google_id": "ChIJd1kFq7dyhlQRONqtGKcRw-o"},{"name": "University Golf Club Restaurant", "address": "5185 University Blvd, Vancouver, BC V6T 1G6, Canada", "phone": "+1 604-225-2316", "tags": ["restaurant", "food", "point_of_interest", "establishment"], "rating": 4.3, "website": "https://universitygolf.com/westward-ho/", "location": {"lat": 49.2648387, "lng": -123.2279376}, "google_id": "ChIJeVrEzcNyhlQRpMfjOKJiMhg"},{"name": "Freshii", "address": "3351 Wesbrook Mall, Vancouver, BC V6S 0E3, Canada", "phone": "+1 604-343-4594", "tags": ["restaurant", "food", "point_of_interest", "establishment"], "rating": 3.2, "website": "https://freshii.com/ca/locations", "location": {"lat": 49.25441969999999, "lng": -123.2353972}, "google_id": "ChIJn4M4CdFyhlQRjn9GMZyBYhg"},{"name": "One More Sushi", "address": "2155 Allison Rd #222, Vancouver, BC V6T 1T5, Canada", "phone": "+1 604-228-9773", "tags": ["restaurant", "food", "point_of_interest", "establishment"], "rating": 3.5, "website": "https://sites.google.com/view/onemoresushi/home", "location": {"lat": 49.266237, "lng": -123.2423792}, "google_id": "ChIJtVPQfeRwhlQRgGigAIjXgcI"},{"name": "Subway", "address": "University of, 2178 Western Pkwy, Vancouver, BC V6T 1V6, Canada", "phone": "+1 604-620-8948", "tags": ["meal_takeaway", "restaurant", "food", "point_of_interest", "establishment"], "rating": 3.6, "website": "http://www.subway.com/", "location": {"lat": 49.2659707, "lng": -123.2431036}, "google_id": "ChIJpWCX_MdyhlQR1qoDFF7tQbE"},{"name": "Black Pearl", "address": "5728 University Blvd B8, Vancouver, BC V6T 1K6, Canada", "phone": "", "tags": ["restaurant", "food", "point_of_interest", "establishment"], "rating": 3.5, "website": "", "location": {"lat": 49.2664779, "lng": -123.2429614}, "google_id": "ChIJ7_4H9sdyhlQRILgQg0I2Ul8"},{"name": "Pizza Garden", "address": "5780 University Blvd, Vancouver, BC V6T 1K6, Canada", "phone": "+1 604-428-5220", "tags": ["meal_delivery", "meal_takeaway", "restaurant", "food", "point_of_interest", "establishment"], "rating": 4.2, "website": "http://www.pizzagarden.ca/", "location": {"lat": 49.26637939999999, "lng": -123.2434223}, "google_id": "ChIJ178FBrhyhlQRWLMY43zttrs"},{"name": "A&W Canada", "address": "5778 University Blvd, Vancouver, BC V6T 1K6, Canada", "phone": "+1 604-428-0060", "tags": ["restaurant", "food", "point_of_interest", "establishment"], "rating": 3.8, "website": "http://aw.ca/", "location": {"lat": 49.266466, "lng": -123.243429}, "google_id": "ChIJvygj-cdyhlQR-0d3pYpr5Xs"},{"name": "Fit For Life", "address": "105-6190 Agronomy Rd, Vancouver, BC V6T, Canada", "phone": "", "tags": ["restaurant", "food", "point_of_interest", "establishment"], "rating": 3.4, "website": "http://www.fitforlifefood.com/", "location": {"lat": 49.26135739999999, "lng": -123.2464952}, "google_id": "ChIJ-fQdaclyhlQRgiHgtErJM_Q"},{"name": "Jamjar Canteen", "address": "6035 University Blvd, Vancouver, BC V6T 0C5, Canada", "phone": "+1 604-620-5320", "tags": ["restaurant", "food", "point_of_interest", "establishment"], "rating": 4.3, "website": "http://www.jamjarcanteen.ca/", "location": {"lat": 49.2662663, "lng": -123.2472009}, "google_id": "ChIJk5906bdyhlQRea__nlDsjfs"},{"name": "Gallery Patio & Lounge", "address": "6133 University Blvd 4th floor, Vancouver, BC V6T 1Z1, Canada", "phone": "+1 604-827-5660", "tags": ["restaurant", "bar", "food", "point_of_interest", "establishment"], "rating": 4, "website": "https://www.ams.ubc.ca/the-nest/eat/", "location": {"lat": 49.26680349999999, "lng": -123.2502888}, "google_id": "ChIJA8jVqrdyhlQR7ByPvN7ThHs"},{"name": "Mercante", "address": "6488 University Blvd, Vancouver, BC V6Z 1Z4, Canada", "phone": "+1 604-827-2210", "tags": ["restaurant", "food", "point_of_interest", "establishment"], "rating": 4.1, "website": "http://www.food.ubc.ca/mercante/", "location": {"lat": 49.2636979, "lng": -123.2550182}, "google_id": "ChIJY-VLmLVyhlQR6kLZcjismSE"},{"name": "Sun Sushi", "address": "4512 W 10th Ave, Vancouver, BC V6R 2J1, Canada", "phone": "+1 604-222-8868", "tags": ["restaurant", "food", "point_of_interest", "establishment"], "rating": 4.2, "website": "http://www.sunsushi.ca/", "location": {"lat": 49.26371409999999, "lng": -123.209655}, "google_id": "ChIJ4acY0OVyhlQROdXcEi7FHVw"},{"name": "Bella Roma Pizzeria & Ristorante", "address": "4460 W 10th Ave, Vancouver, BC V6R 2H9, Canada", "phone": "+1 604-222-8080", "tags": ["restaurant", "food", "point_of_interest", "establishment"], "rating": 4.1, "website": "http://www.bellaroma1.com/", "location": {"lat": 49.26379239999999, "lng": -123.2089326}, "google_id": "ChIJv2syteVyhlQRXpALoFvPQ44"},{"name": "Hime Sushi", "address": "4490 W 10th Ave, Vancouver, BC V6R 2H9, Canada", "phone": "+1 604-224-2121", "tags": ["restaurant", "food", "point_of_interest", "establishment"], "rating": 4.1, "website": "http://www.himesushi.com/en/index.php", "location": {"lat": 49.26369889999999, "lng": -123.2087306}, "google_id": "ChIJqdXYy-VyhlQRQUdudhjshWs"},{"name": "La Brass", "address": "4473 W 10th Ave, Vancouver, BC V6R 2H8, Canada", "phone": "+1 604-222-1980", "tags": ["restaurant", "food", "point_of_interest", "establishment"], "rating": 4.2, "website": "http://labrass.co/", "location": {"lat": 49.263968, "lng": -123.208355}, "google_id": "ChIJHZYWt-VyhlQRX1LczQckSlk"},{"name": "Enigma Urban Eatery & Bar", "address": "4397 W 10th Ave, Vancouver, BC V6R 2H6, Canada", "phone": "+1 604-222-6881", "tags": ["restaurant", "food", "point_of_interest", "establishment"], "rating": 3.9, "website": "http://www.enigmarestaurant.ca/", "location": {"lat": 49.2639001, "lng": -123.2059181}, "google_id": "ChIJjYGy-ORyhlQRkR_f3PVd8Cg"},{"name": "Spanish Banks West Concession", "address": "4875 NW Marine Dr, Vancouver, BC V6T 1A1, Canada", "phone": "+1 604-224-4624", "tags": ["restaurant", "food", "point_of_interest", "establishment"], "rating": 4.3, "website": "http://vancouver.ca/parks-recreation-culture/spanish-bank-beach.aspx", "location": {"lat": 49.2774179, "lng": -123.2227729}, "google_id": "ChIJHSCON5JyhlQRvehs8WAeGXk"},{"name": "Ideas Lunch & Wine Bar", "address": "6331 Crescent Rd, Vancouver, BC V6T 1Z2, Canada", "phone": "+1 604-822-0968", "tags": ["restaurant", "food", "point_of_interest", "establishment"], "rating": 3, "website": "http://food.ubc.ca/place/ideas/", "location": {"lat": 49.2689088, "lng": -123.2571168}, "google_id": "ChIJgxzvW7FyhlQRKzlmoAkLS2k"},{"name": "Vera's Burger Shack", "address": "2188 Western Pkwy, Vancouver, BC V6T 1V6, Canada", "phone": "+1 604-221-8372", "tags": ["bar", "restaurant", "food", "point_of_interest", "establishment"], "rating": 3.3, "website": "http://verasburgershack.com/", "location": {"lat": 49.2657851, "lng": -123.2432128}, "google_id": "ChIJ49Lc_MdyhlQRTEFPm4myp_s"},{"name": "Everyday Sushi", "address": "4572 W 10th Ave, Vancouver, BC V6R 2J1, Canada", "phone": "+1 604-228-9266", "tags": ["restaurant", "food", "point_of_interest", "establishment"], "rating": 3.5, "website": "https://everydaysushi.ca/", "location": {"lat": 49.2637021, "lng": -123.211343}, "google_id": "ChIJL4pjdOZyhlQRjKHmrVKJaKE"},{"name": "The Point", "address": "MD, 2205 Lower Mall Building 6, Vancouver, BC V6T 1Z4, Canada", "phone": "+1 604-822-9503", "tags": ["restaurant", "food", "point_of_interest", "establishment"], "rating": 3.6, "website": "http://food.ubc.ca/place/the-point/", "location": {"lat": 49.2617637, "lng": -123.2554471}, "google_id": "ChIJAT6TmspyhlQRnIQa4ds5AEQ"},{"name": "Red Burrito", "address": "2192 Western Pkwy, Vancouver, BC V6T 1V6, Canada", "phone": "+1 604-569-1313", "tags": ["restaurant", "food", "point_of_interest", "establishment"], "rating": 3.1, "website": "http://www.redburrito.ca/", "location": {"lat": 49.2657552, "lng": -123.2431819}, "google_id": "ChIJpcfR_MdyhlQRh5p29ytHm4c"},{"name": "Togo Sushi UBC", "address": "3380 Shrum Lane, Vancouver, BC V6S 0B9, Canada", "phone": "+1 604-222-9288", "tags": ["restaurant", "food", "point_of_interest", "establishment"], "rating": 3.4, "website": "http://www.togosushi.ca/", "location": {"lat": 49.2539939, "lng": -123.2353903}, "google_id": "ChIJU21jMChzhlQRI7sOcRkhqfM"},{"name": "Sage", "address": "6331 Crescent Rd, Vancouver, BC V6T 1Z1, Canada", "phone": "+1 604-822-0968", "tags": ["restaurant", "food", "point_of_interest", "establishment"], "rating": 4.2, "website": "http://sage.ubc.ca/", "location": {"lat": 49.2689235, "lng": -123.2572068}, "google_id": "ChIJgxzvW7FyhlQRMBpgfrO2ckI"},{"name": "Pita Pit", "address": "5717 Dalhousie Rd, Vancouver, BC V6T 2H9, Canada", "phone": "+1 604-221-7488", "tags": ["restaurant", "food", "point_of_interest", "establishment"], "rating": 4.1, "website": "https://pitapit.ca/location/#/en/vancouver-ubc/?utm_source=gmb&utm_medium=organic&utm_campaign=local", "location": {"lat": 49.26612410000001, "lng": -123.2421328}, "google_id": "ChIJJfNy8sdyhlQRHfHUtd4dgL8"},{"name": "Gold Train Express", "address": "4530 W 10th Ave, Vancouver, BC V6R 2J1, Canada", "phone": "+1 604-677-6981", "tags": ["restaurant", "food", "point_of_interest", "establishment"], "rating": 3.9, "website": "", "location": {"lat": 49.2636311, "lng": -123.2101105}, "google_id": "ChIJk3G62-VyhlQRTDoca2-Ot4A"},{"name": "Subway", "address": "University of British Columbia, Student Union Building, 6138 Student Union Blvd, Vancouver, BC V6T 2B9, Canada", "phone": "+1 604-822-3461", "tags": ["restaurant", "food", "point_of_interest", "establishment"], "rating": 2.6, "website": "http://www.food.ubc.ca/place/subway/", "location": {"lat": 49.26732320000001, "lng": -123.2499461}, "google_id": "ChIJyUsnFrdyhlQRSdT9bWf1yig"},{"name": "The Diner", "address": "4556 W 10th Ave, Vancouver, BC V6R 2J1, Canada", "phone": "+1 604-224-1912", "tags": ["restaurant", "food", "point_of_interest", "establishment"], "rating": 4.2, "website": "", "location": {"lat": 49.26360640000001, "lng": -123.2108682}, "google_id": "ChIJ38n0deZyhlQR7SRgPaf-Wk4"},{"name": "The Boulevard Coffee Roasting Co", "address": "5970 University Blvd, Vancouver, BC V6T 1Z3, Canada", "phone": "+1 604-827-4488", "tags": ["cafe", "restaurant", "food", "point_of_interest", "establishment"], "rating": 4.2, "website": "http://www.theboulevard.ca/", "location": {"lat": 49.2660099, "lng": -123.2464001}, "google_id": "ChIJZVyXQLZyhlQRPS4bPii6epA"},{"name": "Freshslice Pizza", "address": "2166 Western Pkwy, Vancouver, BC V6T 1V6, Canada", "phone": "+1 604-569-0683", "tags": ["meal_delivery", "meal_takeaway", "restaurant", "food", "point_of_interest", "establishment"], "rating": 4, "website": "http://www.freshslice.com/", "location": {"lat": 49.2660355, "lng": -123.2430082}, "google_id": "ChIJW08b_MdyhlQRkJMDvWQ5iko"},{"name": "Chef Hung Taiwanese Beef Noodle", "address": "Granite Terrace III, 3313 Shrum Lane #102, Vancouver, BC V6S 0B0, Canada", "phone": "+1 604-228-8765", "tags": ["restaurant", "food", "point_of_interest", "establishment"], "rating": 3.1, "website": "http://www.chefhungnoodle.com/", "location": {"lat": 49.25437, "lng": -123.23631}, "google_id": "ChIJE0-5DNFyhlQRVg3WV5ulaSY"},{"name": "McDonald's", "address": "101 5728 University Blvd, Vancouver, BC V6T 1K6, Canada", "phone": "+1 604-221-2570", "tags": ["cafe", "restaurant", "food", "point_of_interest", "establishment"], "rating": 3.4, "website": "https://www.mcdonalds.com/ca/en-ca/restaurant-locator.html", "location": {"lat": 49.2666677, "lng": -123.2425266}, "google_id": "ChIJ724lCrhyhlQR40w5_LUVBas"},{"name": "Only U Cafe", "address": "5737 Dalhousie Rd, Vancouver, BC V6T 2H9, Canada", "phone": "+1 604-221-6511", "tags": ["restaurant", "food", "point_of_interest", "establishment"], "rating": 4.2, "website": "https://m.facebook.com/Only-U-Cafe-431021496919221/", "location": {"lat": 49.2659946, "lng": -123.242398}, "google_id": "ChIJwfPAkcdyhlQRjwK4S7IhUCM"},{"name": "Westward Ho! Public House & Grill Room", "address": "5185 University Blvd, Vancouver, BC V6T 1X5, Canada", "phone": "+1 604-225-2315", "tags": ["restaurant", "bar", "food", "point_of_interest", "establishment"], "rating": 4.2, "website": "http://www.universitygolf.com/", "location": {"lat": 49.2647371, "lng": -123.2279408}, "google_id": "ChIJ98_blcNyhlQRjf9yOYXOn7Q"},{"name": "Jugo Juice", "address": "3348 Wesbrook Mall CRU #4, Vancouver, BC V6S 0A8, Canada", "phone": "+1 604-221-6116", "tags": ["restaurant", "food", "point_of_interest", "establishment"], "rating": 3.7, "website": "http://www.jugojuice.com/?utm_source=G&utm_medium=LPM&utm_campaign=MTY", "location": {"lat": 49.2544759, "lng": -123.2349564}, "google_id": "ChIJB9dvFtFyhlQRAioyfdJmotg"},{"name": "Biercraft UBC", "address": "3340 Shrum Lane, Vancouver, BC V6T 1W5, Canada", "phone": "+1 604-559-2437", "tags": ["restaurant", "bar", "food", "point_of_interest", "establishment"], "rating": 3.8, "website": "http://biercraft.com/wesbrook-at-ubc/", "location": {"lat": 49.2543802, "lng": -123.2353631}, "google_id": "ChIJ71PabNFyhlQRIKr0By358s8"},{"name": "The Corner Kitchen UBC", "address": "115-5743 Dalhousie Rd, Vancouver, BC V6T 1W4, Canada", "phone": "+1 604-428-5045", "tags": ["restaurant", "food", "point_of_interest", "establishment"], "rating": 4, "website": "", "location": {"lat": 49.26610159999999, "lng": -123.242529}, "google_id": "ChIJqVIIVuNzhlQRU2JjdHD_t0o"},{"name": "Neptune Chinese Kitchen \u9cf3\u9cf4\u7ca5\u9eb5", "address": "3337 Shrum Lane, Vancouver, BC V6S 0C8, Canada", "phone": "+1 604-559-7098", "tags": ["restaurant", "food", "point_of_interest", "establishment"], "rating": 2.8, "website": "https://neptune-restaurant.ca/", "location": {"lat": 49.25416289999999, "lng": -123.2359556}, "google_id": "ChIJX9lWc9FyhlQRo_l2A4pcjsc"},{"name": "Virtuous Pie", "address": "3339 Shrum Ln, Vancouver, BC V6S 0C8, Canada", "phone": "+1 604-428-1060", "tags": ["restaurant", "food", "point_of_interest", "establishment"], "rating": 4.5, "website": "https://virtuouspie.com/locations/canada/ubc-wesbrook-village", "location": {"lat": 49.2541059, "lng": -123.2359573}, "google_id": "ChIJfS9QbdFyhlQRtD2CLBVh5-A"},{"name": "Dawdler Kitchen", "address": "2158 Western Pkwy, Vancouver, BC V6T 1V6, Canada", "phone": "+1 604-228-9870", "tags": ["restaurant", "food", "point_of_interest", "establishment"], "rating": 2.9, "website": "", "location": {"lat": 49.2660104, "lng": -123.2432118}, "google_id": "ChIJIZthC7lzhlQR4JUiQQTrTgk"},{"name": "5 Tastes Chinese Bistro", "address": "2158 Western Pkwy, Vancouver, BC V6T 1W6, Canada", "phone": "+1 604-228-9870", "tags": ["restaurant", "food", "point_of_interest", "establishment"], "rating": 1.8, "website": "", "location": {"lat": 49.2660104, "lng": -123.2432118}, "google_id": "ChIJfXpG_MdyhlQRvfv2w1IgMy0"},{"name": "Petracafe", "address": "5728 University Blvd, Vancouver, BC V6T 1K6, Canada", "phone": "+1 604-221-8883", "tags": ["restaurant", "food", "point_of_interest", "establishment"], "rating": 3.8, "website": "", "location": {"lat": 49.26653649999999, "lng": -123.2426836}, "google_id": "ChIJvdpWCrhyhlQRajPPRDysuUk"},{"name": "Petra Mediterranean Food", "address": "5728 University Blvd, Vancouver, BC V6T 1K6, Canada", "phone": "", "tags": ["restaurant", "food", "point_of_interest", "establishment"], "rating": 3.9, "website": "", "location": {"lat": 49.2666177, "lng": -123.2426541}, "google_id": "ChIJ2USHCrhyhlQRD4WWMHUyrP0"},{"name": "Donair Town", "address": "5728 University Blvd, Vancouver, BC V6T 1K6, Canada", "phone": "+1 604-221-7030", "tags": ["restaurant", "food", "point_of_interest", "establishment"], "rating": 4.1, "website": "", "location": {"lat": 49.26656349999999, "lng": -123.2427695}, "google_id": "ChIJExkZorVyhlQRSUjqWJK575s"},{"name": "Miyamae Sushi", "address": "5726 University Blvd, Vancouver, BC V6T 1K6, Canada", "phone": "+1 604-563-5888", "tags": ["restaurant", "food", "point_of_interest", "establishment"], "rating": 4, "website": "", "location": {"lat": 49.2666146, "lng": -123.2427578}, "google_id": "ChIJjd_lCrhyhlQRXTGV4xJTU0g"},{"name": "Kung Fu Noodle UBC", "address": "5728 University Blvd Unit B6, Vancouver, BC V6T 1K6, Canada", "phone": "+1 778-379-6456", "tags": ["restaurant", "food", "point_of_interest", "establishment"], "rating": 3.9, "website": "https://www.kungfunoodleubc.com/", "location": {"lat": 49.26657609999999, "lng": -123.2428402}, "google_id": "ChIJKwavB_VzhlQRkAOi27-Qr5c"},{"name": "Agra Tandoori Express", "address": "2138 Western Pkwy, Vancouver, BC V6T 1V6, Canada", "phone": "+1 604-225-2255", "tags": ["restaurant", "food", "point_of_interest", "establishment"], "rating": 2.9, "website": "", "location": {"lat": 49.2660382, "lng": -123.2434287}, "google_id": "ChIJE9BN-cdyhlQRrkMjLwNBr0A"},{"name": "My Home Cuisine", "address": "5728 University Blvd, Vancouver, BC V6T 1K6, Canada", "phone": "+1 604-221-7482", "tags": ["restaurant", "food", "point_of_interest", "establishment"], "rating": 3.6, "website": "", "location": {"lat": 49.2665325, "lng": -123.2429281}, "google_id": "ChIJHXaVCrhyhlQRnNzuFn4zvWk"},{"name": "Want Want Hot & Spicy House", "address": "5728 University Blvd, Vancouver, BC V6T 1K6, Canada", "phone": "+1 604-336-5728", "tags": ["restaurant", "food", "point_of_interest", "establishment"], "rating": 3.3, "website": "", "location": {"lat": 49.2665997, "lng": -123.2430775}, "google_id": "ChIJMXWZCbhyhlQRf4fSmzNxN-M"},{"name": "Running Chicken", "address": "207/208, 5728 University Blvd, Vancouver, BC V6T 1K6, Canada", "phone": "+1 604-336-1006", "tags": ["restaurant", "food", "point_of_interest", "establishment"], "rating": 3.8, "website": "", "location": {"lat": 49.2666118, "lng": -123.2430912}, "google_id": "ChIJJcYtZ8FyhlQRZujsJ-G68iE"},{"name": "Sodexo UBC Corner Cafe", "address": "2211 Wesbrook Mall, Vancouver, BC V6T 1Z7, Canada", "phone": "+1 604-822-7534", "tags": ["cafe", "restaurant", "food", "point_of_interest", "establishment"], "rating": 3.9, "website": "http://ubc.catertrax.com/", "location": {"lat": 49.2646721, "lng": -123.2459365}, "google_id": "ChIJvxmfOshyhlQR606Apn_VSHI"},{"name": "Tacomio UBC", "address": "6025 University Blvd, Vancouver, BC V6T 0C5, Canada", "phone": "+1 604-288-9511", "tags": ["restaurant", "food", "point_of_interest", "establishment"], "rating": 3.9, "website": "http://tacomio.com/", "location": {"lat": 49.26629759999999, "lng": -123.2471142}, "google_id": "ChIJcYRUwbdyhlQRSf8RKXQo-VI"}]