[{"name": "Cazba Restaurant", "address": "132 16th St W, North Vancouver, BC V7M 1T4, Canada", "phone": "+1 604-980-7373", "tags": ["restaurant", "food", "point_of_interest", "establishment"], "rating": 3.9, "website": "http://cazbarestaurant.com/", "location": {"lat": 49.323291, "lng": -123.074009}, "google_id": "ChIJFf5wWjhwhlQRC17dCyAhtdw"},{"name": "Lionsgate Pizza North Vancouver", "address": "1750 Lonsdale Ave, North Vancouver, BC V7M 2J7, Canada", "phone": "+1 604-987-4441", "tags": ["meal_delivery", "meal_takeaway", "restaurant", "food", "point_of_interest", "establishment"], "rating": 3.8, "website": "http://www.lionsgatepizza.com/", "location": {"lat": 49.32487, "lng": -123.072213}, "google_id": "ChIJPwgiJDlwhlQRHMkcct59Wfw"},{"name": "Indian Fusion Restaurant", "address": "2045 Lonsdale Ave, North Vancouver, BC V7M 2K4, Canada", "phone": "+1 604-984-9977", "tags": ["restaurant", "food", "point_of_interest", "establishment"], "rating": 4.6, "website": "http://www.indianfusiononline.com/", "location": {"lat": 49.3279866, "lng": -123.0724281}, "google_id": "ChIJCxMrGDxwhlQR_0xnCHn_KnA"},{"name": "DJJ's Wedge Pizza", "address": "2924 Lonsdale Ave, North Vancouver, BC V7N 4H9, Canada", "phone": "+1 604-988-8870", "tags": ["meal_delivery", "meal_takeaway", "restaurant", "food", "point_of_interest", "establishment"], "rating": 3.5, "website": "http://www.djjswedge.com/", "location": {"lat": 49.335933, "lng": -123.071474}, "google_id": "ChIJdVEI9hhwhlQRwjnsTKuNphw"},{"name": "Persian Gulf Restaurant", "address": "114 15th St W, North Vancouver, BC V7M 2J3, Canada", "phone": "+1 604-971-5113", "tags": ["restaurant", "food", "point_of_interest", "establishment"], "rating": 4.2, "website": "http://www.persiangulfrestaurant.com/", "location": {"lat": 49.32236839999999, "lng": -123.0735293}, "google_id": "ChIJf3dUZThwhlQRPS-0fCm10To"},{"name": "Sushi Umi", "address": "1995 Lonsdale Ave, North Vancouver, BC V7M 2K1, Canada", "phone": "+1 604-770-1737", "tags": ["restaurant", "food", "point_of_interest", "establishment"], "rating": 4.4, "website": "http://www.facebook.com/SushiUmiLonsdale", "location": {"lat": 49.3271477, "lng": -123.0724551}, "google_id": "ChIJ3WHFpz5whlQRCexp0pM3Ae8"},{"name": "Yaas Grill House", "address": "2077 Lonsdale Ave, North Vancouver, BC V7M 2K6, Canada", "phone": "+1 604-990-0020", "tags": ["meal_delivery", "restaurant", "food", "point_of_interest", "establishment"], "rating": 4, "website": "https://www.yaas.ca/", "location": {"lat": 49.328175, "lng": -123.0724159}, "google_id": "ChIJW9rpTRFxhlQR14gOqc6fI2Y"},{"name": "Donair Dude", "address": "1709 Lonsdale Ave, North Vancouver, BC V7M 2J6, Canada", "phone": "+1 604-770-4431", "tags": ["restaurant", "food", "point_of_interest", "establishment"], "rating": 4.1, "website": "https://www.donairdude.com/locations", "location": {"lat": 49.3243845, "lng": -123.0724972}, "google_id": "ChIJPSox4DhwhlQRU_iMS5cOZbk"},{"name": "Pizza Garden", "address": "1596 Lonsdale Ave, North Vancouver, BC V7M 2J3, Canada", "phone": "+1 604-770-2202", "tags": ["meal_takeaway", "restaurant", "food", "point_of_interest", "establishment"], "rating": 4, "website": "http://www.pizzagarden.ca/", "location": {"lat": 49.3231361, "lng": -123.0721001}, "google_id": "ChIJe57x8jhwhlQRsXrkM7M2V3k"},{"name": "Jordan Sushi", "address": "1564 Lonsdale Ave, North Vancouver, BC V7M 2J3, Canada", "phone": "+1 604-988-2616", "tags": ["restaurant", "food", "point_of_interest", "establishment"], "rating": 4.3, "website": "http://www.jordansushi.com/", "location": {"lat": 49.3230818, "lng": -123.072092}, "google_id": "ChIJLcXJjDhwhlQRhbGuaoPhEL8"},{"name": "Haida Sandwich", "address": "121 15th St E, North Vancouver, BC V7L 2P7, Canada", "phone": "+1 604-971-6021", "tags": ["meal_delivery", "restaurant", "food", "point_of_interest", "store", "establishment"], "rating": 4.1, "website": "https://haidasandwich.ca/north-vancouver/", "location": {"lat": 49.32192939999999, "lng": -123.0710888}, "google_id": "ChIJF828gThwhlQRXchiT3z90iA"},{"name": "Echo Caf\u00e9", "address": "116 14th St E, North Vancouver, BC V7L 2N3, Canada", "phone": "+1 604-971-3246", "tags": ["cafe", "restaurant", "food", "point_of_interest", "store", "establishment"], "rating": 4.3, "website": "https://echo-cafe.business.site/", "location": {"lat": 49.32120519999999, "lng": -123.0716537}, "google_id": "ChIJXfIwhUdwhlQRiTbDxNl7Z6E"},{"name": "Subway", "address": "1356 Lonsdale Ave Lonsdale Avenue &, 14th Street East, North Vancouver, BC V7M 2H8, Canada", "phone": "+1 604-988-1638", "tags": ["restaurant", "food", "point_of_interest", "establishment"], "rating": 3.5, "website": "http://www.subway.com/", "location": {"lat": 49.32087019999999, "lng": -123.072121}, "google_id": "ChIJ3ybkjUdwhlQR13FSi4Fbknc"},{"name": "The Portly Chef", "address": "1211 Lonsdale Ave, North Vancouver, BC V7M 2H5, Canada", "phone": "+1 604-971-4377", "tags": ["restaurant", "food", "point_of_interest", "establishment"], "rating": 4.7, "website": "http://www.theportlychef.com/", "location": {"lat": 49.3191947, "lng": -123.0726939}, "google_id": "ChIJpR_H1kdwhlQRoPSnor6qNsg"},{"name": "Mr. Pan Pizza & Indian Curry House", "address": "112 12th St W, North Vancouver, BC V7M 1N3, Canada", "phone": "+1 604-985-6699", "tags": ["restaurant", "meal_delivery", "meal_takeaway", "food", "point_of_interest", "establishment"], "rating": 4.3, "website": "https://www.mr-panpizza.ca/", "location": {"lat": 49.319072, "lng": -123.0728962}, "google_id": "ChIJmXWK2CVwhlQR2KxqlsPb10Q"},{"name": "Feed Me Fit", "address": "1144 Lonsdale Ave, North Vancouver, BC V7M 2H1, Canada", "phone": "+1 778-968-7080", "tags": ["restaurant", "food", "point_of_interest", "establishment"], "rating": 4.6, "website": "https://feedmefit.ca/", "location": {"lat": 49.3186718, "lng": -123.0724338}, "google_id": "ChIJQV4agEhwhlQRzzdvsPihWHI"},{"name": "Palki Restaurant", "address": "116 15th St E, North Vancouver, BC V7L 2P9, Canada", "phone": "+1 604-986-7555", "tags": ["meal_delivery", "meal_takeaway", "restaurant", "food", "point_of_interest", "establishment"], "rating": 4.3, "website": "https://www.palkirestaurant.com/?utm_source=GMBlisting&utm_medium=organic", "location": {"lat": 49.3223287, "lng": -123.071478}, "google_id": "ChIJ_SfvgDhwhlQRW4c3we7n1iM"},{"name": "Andreas Restaurant", "address": "153 16th St W, North Vancouver, BC V7M 1T3, Canada", "phone": "+1 604-985-0414", "tags": ["meal_delivery", "bar", "restaurant", "food", "point_of_interest", "establishment"], "rating": 3.6, "website": "http://andreasonline.net/", "location": {"lat": 49.32286879999999, "lng": -123.074626}, "google_id": "ChIJk-l-TzhwhlQRg7MnkbXSNK0"},{"name": "Zeitoon Restaurant", "address": "1615 Lonsdale Ave, North Vancouver, BC V7M 2J5, Canada", "phone": "+1 778-340-1500", "tags": ["restaurant", "food", "point_of_interest", "establishment"], "rating": 3.8, "website": "http://www.zeitoonrestaurant.ca/", "location": {"lat": 49.323434, "lng": -123.072722}, "google_id": "ChIJnXqW8ThwhlQRSo3OqMmp4P4"},{"name": "Panago Pizza", "address": "1981 Lonsdale Ave, North Vancouver, BC V7M 2K3, Canada", "phone": "+1 866-310-0001", "tags": ["meal_delivery", "meal_takeaway", "restaurant", "food", "point_of_interest", "establishment"], "rating": 3.8, "website": "http://www.panago.com/", "location": {"lat": 49.326983, "lng": -123.0724622}, "google_id": "ChIJYzgurz5whlQRMtJxM6i-tzQ"},{"name": "White Spot", "address": "2205 Lonsdale Ave, North Vancouver, BC V7M 2K8, Canada", "phone": "+1 604-987-0024", "tags": ["restaurant", "food", "point_of_interest", "establishment"], "rating": 3.7, "website": "http://www.whitespot.ca/", "location": {"lat": 49.32977320000001, "lng": -123.072392}, "google_id": "ChIJVXwJVDxwhlQRec-NO2_PlG0"},{"name": "Krua Thai Restaurant", "address": "1445 Lonsdale Ave, North Vancouver, BC V7M 2H9, Canada", "phone": "+1 604-990-9349", "tags": ["restaurant", "food", "point_of_interest", "establishment"], "rating": 4.2, "website": "http://www.kruathai.ca/", "location": {"lat": 49.3217217, "lng": -123.072598}, "google_id": "ChIJhZ9_dzhwhlQRkJb_OKrnojI"},{"name": "Chilli Lee Szechuan Cuisine", "address": "1927 Lonsdale Ave, North Vancouver, BC V7M 2K3, Canada", "phone": "+1 604-988-6800", "tags": ["restaurant", "food", "point_of_interest", "establishment"], "rating": 4, "website": "http://www.chillilee.com/", "location": {"lat": 49.32674889999999, "lng": -123.0724891}, "google_id": "ChIJNVP9rT5whlQRDLC6PmJ9x-g"},{"name": "Nando's North Vancouver", "address": "13th St E Unit 148, North Vancouver, BC V7L 2L5, Canada", "phone": "+1 604-988-4915", "tags": ["meal_takeaway", "restaurant", "food", "point_of_interest", "establishment"], "rating": 4.1, "website": "https://www.nandos.ca/", "location": {"lat": 49.32010439999999, "lng": -123.070305}, "google_id": "ChIJ5XQ7wkdwhlQRd7Qlci--yrg"},{"name": "Tamarind Hill", "address": "1440 Lonsdale Ave, North Vancouver, BC V7M 2J1, Canada", "phone": "+1 604-990-0111", "tags": ["restaurant", "food", "point_of_interest", "establishment"], "rating": 4.2, "website": "http://tamarindhill.ca/", "location": {"lat": 49.3216487, "lng": -123.0721192}, "google_id": "ChIJr8N_h0dwhlQRp0VkmkGZRuU"},{"name": "Sushi Katsu", "address": "1857 Lonsdale Ave, North Vancouver, BC V7M 2J9, Canada", "phone": "+1 604-988-8832", "tags": ["restaurant", "food", "point_of_interest", "establishment"], "rating": 3.9, "website": "http://www.sushikatsu-bc.com/", "location": {"lat": 49.3261201, "lng": -123.072416}, "google_id": "ChIJHR9KSzlwhlQRkGvKfZNROF4"},{"name": "Eighties Restaurant", "address": "110 W 14th St, North Vancouver, BC V7M 1N9, Canada", "phone": "+1 604-987-6654", "tags": ["restaurant", "food", "point_of_interest", "establishment"], "rating": 4.2, "website": "http://www.80srestaurant.com/", "location": {"lat": 49.321186, "lng": -123.0727479}, "google_id": "ChIJP5rBBzhwhlQRj_xK5cOlNJY"},{"name": "McDonald's", "address": "2001 Lonsdale Ave, North Vancouver, BC V7M 2K4, Canada", "phone": "+1 604-987-6815", "tags": ["cafe", "restaurant", "food", "point_of_interest", "establishment"], "rating": 3.3, "website": "https://www.mcdonalds.com/ca/en-ca/restaurant-locator.html", "location": {"lat": 49.3274328, "lng": -123.0725062}, "google_id": "ChIJi9wXHTxwhlQRrMKRlMJ42FY"},{"name": "Hachi Hana Japanese Restaurant", "address": "1426 Lonsdale Ave, North Vancouver, BC V7M 2J1, Canada", "phone": "+1 604-990-0081", "tags": ["meal_takeaway", "restaurant", "food", "point_of_interest", "establishment"], "rating": 4.4, "website": "http://hachihana.com/", "location": {"lat": 49.32149219999999, "lng": -123.072144}, "google_id": "ChIJzfCzh0dwhlQRvxoKITjJ4gY"},{"name": "KFC", "address": "2255 Lonsdale Ave, North Vancouver, BC V7M 2K8, Canada", "phone": "+1 604-984-9013", "tags": ["meal_delivery", "meal_takeaway", "restaurant", "food", "point_of_interest", "establishment"], "rating": 3.3, "website": "https://www.kfc.ca/menu/for-sharing?utm_source=Google&utm_medium=LocalSearch", "location": {"lat": 49.3301126, "lng": -123.0724882}, "google_id": "ChIJeZPcqj1whlQRpCbCS_-uGXM"},{"name": "Jack Lonsdale's Public House", "address": "127-1433 Lonsdale Ave, North Vancouver, BC V7M 2H9, Canada", "phone": "+1 604-986-7333", "tags": ["bar", "restaurant", "food", "point_of_interest", "establishment"], "rating": 3.9, "website": "http://jacklonsdales.ca/", "location": {"lat": 49.3213635, "lng": -123.0725887}, "google_id": "ChIJd6gXiUdwhlQRy6uLWQ-B3s4"},{"name": "Bravo Cucina Ristorante", "address": "1209 Lonsdale Ave, North Vancouver, BC V7M 2H5, Canada", "phone": "+1 604-985-3006", "tags": ["restaurant", "food", "point_of_interest", "establishment"], "rating": 4.4, "website": "http://www.bravocucinanorthvancouver.com/", "location": {"lat": 49.3191421, "lng": -123.0727864}, "google_id": "ChIJQ4oz1EdwhlQRcRQ0fxNiXRU"},{"name": "Haru Sushi", "address": "2041 Lonsdale Ave, North Vancouver, BC V7M 2K4, Canada", "phone": "+1 604-988-4755", "tags": ["restaurant", "food", "point_of_interest", "establishment"], "rating": 4.2, "website": "", "location": {"lat": 49.327941, "lng": -123.0724312}, "google_id": "ChIJSW1OGDxwhlQR15vqZ7EXjkg"},{"name": "Rosemary Rocksalt - Lonsdale", "address": "1669 Lonsdale Ave, North Vancouver, BC V7M 2J5, Canada", "phone": "+1 604-929-1817", "tags": ["bakery", "cafe", "restaurant", "food", "point_of_interest", "store", "establishment"], "rating": 4.1, "website": "http://rosemaryrocksalt.com/", "location": {"lat": 49.3240394, "lng": -123.0725453}, "google_id": "ChIJU2Ip5zhwhlQRNy9DNnfXObU"},{"name": "Red Chilli Szechuan Restaurant Ltd", "address": "731 Lonsdale Ave, North Vancouver, BC V7M 2G9, Canada", "phone": "+1 604-986-2088", "tags": ["restaurant", "food", "point_of_interest", "establishment"], "rating": 3.5, "website": "https://www.redchilliszechuanrestaurant.ca/", "location": {"lat": 49.3176097, "lng": -123.07304}, "google_id": "ChIJk8ZjkUhwhlQRjj-ujPYK_m8"},{"name": "Sushi Station Japanese Restaurant", "address": "1643 Lonsdale Ave, North Vancouver, BC V7M 2J5, Canada", "phone": "+1 604-990-8897", "tags": ["restaurant", "food", "point_of_interest", "establishment"], "rating": 4.5, "website": "http://sushistation.net/", "location": {"lat": 49.3238659, "lng": -123.0725823}, "google_id": "ChIJ0Uyu5ThwhlQRqsLiLe2rfU4"},{"name": "Yuko Maki", "address": "1540 Lonsdale Ave, North Vancouver, BC V7M 3L7, Canada", "phone": "+1 604-960-0717", "tags": ["restaurant", "food", "point_of_interest", "establishment"], "rating": 3.8, "website": "https://m.facebook.com/Yuko-Maki-Sushi-Restaurant-97982563617/#!/Yuko-Maki-Sushi-Restaurant-97982563617/", "location": {"lat": 49.3227136, "lng": -123.0720925}, "google_id": "ChIJQdlWiThwhlQRJ2Zyw5Ribxc"},{"name": "Spicy House", "address": "2039 Lonsdale Ave, North Vancouver, BC V7M 2K4, Canada", "phone": "+1 604-987-0102", "tags": ["restaurant", "food", "point_of_interest", "establishment"], "rating": 4.3, "website": "http://www.spicyhousenv.ca/", "location": {"lat": 49.32789959999999, "lng": -123.0724369}, "google_id": "ChIJNRFTGDxwhlQRngZZNGKgA78"},{"name": "Pho North Vancouver", "address": "128 14th St E, North Vancouver, BC V7L 4R9, Canada", "phone": "+1 604-988-3687", "tags": ["restaurant", "food", "point_of_interest", "establishment"], "rating": 3.9, "website": "", "location": {"lat": 49.321131, "lng": -123.071111}, "google_id": "ChIJ2cAQnEdwhlQRhohtnbFjfIw"},{"name": "Red Burrito Ltd", "address": "1455 Lonsdale Ave, North Vancouver, BC V7M 2H9, Canada", "phone": "+1 604-980-0980", "tags": ["restaurant", "food", "point_of_interest", "establishment"], "rating": 3.7, "website": "http://www.redburrito.ca/", "location": {"lat": 49.3218719, "lng": -123.0725663}, "google_id": "ChIJUTXzeThwhlQRvZKx6bL5zx4"},{"name": "Tequila Cocina Cantina & Traditional Mexican Eatery", "address": "1933 Lonsdale Ave, North Vancouver, BC V7M 2K2, Canada", "phone": "+1 604-770-4433", "tags": ["restaurant", "food", "point_of_interest", "establishment"], "rating": 3.4, "website": "https://www.tequilacocina.org/", "location": {"lat": 49.3268409, "lng": -123.072468}, "google_id": "ChIJlYyr1tNxhlQR936aX9y69eI"},{"name": "Pawans Indian Kitchen", "address": "1925 Lonsdale Ave, North Vancouver, BC V7M 2K2, Canada", "phone": "+1 604-770-3650", "tags": ["restaurant", "food", "point_of_interest", "establishment"], "rating": 4.5, "website": "http://www.pawansindiankitchen.ca/", "location": {"lat": 49.32669610000001, "lng": -123.0725536}, "google_id": "ChIJu8JUrD5whlQRIpbjx4IZkus"},{"name": "Pho 98 Vietnamese Noodle House", "address": "1855 Lonsdale Ave, North Vancouver, BC V7M 2J8, Canada", "phone": "+1 778-340-3993", "tags": ["restaurant", "food", "point_of_interest", "establishment"], "rating": 3.9, "website": "", "location": {"lat": 49.32598369999999, "lng": -123.0724484}, "google_id": "ChIJE2JSK0ZwhlQR1F3LHeU70Xc"},{"name": "Yas Grill House", "address": "2077 Lonsdale Ave, North Vancouver, BC V7M 2K4, Canada", "phone": "", "tags": ["restaurant", "food", "point_of_interest", "establishment"], "rating": 3, "website": "", "location": {"lat": 49.328175, "lng": -123.0724159}, "google_id": "ChIJoXF8_ApxhlQRNsWpk93uM-Y"},{"name": "Lonsdale Eatery", "address": "1842 Lonsdale Ave, North Vancouver, BC V7M 2J9, Canada", "phone": "+1 604-971-2475", "tags": ["restaurant", "food", "point_of_interest", "establishment"], "rating": 4.4, "website": "http://lonsdaleeatery.com/", "location": {"lat": 49.3258278, "lng": -123.0720042}, "google_id": "ChIJOaREQ2xxhlQRHb_qj9CAT38"},{"name": "JYP Enterprises Ltd", "address": "1829 Lonsdale Ave, North Vancouver, BC V7M 2J8, Canada", "phone": "+1 604-984-1838", "tags": ["restaurant", "food", "point_of_interest", "establishment"], "rating": "", "website": "", "location": {"lat": 49.3256919, "lng": -123.0724798}, "google_id": "ChIJsdVWNjlwhlQRDkzk_B_WSP4"},{"name": "Sho Restaurant", "address": "1829 Lonsdale Ave, North Vancouver, BC V7M 2J8, Canada", "phone": "+1 604-988-8449", "tags": ["restaurant", "food", "point_of_interest", "establishment"], "rating": 5, "website": "", "location": {"lat": 49.3256919, "lng": -123.0724798}, "google_id": "ChIJVRjm5TlxhlQRfvN7UXjpKDI"},{"name": "Caspian Express", "address": "1805 Lonsdale Ave, North Vancouver, BC V7M 2J9, Canada", "phone": "+1 778-898-1325", "tags": ["restaurant", "food", "point_of_interest", "establishment"], "rating": "", "website": "", "location": {"lat": 49.3253533, "lng": -123.0724922}, "google_id": "ChIJU69uOjlwhlQRqyXjpElkXxs"},{"name": "Browns Socialhouse Upper Lonsdale", "address": "1764 Lonsdale Ave, North Vancouver, BC V7M 2J7, Canada", "phone": "+1 604-929-5401", "tags": ["restaurant", "night_club", "bar", "food", "point_of_interest", "establishment"], "rating": 4.1, "website": "http://brownssocialhouse.com/lonsdale/", "location": {"lat": 49.3250889, "lng": -123.0720088}, "google_id": "ChIJi4WaLzlwhlQREwZJ2zdEFq0"},{"name": "Rice and Noodle (Lonsdale)", "address": "1661 Lonsdale Ave, North Vancouver, BC V7M 2J5, Canada", "phone": "+1 604-988-2242", "tags": ["restaurant", "food", "point_of_interest", "establishment"], "rating": 4, "website": "http://www.thericeandnoodle.com/", "location": {"lat": 49.32395249999999, "lng": -123.0725819}, "google_id": "ChIJz2tof3hxhlQR3BLct2HTyyU"},{"name": "Bento Sushi", "address": "1650 Lonsdale Ave, North Vancouver, BC V7M 2J3, Canada", "phone": "", "tags": ["meal_takeaway", "restaurant", "food", "point_of_interest", "establishment"], "rating": "", "website": "https://www.bentosushi.com/", "location": {"lat": 49.32388479999999, "lng": -123.071734}, "google_id": "ChIJdVNl8vFxhlQRrsmhwZ5rPpo"},{"name": "Yaas Restaurant", "address": "1629 Lonsdale Ave, North Vancouver, BC V7M 2J5, Canada", "phone": "+1 604-990-9099", "tags": ["restaurant", "food", "point_of_interest", "establishment"], "rating": 4.1, "website": "http://yaaspersiankebab.com/", "location": {"lat": 49.32376259999999, "lng": -123.0725122}, "google_id": "ChIJ3Wo3FjxwhlQR8AGNTmtTzcQ"},{"name": "Hachiro Ramen Bar", "address": "140 16th St W, North Vancouver, BC V7M 1T4, Canada", "phone": "+1 604-988-7561", "tags": ["restaurant", "food", "point_of_interest", "establishment"], "rating": 4.1, "website": "http://www.hachiroramen.com/", "location": {"lat": 49.3232807, "lng": -123.0742185}, "google_id": "ChIJvzWlFWdxhlQRdZT8N3zQ-oQ"},{"name": "The Entrepreneur Shack", "address": "1550 Eastern Ave, North Vancouver, BC V7L 3G1, Canada", "phone": "", "tags": ["restaurant", "food", "point_of_interest", "establishment"], "rating": "", "website": "", "location": {"lat": 49.32290769999999, "lng": -123.0703536}, "google_id": "ChIJPRbAqVdxhlQRuWyh9va5_78"},{"name": "Khaliej Fars Restaurant Ltd", "address": "114 15th St W, North Vancouver, BC V7M 1R5, Canada", "phone": "+1 604-971-5113", "tags": ["restaurant", "food", "point_of_interest", "establishment"], "rating": 3.1, "website": "", "location": {"lat": 49.3222932, "lng": -123.0732706}, "google_id": "ChIJf3dUZThwhlQRG6ugTSrnGls"},{"name": "Alberello Pizzeria", "address": "115 15th St W, North Vancouver, BC V7M 1R7, Canada", "phone": "+1 604-770-4484", "tags": ["restaurant", "food", "point_of_interest", "establishment"], "rating": 4.2, "website": "http://www.alberellopizzeria.com/", "location": {"lat": 49.3219581, "lng": -123.0728084}, "google_id": "ChIJMxa5ejhwhlQRbX5yN3VHIl8"},{"name": "Haida Pizza Vancouver", "address": "121 15th St E, North Vancouver, BC V7L 2P7, Canada", "phone": "+1 604-971-6021", "tags": ["meal_delivery", "restaurant", "food", "point_of_interest", "store", "establishment"], "rating": "", "website": "https://www.haidapizza.ca/north-vancouver/", "location": {"lat": 49.32192939999999, "lng": -123.0710888}, "google_id": "ChIJJ_H1eGFxhlQRaFKyeB6daiI"},{"name": "Mehman Restaurant", "address": "1451 Lonsdale Ave, North Vancouver, BC V7M 2H9, Canada", "phone": "+1 778-340-0200", "tags": ["restaurant", "food", "point_of_interest", "establishment"], "rating": 4, "website": "http://www.mehmanrestaurant.ca/", "location": {"lat": 49.32180049999999, "lng": -123.07262}, "google_id": "ChIJpS7peThwhlQR_iTxKbLEtHE"},{"name": "Poke Bar", "address": "1448 Lonsdale Ave, North Vancouver, BC V7M 2J1, Canada", "phone": "+1 604-971-0369", "tags": ["restaurant", "food", "point_of_interest", "establishment"], "rating": 4.6, "website": "http://ilovepokebar.ca/", "location": {"lat": 49.321756, "lng": -123.0721194}, "google_id": "ChIJmzu4eDhwhlQReNmn0761Xvs"},{"name": "Pho Spot", "address": "1442 Lonsdale Ave, North Vancouver, BC V7M 2J1, Canada", "phone": "+1 778-952-6368", "tags": ["restaurant", "food", "point_of_interest", "establishment"], "rating": 3.5, "website": "", "location": {"lat": 49.3217062, "lng": -123.0721252}, "google_id": "ChIJObGeeDhwhlQRfrZojUsVjyA"}]