[{"name": "Burgoo", "address": "4434 W 10th Ave, Vancouver, BC V6R 1H9, Canada", "phone": "+1 604-221-7839", "tags": ["restaurant", "food", "point_of_interest", "establishment"], "rating": 4.3, "website": "http://burgoo.ca/", "location": {"lat": 49.26369209999999, "lng": -123.207232}, "google_id": "ChIJrWeiUuRyhlQRV3tmdEi6wFc"},{"name": "Subway", "address": "4367 W 10th Ave, Vancouver, BC V6R 2H6, Canada", "phone": "+1 604-222-3528", "tags": ["meal_takeaway", "restaurant", "food", "point_of_interest", "establishment"], "rating": 4, "website": "http://www.subway.com/", "location": {"lat": 49.26390680000001, "lng": -123.2049784}, "google_id": "ChIJeweG-uRyhlQRXJzkriWsULA"},{"name": "Ginger & Chili Restaurant", "address": "4409 W 10th Ave, Vancouver, BC V6R 2H8, Canada", "phone": "+1 604-222-2223", "tags": ["restaurant", "food", "point_of_interest", "establishment"], "rating": 3.5, "website": "http://www.gingerandchili.ca/", "location": {"lat": 49.263958, "lng": -123.206341}, "google_id": "ChIJGdsIU-RyhlQRRpbfk63Xtcg"},{"name": "Pizza Hut", "address": "4540 W 10th Ave, Vancouver, BC V6R 2J1, Canada", "phone": "+1 604-221-4267", "tags": ["meal_delivery", "meal_takeaway", "restaurant", "food", "point_of_interest", "establishment"], "rating": 3.2, "website": "https://www.pizzahut.ca/store-details/store-R31138/pizza-hut-Vancouver", "location": {"lat": 49.26362899999999, "lng": -123.210387}, "google_id": "ChIJKcgO2eVyhlQRyuS7A5wS3HM"},{"name": "Enigma Urban Eatery & Bar", "address": "4397 W 10th Ave, Vancouver, BC V6R 2H6, Canada", "phone": "+1 604-222-6881", "tags": ["restaurant", "food", "point_of_interest", "establishment"], "rating": 3.9, "website": "http://www.enigmarestaurant.ca/", "location": {"lat": 49.2639001, "lng": -123.2059181}, "google_id": "ChIJjYGy-ORyhlQRkR_f3PVd8Cg"},{"name": "La Brass", "address": "4473 W 10th Ave, Vancouver, BC V6R 2H8, Canada", "phone": "+1 604-222-1980", "tags": ["restaurant", "food", "point_of_interest", "establishment"], "rating": 4.2, "website": "http://labrass.co/", "location": {"lat": 49.263968, "lng": -123.208355}, "google_id": "ChIJHZYWt-VyhlQRX1LczQckSlk"},{"name": "Hime Sushi", "address": "4490 W 10th Ave, Vancouver, BC V6R 2H9, Canada", "phone": "+1 604-224-2121", "tags": ["restaurant", "food", "point_of_interest", "establishment"], "rating": 4.1, "website": "http://www.himesushi.com/en/index.php", "location": {"lat": 49.26369889999999, "lng": -123.2087306}, "google_id": "ChIJqdXYy-VyhlQRQUdudhjshWs"},{"name": "Bella Roma Pizzeria & Ristorante", "address": "4460 W 10th Ave, Vancouver, BC V6R 2H9, Canada", "phone": "+1 604-222-8080", "tags": ["restaurant", "food", "point_of_interest", "establishment"], "rating": 4.1, "website": "http://www.bellaroma1.com/", "location": {"lat": 49.26379239999999, "lng": -123.2089326}, "google_id": "ChIJv2syteVyhlQRXpALoFvPQ44"},{"name": "Sun Sushi", "address": "4512 W 10th Ave, Vancouver, BC V6R 2J1, Canada", "phone": "+1 604-222-8868", "tags": ["restaurant", "food", "point_of_interest", "establishment"], "rating": 4.2, "website": "http://www.sunsushi.ca/", "location": {"lat": 49.26371409999999, "lng": -123.209655}, "google_id": "ChIJ4acY0OVyhlQROdXcEi7FHVw"},{"name": "Jericho Beach Concession", "address": "3941 Point Grey Rd, Vancouver, BC V6R 1B3, Canada", "phone": "+1 604-224-0410", "tags": ["restaurant", "park", "food", "point_of_interest", "establishment"], "rating": 4.4, "website": "https://jerichobeachconcession.business.site/?utm_source=gmb&utm_medium=referral", "location": {"lat": 49.27165350000001, "lng": -123.1915285}, "google_id": "ChIJUQfTAfhyhlQRFdRTr6WkR5Y"},{"name": "Everyday Sushi", "address": "4572 W 10th Ave, Vancouver, BC V6R 2J1, Canada", "phone": "+1 604-228-9266", "tags": ["restaurant", "food", "point_of_interest", "establishment"], "rating": 3.5, "website": "https://everydaysushi.ca/", "location": {"lat": 49.2637021, "lng": -123.211343}, "google_id": "ChIJL4pjdOZyhlQRjKHmrVKJaKE"},{"name": "Gold Train Express", "address": "4530 W 10th Ave, Vancouver, BC V6R 2J1, Canada", "phone": "+1 604-677-6981", "tags": ["restaurant", "food", "point_of_interest", "establishment"], "rating": 3.9, "website": "", "location": {"lat": 49.2636311, "lng": -123.2101105}, "google_id": "ChIJk3G62-VyhlQRTDoca2-Ot4A"},{"name": "The Diner", "address": "4556 W 10th Ave, Vancouver, BC V6R 2J1, Canada", "phone": "+1 604-224-1912", "tags": ["restaurant", "food", "point_of_interest", "establishment"], "rating": 4.2, "website": "", "location": {"lat": 49.26360640000001, "lng": -123.2108682}, "google_id": "ChIJ38n0deZyhlQR7SRgPaf-Wk4"},{"name": "The PokeMan Kakigori Cafe & Poke Shop", "address": "3742 W 10th Ave, Vancouver, BC V6R 2G4, Canada", "phone": "+1 604-428-7653", "tags": ["restaurant", "food", "point_of_interest", "establishment"], "rating": 4.5, "website": "http://www.pokemanvancouver.com/", "location": {"lat": 49.2633865, "lng": -123.1866765}, "google_id": "ChIJHdPBSP5yhlQR9Y-4PMzTXpI"},{"name": "Brock House Restaurant", "address": "3875 Point Grey Rd, Vancouver, BC V6R 1B3, Canada", "phone": "+1 604-224-3317", "tags": ["restaurant", "food", "point_of_interest", "establishment"], "rating": 4.3, "website": "http://www.brockhouserestaurant.com/", "location": {"lat": 49.27184980000001, "lng": -123.1905445}, "google_id": "ChIJDTod8FdyhlQRA8Q9Gxo2uDg"},{"name": "Takumi Japanese Restaurant", "address": "4422 W 10th Ave, Vancouver, BC V6R 2H9, Canada", "phone": "+1 604-730-0330", "tags": ["restaurant", "food", "point_of_interest", "establishment"], "rating": 4, "website": "http://www.takumisushi.com/", "location": {"lat": 49.26361439999999, "lng": -123.2067299}, "google_id": "ChIJRbabLm1shlQRKmrN41Nb-NI"},{"name": "Domino's Pizza", "address": "4426 W 10th Ave, Vancouver, BC V6R 2H9, Canada", "phone": "+1 604-733-2118", "tags": ["meal_delivery", "meal_takeaway", "restaurant", "food", "point_of_interest", "establishment"], "rating": 3.8, "website": "https://pizza.dominos.ca/Vancouver-British-Columbia-39032/", "location": {"lat": 49.2635833, "lng": -123.2069036}, "google_id": "ChIJN07RmpZzhlQRBlBxwu8nHec"},{"name": "DoDo SUSHI", "address": "4443 W 10th Ave, Vancouver, BC V6S 0A3, Canada", "phone": "+1 604-221-8080", "tags": ["restaurant", "food", "point_of_interest", "establishment"], "rating": 4.4, "website": "https://www.dodo-sushi.com/", "location": {"lat": 49.263924, "lng": -123.207363}, "google_id": "ChIJA_TOsuVyhlQRHJaG-SjeYxY"},{"name": "Danoo Cafe", "address": "4462 W 10th Ave, Vancouver, BC V6R 2H9, Canada", "phone": "+1 604-336-6399", "tags": ["restaurant", "food", "point_of_interest", "establishment"], "rating": 4.7, "website": "", "location": {"lat": 49.26362349999999, "lng": -123.2082256}, "google_id": "ChIJI5FmLWBzhlQRTdpMfYgUnGA"},{"name": "The Kitchen", "address": "2620 Sasamat St, Vancouver, BC V6R 2J1, Canada", "phone": "+1 604-261-5353", "tags": ["restaurant", "food", "point_of_interest", "establishment"], "rating": 3.9, "website": "https://www.instagram.com/thekitchensasamat/", "location": {"lat": 49.2634428, "lng": -123.2089752}, "google_id": "ChIJoc4HzeVyhlQRaf2pPoGnDE8"},{"name": "Rice Burger", "address": "2630 Sasamat St, Vancouver, BC V6R 2J1, Canada", "phone": "+1 604-716-9686", "tags": ["restaurant", "food", "point_of_interest", "establishment"], "rating": 4.4, "website": "http://riceburger604.com/", "location": {"lat": 49.2634268, "lng": -123.2089782}, "google_id": "ChIJtSgPzeVyhlQRZoUxrkoqdiU"},{"name": "Four Olives Restaurant", "address": "4510 W 10th Ave, Vancouver, BC V6R 2J1, Canada", "phone": "+1 604-221-7777", "tags": ["restaurant", "food", "point_of_interest", "establishment"], "rating": 4.8, "website": "http://www.fourolives.ca/", "location": {"lat": 49.2636029, "lng": -123.2095968}, "google_id": "ChIJ27ojj9NzhlQRcJhTE_WSFts"},{"name": "Kuroishi Sushi Bar", "address": "4532 W 10th Ave, Vancouver, BC V6R 2J1, Canada", "phone": "+1 604-620-1031", "tags": ["restaurant", "food", "point_of_interest", "establishment"], "rating": 4.6, "website": "", "location": {"lat": 49.2636389, "lng": -123.2101844}, "google_id": "ChIJAQDw2eVyhlQRuEuByy0pPFA"},{"name": "Locarno Beach Concession", "address": "4445 NW Marine Dr, Vancouver, BC V6R 1B7, Canada", "phone": "+1 604-224-0422", "tags": ["restaurant", "food", "point_of_interest", "establishment"], "rating": 3.8, "website": "http://vancouver.ca/parks-recreation-culture/restaurants-and-snack-bars.aspx", "location": {"lat": 49.2750665, "lng": -123.2066609}, "google_id": "ChIJW0KBg_NyhlQRvPEDsPkI_MY"},{"name": "The Galley Patio & Grill", "address": "Level 4, 6133 University Blvd, Vancouver, BC V6T 1Z1, Canada", "phone": "+1 604-222-1331", "tags": ["bar", "restaurant", "food", "point_of_interest", "establishment"], "rating": 4, "website": "http://www.thegalley.ca/", "location": {"lat": 49.2755952, "lng": -123.2015435}, "google_id": "ChIJtReZSvRyhlQRnNa9l4jlW3M"},{"name": "Sushi Inn Japanese restaurant", "address": "3772 W 10th Ave, Vancouver, BC V6R 2G4, Canada", "phone": "+1 604-739-3818", "tags": ["restaurant", "food", "point_of_interest", "establishment"], "rating": 3.6, "website": "https://www.sushiinn.ca/", "location": {"lat": 49.2633607, "lng": -123.1872036}, "google_id": "ChIJISKNEhFzhlQROuPTDZB9SGU"},{"name": "Rajio Japanese Public House", "address": "3763 W 10th Ave, Vancouver, BC V6R 2G7, Canada", "phone": "+1 604-558-1679", "tags": ["restaurant", "food", "point_of_interest", "establishment"], "rating": 4.4, "website": "http://www.rajiopublichouse.com/", "location": {"lat": 49.26363079999999, "lng": -123.1871257}, "google_id": "ChIJZ6_SRf5yhlQRgUcZ_McaYsw"}]