[{"name": "White Spot", "address": "1616 W Georgia St, Vancouver, BC V6G 2V5, Canada", "phone": "+1 604-681-8034", "tags": ["restaurant", "food", "point_of_interest", "establishment"], "rating": 4, "website": "http://www.whitespot.ca/", "location": {"lat": 49.290792, "lng": -123.1315648}, "google_id": "ChIJaxUwLYZxhlQRN037T7vHFh4"},{"name": "Hokkaido Ramen Santouka", "address": "1690 Robson St, Vancouver, BC V6G 1C7, Canada", "phone": "+1 604-681-8121", "tags": ["restaurant", "food", "point_of_interest", "establishment"], "rating": 4.4, "website": "http://www.santouka.co.jp/en/", "location": {"lat": 49.2901915, "lng": -123.133696}, "google_id": "ChIJjxB444dxhlQR5NsHCTpfrHw"},{"name": "Subway", "address": "1725 Robson St #3, Vancouver, BC V6G 1C9, Canada", "phone": "+1 604-684-7827", "tags": ["meal_takeaway", "restaurant", "food", "point_of_interest", "establishment"], "rating": 3.3, "website": "http://www.subway.com/en-ca", "location": {"lat": 49.2908775, "lng": -123.1342456}, "google_id": "ChIJL2XpDohxhlQRk2qn771H-CM"},{"name": "Kintaro Ramen", "address": "788 Denman St, Vancouver, BC V6G 1C9, Canada", "phone": "+1 604-682-7568", "tags": ["restaurant", "food", "point_of_interest", "establishment"], "rating": 4.3, "website": "", "location": {"lat": 49.2915486, "lng": -123.1349856}, "google_id": "ChIJJYzxPohxhlQRFHN7EYdtbZE"},{"name": "Cardero's Restaurant", "address": "1583 Coal Harbour Quay, Vancouver, BC V6G 3E7, Canada", "phone": "+1 604-669-7666", "tags": ["bar", "restaurant", "food", "point_of_interest", "establishment"], "rating": 4.5, "website": "https://www.vancouverdine.com/carderos/", "location": {"lat": 49.2916101, "lng": -123.1274816}, "google_id": "ChIJOQXpDoZxhlQRwQ2A6Ulh9-w"},{"name": "Guu with Garlic", "address": "1698 Robson St, Vancouver, BC V6G 1C7, Canada", "phone": "+1 604-685-8678", "tags": ["restaurant", "food", "point_of_interest", "establishment"], "rating": 4.4, "website": "http://guu-izakaya.com/Garlic", "location": {"lat": 49.29023999999999, "lng": -123.133893}, "google_id": "ChIJwy3kCYhxhlQRVNbXqCU6bo0"},{"name": "Sura Korean Royal Cuisine Restaurant Vancouver", "address": "1518 Robson St, Vancouver, BC V6G 1C3, Canada", "phone": "+1 604-687-7872", "tags": ["restaurant", "food", "point_of_interest", "establishment"], "rating": 4.4, "website": "http://www.surakoreancuisine.com/", "location": {"lat": 49.288871, "lng": -123.131738}, "google_id": "ChIJcw7-mYdxhlQRxq9ZD4tvuH0"},{"name": "Zakkushi on Denman", "address": "823 Denman St, Vancouver, BC V6G 2L7, Canada", "phone": "+1 604-685-1136", "tags": ["restaurant", "food", "point_of_interest", "establishment"], "rating": 4.3, "website": "https://zakkushi-japanese-restaurant.business.site/", "location": {"lat": 49.2912, "lng": -123.136293}, "google_id": "ChIJ77z7IYhxhlQRYq44T6nqqB0"},{"name": "Lift Bar Grill View - Downtown Vancouver", "address": "333 Menchion Mews, Vancouver, BC V6G 3H2, Canada", "phone": "+1 604-689-5438", "tags": ["bar", "restaurant", "food", "point_of_interest", "establishment"], "rating": 4.2, "website": "http://www.liftbarandgrill.com/", "location": {"lat": 49.29359830000001, "lng": -123.1295507}, "google_id": "ChIJdVf3y4hxhlQR55KiHpZHEDE"},{"name": "AlHadbah Donair", "address": "1610 Robson St Unit #105, Vancouver, BC V6G 1C7, Canada", "phone": "+1 604-568-6324", "tags": ["restaurant", "food", "point_of_interest", "establishment"], "rating": 4.5, "website": "http://alhadbahdonair.com/", "location": {"lat": 49.2895386, "lng": -123.132799}, "google_id": "ChIJhdX87IdxhlQRaPEShBeVjqc"},{"name": "Hida Takayama Ramen", "address": "1610 Robson St #203, Vancouver, BC V6G 1C7, Canada", "phone": "+1 604-633-1884", "tags": ["restaurant", "food", "point_of_interest", "establishment"], "rating": 4.3, "website": "http://hidaramen.com/", "location": {"lat": 49.2894178, "lng": -123.1329097}, "google_id": "ChIJhdX87IdxhlQRaL821lhlARQ"},{"name": "Pizza Hut", "address": "#4, 1725 Robson St Unit 4, Vancouver, BC V6G 1C9, Canada", "phone": "+1 604-689-5908", "tags": ["meal_delivery", "meal_takeaway", "restaurant", "food", "point_of_interest", "establishment"], "rating": 2.9, "website": "https://www.pizzahut.ca/store-details/store-R31125/pizza-hut-Vancouver", "location": {"lat": 49.2909587, "lng": -123.1341273}, "google_id": "ChIJ40loDohxhlQR8cE6kVn890Q"},{"name": "Domino's Pizza", "address": "777 Denman St, Vancouver, BC V6G 2L6, Canada", "phone": "+1 604-662-3030", "tags": ["meal_delivery", "meal_takeaway", "restaurant", "food", "point_of_interest", "establishment"], "rating": 3.2, "website": "https://pizza.dominos.ca/Vancouver-British-Columbia-10066/", "location": {"lat": 49.291793, "lng": -123.135216}, "google_id": "ChIJvZngOIhxhlQRDXvzGvDLVno"},{"name": "Ukrainian Village", "address": "815 Denman St, Vancouver, BC V6G 2L7, Canada", "phone": "+1 604-687-7440", "tags": ["restaurant", "food", "point_of_interest", "establishment"], "rating": 4.2, "website": "http://ukrainianvillage.wix.com/canada", "location": {"lat": 49.2914077, "lng": -123.1358246}, "google_id": "ChIJ1y0YI4hxhlQRXIEmfZiXgEw"},{"name": "Kingyo", "address": "871 Denman St, Vancouver, BC V6G 2L9, Canada", "phone": "+1 604-608-1677", "tags": ["restaurant", "food", "point_of_interest", "establishment"], "rating": 4.5, "website": "http://www.kingyo-izakaya.ca/", "location": {"lat": 49.290612, "lng": -123.1371415}, "google_id": "ChIJd4CF7SdyhlQRoqTdwPGmzJo"},{"name": "Motomachi Shokudo", "address": "740 Denman St, Vancouver, BC V6G 2L5, Canada", "phone": "+1 604-609-0310", "tags": ["restaurant", "food", "point_of_interest", "establishment"], "rating": 4.3, "website": "https://ryugetsuservices.wixsite.com/motomachi-shokudo", "location": {"lat": 49.2918534, "lng": -123.1345642}, "google_id": "ChIJGZbDRohxhlQRxeHcVVCArcc"},{"name": "McDonald's", "address": "1701 Robson St, Vancouver, BC V6G 1C9, Canada", "phone": "+1 604-718-1020", "tags": ["cafe", "restaurant", "food", "point_of_interest", "establishment"], "rating": 3.3, "website": "https://www.mcdonalds.com/ca/en-ca/restaurant-locator.html", "location": {"lat": 49.29065190000001, "lng": -123.1338727}, "google_id": "ChIJQ13qC4hxhlQR1fbnIdZ41WE"},{"name": "Damso Restaurant Ltd on denman st.", "address": "867 Denman St, Vancouver, BC V6G 2L9, Canada", "phone": "+1 604-632-0022", "tags": ["restaurant", "food", "point_of_interest", "establishment"], "rating": 4.2, "website": "", "location": {"lat": 49.29061519999999, "lng": -123.1369367}, "google_id": "ChIJO_P18idyhlQR1DvHQxqvypY"},{"name": "Dinesty Dumpling House", "address": "1719 Robson St, Vancouver, BC V6G 1C9, Canada", "phone": "+1 604-669-7769", "tags": ["restaurant", "food", "point_of_interest", "establishment"], "rating": 4.1, "website": "http://dinesty.ca/", "location": {"lat": 49.2907799, "lng": -123.1340727}, "google_id": "ChIJz9lHDIhxhlQR1QbrG2lIwBc"},{"name": "Flower & Horse in Spring \u82b1\u99ac\u6625\u5929\u96f2\u5357\u904e\u6a4b\u7c73\u7dda", "address": "1741 Robson St, Vancouver, BC V6G 1E1, Canada", "phone": "+1 778-379-6198", "tags": ["restaurant", "food", "point_of_interest", "establishment"], "rating": 3.9, "website": "https://www.facebook.com/pg/flowerandhorseinspring/photos/?tab=albums#", "location": {"lat": 49.2910565, "lng": -123.1344748}, "google_id": "ChIJN8MuEohxhlQRnPb0SnLjn4U"},{"name": "Hongdae Pocha Cafe", "address": "1642 Robson St, Vancouver, BC V6G 1C7, Canada", "phone": "+1 604-681-8252", "tags": ["restaurant", "food", "point_of_interest", "establishment"], "rating": 3.6, "website": "https://www.hongdaepochacafe.com/", "location": {"lat": 49.28982369999999, "lng": -123.1331976}, "google_id": "ChIJc6pL74dxhlQRahC9kBV9N2c"},{"name": "Sushiholic", "address": "836 Denman St, Vancouver, BC V6G 2L8, Canada", "phone": "+1 604-559-4888", "tags": ["restaurant", "food", "point_of_interest", "establishment"], "rating": 4.1, "website": "http://www.sushiholic.ca/", "location": {"lat": 49.29095880000001, "lng": -123.1360842}, "google_id": "ChIJXXHG8rd9C0ERxNdBWUEffLc"},{"name": "Buckstop", "address": "833 Denman St, Vancouver, BC V6G 2L7, Canada", "phone": "+1 604-428-2528", "tags": ["restaurant", "food", "point_of_interest", "establishment"], "rating": 3.8, "website": "http://buckstop.ca/", "location": {"lat": 49.2910152, "lng": -123.1363737}, "google_id": "ChIJi6H4H4hxhlQRJd2LHY0gxMY"},{"name": "Ma Dang Goul", "address": "847 Denman St, Vancouver, BC V6G 2L7, Canada", "phone": "+1 604-688-3585", "tags": ["restaurant", "food", "point_of_interest", "establishment"], "rating": 4.2, "website": "https://www.facebook.com/mdgvancouver/", "location": {"lat": 49.2909606, "lng": -123.1364642}, "google_id": "ChIJ3TcD9SdyhlQR0oZJEJ_jZAs"},{"name": "The Holy Crab", "address": "1588 Robson St, Vancouver, BC V6G 2G5, Canada", "phone": "+1 604-661-8533", "tags": ["restaurant", "food", "point_of_interest", "establishment"], "rating": 3.9, "website": "http://www.theholycrab.ca/", "location": {"lat": 49.28922999999999, "lng": -123.132312}, "google_id": "ChIJb02mk4dxhlQReyoDtEXxoRg"},{"name": "Kosoo Korean Restaurant", "address": "832 Cardero St, Vancouver, BC V6G 2G5, Canada", "phone": "+1 604-563-5556", "tags": ["restaurant", "food", "point_of_interest", "establishment"], "rating": 4.1, "website": "http://www.kosoorestaurant.ca/", "location": {"lat": 49.28906440000001, "lng": -123.1323716}, "google_id": "ChIJnV8LkodxhlQRTNTwh1mtxyo"},{"name": "Akira Sushi", "address": "1069 Denman St, Vancouver, BC V6G 2M7, Canada", "phone": "+1 604-806-6321", "tags": ["restaurant", "food", "point_of_interest", "establishment"], "rating": 3.9, "website": "https://akirasushirestaurant.com/", "location": {"lat": 49.2885214, "lng": -123.1401394}, "google_id": "ChIJHVCFICZyhlQR4mED64JxecE"},{"name": "Ongba Vietnamese Eatery ( Caf\u00e9 Phin And Pho)", "address": "976 Denman St, Vancouver, BC V6G 2M1, Canada", "phone": "+1 604-620-5595", "tags": ["meal_delivery", "meal_takeaway", "cafe", "restaurant", "food", "point_of_interest", "establishment"], "rating": 4.1, "website": "https://www.ongba.ca/", "location": {"lat": 49.28954969999999, "lng": -123.1380672}, "google_id": "ChIJMXAeXMlzhlQRZZpqQjvb_Wg"},{"name": "Panago Pizza", "address": "969 Denman St, Vancouver, BC V6G 2M1, Canada", "phone": "+1 866-310-0001", "tags": ["meal_delivery", "meal_takeaway", "restaurant", "food", "point_of_interest", "establishment"], "rating": 3.7, "website": "http://www.panago.com/", "location": {"lat": 49.28978, "lng": -123.1383661}, "google_id": "ChIJ6_EwxSdyhlQR3Zo2haeFRvA"},{"name": "A&W Canada", "address": "991 Denman St, Vancouver, BC V6G 2M3, Canada", "phone": "+1 604-681-0466", "tags": ["restaurant", "food", "point_of_interest", "establishment"], "rating": 4, "website": "http://aw.ca/", "location": {"lat": 49.289595, "lng": -123.138552}, "google_id": "ChIJLWAyzidyhlQR2PjBgFfH4S4"},{"name": "H2 Rotisserie & Bar", "address": "1601 Bayshore Dr, Vancouver, BC V6G 2V4, Canada", "phone": "+1 604-691-6966", "tags": ["restaurant", "food", "point_of_interest", "establishment"], "rating": 4, "website": "http://www.h2restaurant.com/", "location": {"lat": 49.2927, "lng": -123.1292696}, "google_id": "ChIJExE2pohxhlQRqmZozTK2kDI"},{"name": "Kitaya Japanese", "address": "1088 Denman St, Vancouver, BC V6G 2M8, Canada", "phone": "+1 604-683-0218", "tags": ["restaurant", "food", "point_of_interest", "establishment"], "rating": 3.7, "website": "https://lazymeal.com/menu/kitayajapanese", "location": {"lat": 49.288342, "lng": -123.1399053}, "google_id": "ChIJzzMYnihyhlQRBkCj5UHPxWs"},{"name": "6 Degrees Eatery", "address": "1590 Coal Harbour Quay, Vancouver, BC V6G 3G1, Canada", "phone": "+1 604-620-8338", "tags": ["night_club", "cafe", "bar", "restaurant", "food", "point_of_interest", "establishment"], "rating": 4.4, "website": "http://www.6degreeseatery.com/", "location": {"lat": 49.291648, "lng": -123.1284951}, "google_id": "ChIJxQM7G4ZxhlQRdlISWRBm-_k"},{"name": "Nook", "address": "781 Denman St, Vancouver, BC V6G 2L6, Canada", "phone": "+1 604-568-4554", "tags": ["restaurant", "food", "point_of_interest", "establishment"], "rating": 4.5, "website": "http://nookrestaurant.ca/", "location": {"lat": 49.291747, "lng": -123.1353434}, "google_id": "ChIJWX04OYhxhlQRrj8ua53qkZc"},{"name": "Zabu Chicken", "address": "1635 Robson St, Vancouver, BC V6G 1C8, Canada", "phone": "+1 604-602-0021", "tags": ["bar", "restaurant", "food", "point_of_interest", "establishment"], "rating": 3.8, "website": "https://www.zabuchicken.com/", "location": {"lat": 49.289858, "lng": -123.1325839}, "google_id": "ChIJNa0M6YdxhlQRG9C7sLmM9UE"},{"name": "Greenhorn", "address": "994 Nicola St, Vancouver, BC V6G 2C8, Canada", "phone": "+1 604-428-2912", "tags": ["restaurant", "food", "point_of_interest", "establishment"], "rating": 4.4, "website": "http://www.greenhorncafe.com/", "location": {"lat": 49.28663599999999, "lng": -123.1340199}, "google_id": "ChIJ1YmSuilyhlQR_lLrbGUzv-M"},{"name": "Jang Mo Jib Korean Restaurant", "address": "1575 Robson St, Vancouver, BC V6G 1C3, Canada", "phone": "+1 604-642-0712", "tags": ["restaurant", "food", "point_of_interest", "establishment"], "rating": 3.4, "website": "", "location": {"lat": 49.2894079, "lng": -123.1320187}, "google_id": "ChIJvQ6UDohxhlQR_XhiTxjYBZs"},{"name": "Olympia Pizza & Pasta Restaurant", "address": "998 Denman St, Vancouver, BC V6G 2M1, Canada", "phone": "+1 604-688-8333", "tags": ["meal_delivery", "meal_takeaway", "restaurant", "food", "point_of_interest", "establishment"], "rating": 3.9, "website": "http://www.olympiapizza.com/", "location": {"lat": 49.2893586, "lng": -123.1383977}, "google_id": "ChIJJe0U0SdyhlQRH0BPwVr4JoA"},{"name": "Subway", "address": "1368 W Georgia St #4, Vancouver, BC V6E 4S2, Canada", "phone": "+1 604-685-8999", "tags": ["meal_takeaway", "restaurant", "food", "point_of_interest", "establishment"], "rating": 4, "website": "http://www.subway.com/", "location": {"lat": 49.2887242, "lng": -123.1281659}, "google_id": "ChIJybdF44ZxhlQRDXDAmmP0cck"},{"name": "Cora Breakfast and Lunch", "address": "1368 Robson St, Vancouver, BC V6E 1C5, Canada", "phone": "+1 604-688-2672", "tags": ["restaurant", "food", "point_of_interest", "establishment"], "rating": 4.2, "website": "http://www.chezcora.com/en/breakfast-restaurants/british-columbia/Cora-Robson-Street?utm_source=googlemaps&utm_medium=vancouver-robson&utm_content=website", "location": {"lat": 49.2875586, "lng": -123.1297049}, "google_id": "ChIJxxtoaodxhlQRe3l7qsMsZJA"},{"name": "Nero Belgian Waffle Bar", "address": "1703 Robson St, Vancouver, BC V6G 1C8, Canada", "phone": "+1 604-839-1239", "tags": ["restaurant", "food", "point_of_interest", "establishment"], "rating": 4.5, "website": "http://www.nerowafflebar.com/", "location": {"lat": 49.2906656, "lng": -123.1339521}, "google_id": "ChIJub9tCYhxhlQR8lH56EfLSpc"},{"name": "Tavola", "address": "1829 Robson St, Vancouver, BC V6G 1E4, Canada", "phone": "+1 604-606-4680", "tags": ["restaurant", "food", "point_of_interest", "establishment"], "rating": 4.5, "website": "https://tavolavancouver.com/", "location": {"lat": 49.2918584, "lng": -123.1357745}, "google_id": "ChIJfZnyOohxhlQRAX10LargB0E"},{"name": "MOMO SUSHI BIDWELL", "address": "833 Bidwell St, Vancouver, BC V6G 1E1, Canada", "phone": "+1 604-569-2001", "tags": ["restaurant", "food", "point_of_interest", "establishment"], "rating": 4.3, "website": "http://www.momo-sushi.com/", "location": {"lat": 49.2903934, "lng": -123.1344141}, "google_id": "ChIJx8Ts_YdxhlQRltXu3n3Fv6A"},{"name": "Stepho's Souvlaki Greek Taverna", "address": "1359 Robson St, Vancouver, BC V6E 1C6, Canada", "phone": "+1 604-685-9977", "tags": ["restaurant", "food", "point_of_interest", "establishment"], "rating": 3.9, "website": "", "location": {"lat": 49.28772389999999, "lng": -123.1292136}, "google_id": "ChIJ4SNrFYdxhlQR-jBBGffexLQ"},{"name": "Joe's Grill", "address": "948 Denman St, Vancouver, BC V6G 2M1, Canada", "phone": "+1 604-642-6588", "tags": ["restaurant", "food", "point_of_interest", "establishment"], "rating": 4.2, "website": "http://joes-grill.com/", "location": {"lat": 49.28988899999999, "lng": -123.1376668}, "google_id": "ChIJNV3TwidyhlQRD6PwcfiNWEQ"},{"name": "Pho Express Ankor Noodle House", "address": "1745 Robson St, Vancouver, BC V6G 1E1, Canada", "phone": "+1 604-689-8399", "tags": ["restaurant", "food", "point_of_interest", "establishment"], "rating": 4.3, "website": "https://www.phoexpressangkor.com/", "location": {"lat": 49.2910836, "lng": -123.1345917}, "google_id": "ChIJQWbhE4hxhlQR1121SZ4ZK_0"},{"name": "Banana Leaf Malaysian Cafe", "address": "1779 Robson St, Vancouver, BC V6G 1C9, Canada", "phone": "+1 604-569-3363", "tags": ["restaurant", "food", "point_of_interest", "establishment"], "rating": 4.2, "website": "http://www.bananaleaf-vancouver.com/", "location": {"lat": 49.29140710000001, "lng": -123.1349205}, "google_id": "ChIJ1cv4PYhxhlQRE-YsD8Iaaac"},{"name": "Desi Downtown", "address": "911 Denman St, Vancouver, BC V6G 2L9, Canada", "phone": "+1 604-647-0911", "tags": ["restaurant", "food", "point_of_interest", "establishment"], "rating": "", "website": "", "location": {"lat": 49.29036740000001, "lng": -123.1373611}, "google_id": "ChIJ5fcG7CdyhlQRD5D7u4FBm9c"},{"name": "Simba\u2019s Grill Ltd", "address": "825 Denman St, Vancouver, BC V6G 2L7, Canada", "phone": "+1 604-974-0649", "tags": ["restaurant", "food", "point_of_interest", "establishment"], "rating": 4.6, "website": "http://simbasgrill.com/", "location": {"lat": 49.2910973, "lng": -123.1362495}, "google_id": "ChIJk0S1IYhxhlQR6yPpAYongOQ"},{"name": "Noodle Arts", "address": "1739 Robson St, Vancouver, BC V6G 1C9, Canada", "phone": "+1 604-673-5688", "tags": ["restaurant", "food", "point_of_interest", "establishment"], "rating": 4.4, "website": "http://www.noodlearts.com/", "location": {"lat": 49.2910293, "lng": -123.134417}, "google_id": "ChIJGf-ytvhxhlQRqVPrlyhwl-4"},{"name": "J&G Fried Chicken", "address": "1706 Robson St, Vancouver, BC V6G 2J7, Canada", "phone": "+1 604-423-2870", "tags": ["meal_takeaway", "restaurant", "food", "point_of_interest", "establishment"], "rating": 4.3, "website": "https://www.jgfcwest.ca/", "location": {"lat": 49.2904875, "lng": -123.1342473}, "google_id": "ChIJ0ZQzRcxxhlQRPoWwLvcfiDc"},{"name": "Bento Sushi", "address": "1766 Robson St, Vancouver, BC V6G 1E2, Canada", "phone": "", "tags": ["meal_takeaway", "restaurant", "food", "point_of_interest", "establishment"], "rating": "", "website": "https://www.bentosushi.com/", "location": {"lat": 49.2905644, "lng": -123.1345791}, "google_id": "ChIJGRETSPBxhlQRiRd3Vqqgs88"},{"name": "Saku", "address": "1773 Robson St, Vancouver, BC V6G 1C9, Canada", "phone": "+1 778-379-5872", "tags": ["restaurant", "food", "point_of_interest", "establishment"], "rating": 4.3, "website": "http://sakuvancouver.com/", "location": {"lat": 49.2913126, "lng": -123.1348901}, "google_id": "ChIJVYCScjxxhlQR5l5L231taMA"},{"name": "Marutama Ra-men Canada / Westend", "address": "780 Bidwell St, Vancouver, BC V6G 2J6, Canada", "phone": "+1 604-688-8837", "tags": ["restaurant", "food", "point_of_interest", "establishment"], "rating": 4.6, "website": "http://marutama.ca/", "location": {"lat": 49.2905721, "lng": -123.1333884}, "google_id": "ChIJZYi4CohxhlQR_pvqiPGqP9g"},{"name": "Ramen Takanotsume", "address": "841 Bidwell St, Vancouver, BC V6G 2J7, Canada", "phone": "+1 604-620-3371", "tags": ["restaurant", "food", "point_of_interest", "establishment"], "rating": 4.2, "website": "https://ramentaka.ca/", "location": {"lat": 49.2902565, "lng": -123.1344633}, "google_id": "ChIJT2iT5IdxhlQR1YZNFHLY31E"},{"name": "Donair Town Robson", "address": "1793 Robson St, Vancouver, BC V6G 1C9, Canada", "phone": "+1 604-569-1124", "tags": ["restaurant", "food", "point_of_interest", "establishment"], "rating": 4.5, "website": "", "location": {"lat": 49.2914723, "lng": -123.1351595}, "google_id": "ChIJF-zxPYhxhlQRz2nehz3oMaA"},{"name": "Yadori Bar & Bistro", "address": "792 Denman St, Vancouver, BC V6G 1C9, Canada", "phone": "+1 604-662-7311", "tags": ["restaurant", "food", "point_of_interest", "establishment"], "rating": 3.8, "website": "https://www.instagram.com/yadori.bar", "location": {"lat": 49.29155790000001, "lng": -123.1350671}, "google_id": "ChIJvwvKeGxxhlQR4Bwx-5Gayq4"},{"name": "Pacific Poke", "address": "1795 Robson St, Vancouver, BC V6G 1C9, Canada", "phone": "+1 604-336-9500", "tags": ["restaurant", "food", "point_of_interest", "establishment"], "rating": 4.6, "website": "http://thepacificpoke.com/", "location": {"lat": 49.2915021, "lng": -123.1352122}, "google_id": "ChIJWZ4V6OtxhlQR4cp5fhyi0eU"},{"name": "Viet Sub Vietnamese Cuisine", "address": "1682 Robson St, Vancouver, BC V6G 1C7, Canada", "phone": "+1 604-566-3333", "tags": ["restaurant", "food", "point_of_interest", "establishment"], "rating": 4.5, "website": "http://www.viet-sub.com/", "location": {"lat": 49.29009919999999, "lng": -123.1336279}, "google_id": "ChIJser644dxhlQRqmCWslf2OaU"},{"name": "Tetsu Sushi Bar", "address": "775 Denman St, Vancouver, BC V6G 2L6, Canada", "phone": "+1 604-428-5775", "tags": ["restaurant", "food", "point_of_interest", "establishment"], "rating": 4.6, "website": "", "location": {"lat": 49.291798, "lng": -123.1351192}, "google_id": "ChIJV3vgOIhxhlQRa7tQLte4kDk"}]