[{"name": "Zen Japanese Restaurant", "address": "101-2232 Marine Dr, West Vancouver, BC V7V 1K4, Canada", "phone": "+1 604-925-0667", "tags": ["restaurant", "food", "point_of_interest", "establishment"], "rating": 4.2, "website": "http://zenjapanese.ca/", "location": {"lat": 49.33094250000001, "lng": -123.1722846}, "google_id": "ChIJof5ioQ1uhlQRiSxoLptoCTo"},{"name": "Amici Restaurant West Vancouver", "address": "1747 Marine Dr, West Vancouver, BC V7V 1J5, Canada", "phone": "+1 604-913-1314", "tags": ["restaurant", "food", "point_of_interest", "establishment"], "rating": 4.4, "website": "", "location": {"lat": 49.32877, "lng": -123.1611971}, "google_id": "ChIJbwxnXxBuhlQRrsCfHMmYBaE"},{"name": "Mangia E Bevi Ristorante", "address": "2222 Marine Dr, West Vancouver, BC V7V 1K4, Canada", "phone": "+1 604-922-8333", "tags": ["restaurant", "food", "point_of_interest", "establishment"], "rating": 4.5, "website": "http://www.mangiaebevi.ca/", "location": {"lat": 49.3308317, "lng": -123.1718617}, "google_id": "ChIJeeK4vw1uhlQRwSWeLvMNS50"},{"name": "Salmon House On The Hill", "address": "2229 Folkestone Way, West Vancouver, BC V7S 2Y6, Canada", "phone": "+1 604-926-3212", "tags": ["restaurant", "food", "point_of_interest", "establishment"], "rating": 4.3, "website": "http://www.salmonhouse.com/", "location": {"lat": 49.34498050000001, "lng": -123.174373}, "google_id": "ChIJQdMXmmhuhlQR4FiP98flqgU"},{"name": "Bene Sushi Lounge", "address": "1574 Marine Dr, West Vancouver, BC V7V 1H8, Canada", "phone": "+1 604-913-1112", "tags": ["bar", "restaurant", "food", "point_of_interest", "establishment"], "rating": 4.1, "website": "http://www.benesushi.com/", "location": {"lat": 49.3283902, "lng": -123.158343}, "google_id": "ChIJ2wa5mBBuhlQRvJSi2lDbC_g"},{"name": "Subway", "address": "Ambleside Centre, 1499A Marine Dr, West Vancouver, BC V7T 1B8, Canada", "phone": "+1 604-925-7822", "tags": ["restaurant", "food", "point_of_interest", "establishment"], "rating": 3.7, "website": "http://www.subway.com/", "location": {"lat": 49.3285211, "lng": -123.1566136}, "google_id": "ChIJPePwBhpuhlQR1Z1HaElxuKA"},{"name": "Kin Sushi", "address": "113 - 1760 Marine Dr, West Vancouver, BC V7V 1J1, Canada", "phone": "+1 604-926-0777", "tags": ["restaurant", "food", "point_of_interest", "establishment"], "rating": 4.6, "website": "", "location": {"lat": 49.3282536, "lng": -123.1616422}, "google_id": "ChIJg0ytRBBuhlQRlCoFgEAcg-0"},{"name": "Mer's Kitchen Catering, Restaurant, Venue", "address": "1425 Marine Dr #115, West Vancouver, BC V7T 1B8, Canada", "phone": "+1 604-262-2277", "tags": ["restaurant", "food", "point_of_interest", "establishment"], "rating": 4, "website": "", "location": {"lat": 49.328173, "lng": -123.1547335}, "google_id": "ChIJY5ch9BluhlQR98fDs0YBtcI"},{"name": "Encore Coffee & Tea", "address": "281 17th St, West Vancouver, BC V7V 4T1, Canada", "phone": "+1 604-922-7515", "tags": ["restaurant", "food", "point_of_interest", "establishment"], "rating": 4.4, "website": "", "location": {"lat": 49.3282817, "lng": -123.1604547}, "google_id": "ChIJNeAFiBBuhlQR_UhMpFCtWkA"},{"name": "Cindy's", "address": "1850 Marine Dr, West Vancouver, BC V7V 1J6, Canada", "phone": "+1 604-925-2880", "tags": ["restaurant", "food", "point_of_interest", "establishment"], "rating": 4.1, "website": "https://www.facebook.com/Cindys-cafe-1850-235363473298631/", "location": {"lat": 49.3285245, "lng": -123.1633005}, "google_id": "ChIJKwD3RxBuhlQRboTNdiQenck"},{"name": "Carmelo's Ristorante Italiano", "address": "1448 Marine Dr, West Vancouver, BC V7T 1B5, Canada", "phone": "+1 604-922-4719", "tags": ["meal_takeaway", "bar", "restaurant", "food", "point_of_interest", "establishment"], "rating": 4.5, "website": "http://www.carmelos.ca/", "location": {"lat": 49.328016, "lng": -123.155582}, "google_id": "ChIJi4HjHBpuhlQRwsi2c7JuaJQ"},{"name": "Chez Michel", "address": "1373 Marine Dr 2nd Floor, West Vancouver, BC V7T 1B6, Canada", "phone": "+1 604-926-4913", "tags": ["restaurant", "food", "point_of_interest", "establishment"], "rating": 4.3, "website": "https://chezmichelvancouver.com/", "location": {"lat": 49.3279376, "lng": -123.1535598}, "google_id": "ChIJA1zqmRluhlQRdhMGsuKuzYA"},{"name": "Ki Isu Japanese in West Van", "address": "1532 Marine Dr, West Vancouver, BC V7V 1H8, Canada", "phone": "+1 778-279-8843", "tags": ["restaurant", "food", "point_of_interest", "establishment"], "rating": 4.1, "website": "https://www.kiisujapanese.com/", "location": {"lat": 49.3283311, "lng": -123.1576048}, "google_id": "ChIJyxuSoBBuhlQR2V4gYFHnzkM"},{"name": "Domino's Pizza", "address": "1826 Marine Dr, West Vancouver, BC V7V 1J6, Canada", "phone": "+1 604-922-3013", "tags": ["meal_delivery", "meal_takeaway", "restaurant", "food", "point_of_interest", "establishment"], "rating": 3.7, "website": "https://pizza.dominos.ca/West-Vancouver-British-Columbia-10007/", "location": {"lat": 49.3284967, "lng": -123.1628319}, "google_id": "ChIJO-v1RhBuhlQRfZeVUWWKozs"},{"name": "Handi Indian Restaurant", "address": "1579 Bellevue Ave, West Vancouver, BC V7V 1A6, Canada", "phone": "+1 604-925-5262", "tags": ["restaurant", "food", "point_of_interest", "establishment"], "rating": 4, "website": "http://handicuisineofindia.ca/", "location": {"lat": 49.3277289, "lng": -123.1583681}, "google_id": "ChIJjxhKmhluhlQRGVYRuuDwjl0"},{"name": "Panago Pizza", "address": "1760 Marine Dr, West Vancouver, BC V7V 1J4, Canada", "phone": "+1 866-310-0001", "tags": ["meal_delivery", "meal_takeaway", "restaurant", "food", "point_of_interest", "establishment"], "rating": 4, "website": "http://www.panago.com/", "location": {"lat": 49.328379, "lng": -123.161642}, "google_id": "ChIJ20ytRBBuhlQRYM9hs32HFSE"},{"name": "Dairy Queen Grill & Chill", "address": "101-1760 Marine Dr, West Vancouver, BC V7V 1J4, Canada", "phone": "+1 604-921-6391", "tags": ["restaurant", "food", "point_of_interest", "store", "establishment"], "rating": 3.9, "website": "https://www.dairyqueen.com/ca-en/Locator/Detail/?localechange=1&store-id=7904", "location": {"lat": 49.32848799999999, "lng": -123.1615824}, "google_id": "ChIJg0ytRBBuhlQROzoGGEGJyOI"},{"name": "Ginger & Soy Chinese Cuisine Ltd", "address": "1487 Marine Dr, West Vancouver, BC V7T 1B8, Canada", "phone": "+1 778-279-8862", "tags": ["restaurant", "food", "point_of_interest", "establishment"], "rating": 3.9, "website": "http://www.gingerandsoy.ca/", "location": {"lat": 49.32836700000001, "lng": -123.156274}, "google_id": "ChIJPaOnBhpuhlQRztg_svcPFmc"},{"name": "La Sorella Di Mangia", "address": "2215 Marine Dr, West Vancouver, BC V7V 1K5, Canada", "phone": "+1 604-922-4334", "tags": ["restaurant", "food", "point_of_interest", "establishment"], "rating": 4.2, "website": "http://www.lasorelladimangia.ca/", "location": {"lat": 49.3311034, "lng": -123.1713639}, "google_id": "ChIJE5WrCw1uhlQR4e2CQk4H4MQ"},{"name": "Triumph Hospitality Group", "address": "33048-1583 Marine Dr, West Vancouver, BC V7V 4W7, Canada", "phone": "+1 604-281-1380", "tags": ["restaurant", "food", "point_of_interest", "establishment"], "rating": "", "website": "http://triumphhospitalitygroup.com/", "location": {"lat": 49.3288696, "lng": -123.1584169}, "google_id": "ChIJAXABvRBuhlQRGlYJK8JbFAw"},{"name": "Rose Persian Cuisine Restaurant", "address": "1746 Marine Dr, West Vancouver, BC V7V 1J3, Canada", "phone": "+1 604-281-4481", "tags": ["restaurant", "food", "point_of_interest", "establishment"], "rating": 4.1, "website": "http://rosepersiancuisine.ca/", "location": {"lat": 49.328478, "lng": -123.161152}, "google_id": "ChIJYY2WYBBuhlQRqIvBRotBd4g"},{"name": "Swad Indian Kitchen", "address": "1734 Marine Dr, West Vancouver, BC V7V 1J3, Canada", "phone": "+1 604-281-4411", "tags": ["restaurant", "food", "point_of_interest", "establishment"], "rating": 4.3, "website": "http://swadindiankitchen.ca/", "location": {"lat": 49.3284577, "lng": -123.1610467}, "google_id": "ChIJ0bxgYBBuhlQRkbRPG9JHRMo"},{"name": "Raku Japanese Kitchen", "address": "1860 Marine Dr, West Vancouver, BC V7V 1J6, Canada", "phone": "+1 604-281-1159", "tags": ["restaurant", "food", "point_of_interest", "establishment"], "rating": 4.8, "website": "https://raku-japanese-kitchen.business.site/?utm_source=gmb&utm_medium=referral", "location": {"lat": 49.3284226, "lng": -123.1638552}, "google_id": "ChIJqwGN1phvhlQRHeme3wowjsU"},{"name": "Terroir Kitchen", "address": "2232 Marine Dr, West Vancouver, BC V7V 1K4, Canada", "phone": "+1 604-922-9266", "tags": ["restaurant", "food", "point_of_interest", "establishment"], "rating": 4.8, "website": "http://www.terroirkitchen.com/", "location": {"lat": 49.3309823, "lng": -123.1723191}, "google_id": "ChIJYeGovg1uhlQRJ-inlP1GGG4"},{"name": "Shanghai Village", "address": "1479 Clyde Ave, West Vancouver, BC V7T 1E9, Canada", "phone": "+1 604-281-0081", "tags": ["restaurant", "food", "point_of_interest", "establishment"], "rating": 4.2, "website": "", "location": {"lat": 49.32895070000001, "lng": -123.1562352}, "google_id": "ChIJ1x2GVBduhlQRb3yZ5XFksJg"},{"name": "Chef Hung Taiwanese Beef Noodle", "address": "1560 Marine Dr, West Vancouver, BC V7V 1H8, Canada", "phone": "+1 778-279-8822", "tags": ["restaurant", "food", "point_of_interest", "establishment"], "rating": 3.9, "website": "http://www.chefhungnoodle.com/news.php", "location": {"lat": 49.32829659999999, "lng": -123.1581853}, "google_id": "ChIJ5a-smBBuhlQRLrXmM9zcgGM"},{"name": "Thai Pudpong Restaurant", "address": "1474 Marine Dr, West Vancouver, BC V7T 1B5, Canada", "phone": "+1 604-921-1069", "tags": ["restaurant", "food", "point_of_interest", "establishment"], "rating": 4.4, "website": "http://thaipudpong.com/", "location": {"lat": 49.3280811, "lng": -123.1560868}, "google_id": "ChIJzX2SBBpuhlQRKJcbxiwTxe8"},{"name": "Mani Persian Food", "address": "205-1425 Marine Dr, West Vancouver, BC V7T 1B8, Canada", "phone": "+1 604-726-6264", "tags": ["restaurant", "food", "point_of_interest", "establishment"], "rating": 4.3, "website": "http://www.manipersianfood.com/", "location": {"lat": 49.3285483, "lng": -123.154968}, "google_id": "ChIJTzHKCtpvhlQRc85uUmiMO-s"},{"name": "Nell's Kitchen", "address": "1482 Marine Dr, West Vancouver, BC V7T 1B7, Canada", "phone": "+1 604-922-4332", "tags": ["restaurant", "food", "point_of_interest", "establishment"], "rating": 5, "website": "", "location": {"lat": 49.32805399999999, "lng": -123.156175}, "google_id": "ChIJbZc5ZLhvhlQRmycop_0TUu8"},{"name": "Sorrento Pizza", "address": "2385 Marine Dr, West Vancouver, BC V7V 1K9, Canada", "phone": "+1 604-926-6060", "tags": ["restaurant", "food", "point_of_interest", "establishment"], "rating": 4, "website": "http://www.sorrentopizzaltd.com/", "location": {"lat": 49.334164, "lng": -123.1786137}, "google_id": "ChIJPVmxIXNuhlQRlIGregKaxt8"},{"name": "Lao Cai Chinese Cuisine \u8001\u8521\u98df\u5e9c", "address": "130-1425 Marine Dr, West Vancouver, BC V7T 1B5, Canada", "phone": "+1 604-925-9231", "tags": ["restaurant", "cafe", "food", "point_of_interest", "establishment"], "rating": 4.1, "website": "http://www.laocai.ca/", "location": {"lat": 49.3281806, "lng": -123.1550493}, "google_id": "ChIJgXtp8BluhlQR_Myo45TFn54"},{"name": "Ichiban Japanese Kitchen & Sushi", "address": "1405 Marine Dr, West Vancouver, BC V7T 1B8, Canada", "phone": "+1 604-913-2322", "tags": ["meal_takeaway", "restaurant", "food", "point_of_interest", "establishment"], "rating": 4.4, "website": "http://gintaroichiban.com/", "location": {"lat": 49.3281414, "lng": -123.1546138}, "google_id": "ChIJRc3z95NvhlQR6vyO0Z9VCFA"},{"name": "Wooden Fish", "address": "1403 Marine Dr, West Vancouver, BC V7T 1B8, Canada", "phone": "+1 604-926-6789", "tags": ["restaurant", "food", "point_of_interest", "establishment"], "rating": 4.3, "website": "http://www.thewoodenfish.ca/", "location": {"lat": 49.3280711, "lng": -123.1545466}, "google_id": "ChIJAzekDpRvhlQRKdgeAyzzgYg"},{"name": "Freshslice Pizza", "address": "1387 Marine Dr, West Vancouver, BC V7T 1B5, Canada", "phone": "+1 604-281-3114", "tags": ["meal_delivery", "meal_takeaway", "restaurant", "food", "point_of_interest", "establishment"], "rating": 4.1, "website": "http://www.freshslice.com/", "location": {"lat": 49.32797600000001, "lng": -123.1539032}, "google_id": "ChIJkcdAjRluhlQR-iqFOd8KQQI"},{"name": "Nishiki Sushi Restaurant", "address": "1377 Marine Dr, West Vancouver, BC V7T 1B6, Canada", "phone": "+1 604-925-5057", "tags": ["restaurant", "food", "point_of_interest", "establishment"], "rating": 4, "website": "http://www.nishikisushi.ca/", "location": {"lat": 49.32794409999999, "lng": -123.1536632}, "google_id": "ChIJZRx-khluhlQRA8cEYa_Z-I0"},{"name": "Heirloom Ambleside", "address": "1390 Marine Dr, West Vancouver, BC V7T 1A7, Canada", "phone": "+1 604-281-2241", "tags": ["restaurant", "food", "point_of_interest", "establishment"], "rating": 4, "website": "http://heirloomveg.ca/", "location": {"lat": 49.3276776, "lng": -123.1540352}, "google_id": "ChIJ4ckRnBluhlQRARYPEyBCNos"},{"name": "Earls Kitchen + Bar", "address": "1375 Bellevue Ave, West Vancouver, BC V7T 2Y9, Canada", "phone": "+1 604-262-3632", "tags": ["restaurant", "food", "point_of_interest", "establishment"], "rating": 4, "website": "https://www.earls.ca/locations/ambleside-beach", "location": {"lat": 49.32745029999999, "lng": -123.1540889}, "google_id": "ChIJoyq_sNFvhlQR0qyVpoGg2iM"}]