[{"name": "OPUS Vancouver", "address": "322 Davie St, Vancouver, BC V6B 5Z6, Canada", "phone": "+1 604-642-6787", "tags": ["lodging", "bar", "restaurant", "food", "point_of_interest", "establishment"], "rating": 4.6, "website": "http://vancouver.opushotel.com/?utm_source=GoogleMaps&utm_medium=organic&utm_content=Businesslisting", "location": {"lat": 49.2746307, "lng": -123.1225589}, "google_id": "ChIJkYNgwtZzhlQRDyKMepVlARQ"},{"name": "Gyu-Kaku Japanese BBQ", "address": "888 Nelson St g3, Vancouver, BC V6Z 2H1, Canada", "phone": "+1 604-558-3885", "tags": ["restaurant", "food", "point_of_interest", "establishment"], "rating": 4.5, "website": "http://www.gyu-kaku.com/", "location": {"lat": 49.2800315, "lng": -123.1251829}, "google_id": "ChIJJzFAF9VzhlQRENeLwMlDVl8"},{"name": "Blue Water Cafe", "address": "1095 Hamilton St, Vancouver, BC V6B 5T4, Canada", "phone": "+1 604-688-8078", "tags": ["restaurant", "food", "point_of_interest", "establishment"], "rating": 4.6, "website": "http://www.bluewatercafe.net/", "location": {"lat": 49.276155, "lng": -123.1211291}, "google_id": "ChIJZ04tZ9ZzhlQRDsJZp_cOS4U"},{"name": "Yaletown Brewing Company", "address": "1111 Mainland St, Vancouver, BC V6B 2T9, Canada", "phone": "+1 604-681-2739", "tags": ["restaurant", "bar", "food", "point_of_interest", "establishment"], "rating": 4, "website": "http://www.mjg.ca/yaletown/", "location": {"lat": 49.27559369999999, "lng": -123.1209341}, "google_id": "ChIJefmz9dZzhlQRCnVoCGiuGYs"},{"name": "The Templeton", "address": "1087 Granville St, Vancouver, BC V6Z 1L2, Canada", "phone": "+1 604-685-4612", "tags": ["restaurant", "food", "point_of_interest", "establishment"], "rating": 4.4, "website": "http://www.thetempleton.ca/", "location": {"lat": 49.2784339, "lng": -123.1245228}, "google_id": "ChIJ8w0ms9VzhlQRsjs1jGEh4is"},{"name": "Lupo Restaurant & Vinoteca", "address": "869 Hamilton St, Vancouver, BC V6B 2R7, Canada", "phone": "+1 604-569-2535", "tags": ["bar", "restaurant", "food", "point_of_interest", "establishment"], "rating": 4.5, "website": "http://www.luporestaurant.ca/", "location": {"lat": 49.2781844, "lng": -123.1173337}, "google_id": "ChIJndZa5n1xhlQRVrRPA1d--UM"},{"name": "JAPADOG", "address": "530 Robson St, Vancouver, BC V6B 2B7, Canada", "phone": "+1 604-569-1158", "tags": ["restaurant", "food", "point_of_interest", "establishment"], "rating": 4.2, "website": "http://www.japadog.com/", "location": {"lat": 49.28025170000001, "lng": -123.1183271}, "google_id": "ChIJv9OoAYBxhlQRBV7HNkJ_R9c"},{"name": "Cactus Club Cafe", "address": "357 Davie St, Vancouver, BC V6B 1R2, Canada", "phone": "+1 604-685-8070", "tags": ["restaurant", "bar", "food", "point_of_interest", "establishment"], "rating": 4.2, "website": "https://www.cactusclubcafe.com/?utm_source=google-maps&utm_medium=organic&utm_campaign=yaletown", "location": {"lat": 49.2750767, "lng": -123.1227606}, "google_id": "ChIJTazswtZzhlQRuZas9GX26-I"},{"name": "Subway", "address": "1213 Pacific Blvd, Vancouver, BC V6M 2N9, Canada", "phone": "+1 604-682-5591", "tags": ["meal_takeaway", "restaurant", "food", "point_of_interest", "establishment"], "rating": 3.8, "website": "http://www.subway.com/", "location": {"lat": 49.2740663, "lng": -123.1222457}, "google_id": "ChIJbffmJtdzhlQRaG6duBX7QVs"},{"name": "Megabite Granville St.", "address": "1005 Granville St, Vancouver, BC V6Z 1L4, Canada", "phone": "+1 604-687-0002", "tags": ["restaurant", "food", "point_of_interest", "establishment"], "rating": 3.7, "website": "http://www.megabitepizza.com/", "location": {"lat": 49.2792602, "lng": -123.1232875}, "google_id": "ChIJZTTj0n9xhlQRQrsfxMoiCYE"},{"name": "Nuba in Yaletown", "address": "508 Davie St, Vancouver, BC V6B 3N9, Canada", "phone": "+1 604-661-4129", "tags": ["restaurant", "food", "point_of_interest", "establishment"], "rating": 4.2, "website": "http://www.nuba.ca/", "location": {"lat": 49.2759133, "lng": -123.1246083}, "google_id": "ChIJZZP6HNRzhlQRTgKreAfu7O4"},{"name": "Brix & Mortar", "address": "1138 Homer St, Vancouver, BC V6B 2X6, Canada", "phone": "+1 604-915-9463", "tags": ["restaurant", "bar", "food", "point_of_interest", "establishment"], "rating": 4.3, "website": "http://www.brixandmortar.ca/", "location": {"lat": 49.27578519999999, "lng": -123.1221982}, "google_id": "ChIJl9xLjNZzhlQR7-ndY8Asql8"},{"name": "Roxy Burger", "address": "910 Granville St, Vancouver, BC V6Z 1L2, Canada", "phone": "+1 604-646-4000", "tags": ["bar", "restaurant", "food", "point_of_interest", "establishment"], "rating": 4.2, "website": "http://www.roxyburger.com/", "location": {"lat": 49.2798724, "lng": -123.1215092}, "google_id": "ChIJUx3DKn5xhlQROUIwrwWqQGw"},{"name": "Minami", "address": "1118 Mainland St, Vancouver, BC V6B 2T9, Canada", "phone": "+1 604-685-8080", "tags": ["restaurant", "food", "point_of_interest", "establishment"], "rating": 4.5, "website": "http://minamirestaurant.com/", "location": {"lat": 49.2752011, "lng": -123.1207259}, "google_id": "ChIJ9xLK-dZzhlQRIghtObN7n-A"},{"name": "The Pawn Shop YVR", "address": "1117 Granville St, Vancouver, BC V6Z 1M1, Canada", "phone": "+1 604-687-7474", "tags": ["bar", "restaurant", "food", "point_of_interest", "establishment"], "rating": 4.4, "website": "http://thepawnshopyvr.com/", "location": {"lat": 49.2781493, "lng": -123.1252321}, "google_id": "ChIJM_-yTtRzhlQRwNVRKfJH3Gc"},{"name": "Domino's Pizza", "address": "1138 Granville St, Vancouver, BC V6Z 1L8, Canada", "phone": "+1 604-683-5800", "tags": ["meal_delivery", "meal_takeaway", "restaurant", "food", "point_of_interest", "establishment"], "rating": 3.5, "website": "https://pizza.dominos.ca/Vancouver-British-Columbia-10017/", "location": {"lat": 49.2777035, "lng": -123.1249807}, "google_id": "ChIJy-O7IH5xhlQRNVgKxIcrTFw"},{"name": "Rodney's Oyster House", "address": "1228 Hamilton St, Vancouver, BC V6B 6L2, Canada", "phone": "+1 604-609-0080", "tags": ["restaurant", "food", "point_of_interest", "establishment"], "rating": 4.3, "website": "http://www.rohvan.com/", "location": {"lat": 49.2743062, "lng": -123.1231378}, "google_id": "ChIJ9R182tZzhlQRgBcJ3U3p7t8"},{"name": "Granville Warehouse", "address": "989 Granville St, Vancouver, BC V6Z 2A8, Canada", "phone": "+1 604-677-8080", "tags": ["restaurant", "food", "point_of_interest", "establishment"], "rating": 4, "website": "http://www.warehousegroup.ca/el-furniture-warehouse-granville", "location": {"lat": 49.2796089, "lng": -123.1228884}, "google_id": "ChIJczYGnNVzhlQRTtmLygm3sGk"},{"name": "Twisted Fork Bistro", "address": "1147 Granville St, Vancouver, BC V6Z 1M1, Canada", "phone": "+1 604-568-0749", "tags": ["restaurant", "food", "point_of_interest", "establishment"], "rating": 4.4, "website": "http://www.twistedforkbistro.ca/", "location": {"lat": 49.2778455, "lng": -123.1255582}, "google_id": "ChIJM4XXRdRzhlQRU5tJVe7D8xY"},{"name": "Cioppino's Mediterranean Grill", "address": "1133 Hamilton St, Vancouver, BC V6B 5P6, Canada", "phone": "+1 604-688-7466", "tags": ["restaurant", "food", "point_of_interest", "establishment"], "rating": 4.6, "website": "https://www.cioppinosyaletown.com/", "location": {"lat": 49.27570590000001, "lng": -123.1217088}, "google_id": "ChIJXd-B9NZzhlQRXZXEHdBn71E"},{"name": "Provence Marinaside", "address": "1177 Marinaside Crescent, Vancouver, BC V6Z 2Y3, Canada", "phone": "+1 604-681-4144", "tags": ["bar", "restaurant", "food", "point_of_interest", "establishment"], "rating": 4.3, "website": "http://provencemarinaside.ca/", "location": {"lat": 49.27334399999999, "lng": -123.11965}, "google_id": "ChIJdxpZbtdzhlQRlCpofbKCaEQ"},{"name": "Cibo Trattoria", "address": "900 Seymour St, Vancouver, BC V6B 3L9, Canada", "phone": "+1 604-602-9570", "tags": ["restaurant", "food", "point_of_interest", "establishment"], "rating": 3.8, "website": "https://www.cibotrattoria.com/", "location": {"lat": 49.27939900000001, "lng": -123.120431}, "google_id": "ChIJG3E_JH5xhlQRARNRbsTDHkw"},{"name": "La Terrazza", "address": "1088 Cambie St, Vancouver, BC V6B 6J5, Canada", "phone": "+1 604-899-4449", "tags": ["restaurant", "food", "point_of_interest", "establishment"], "rating": 4.3, "website": "http://www.laterrazza.ca/", "location": {"lat": 49.2749917, "lng": -123.1186413}, "google_id": "ChIJv7MHrtdzhlQRz141l-V5w3k"},{"name": "Trees Organic Coffee Yaletown", "address": "1391 Richards St, Vancouver, BC V6B 3G7, Canada", "phone": "+1 604-689-1020", "tags": ["cafe", "restaurant", "food", "point_of_interest", "store", "establishment"], "rating": 4.2, "website": "http://www.treescoffee.com/", "location": {"lat": 49.2740874, "lng": -123.127317}, "google_id": "ChIJZdn0EtFzhlQRrdlC3rPbNvM"},{"name": "Cinema Public House", "address": "901 Granville St, Vancouver, BC V6Z 1L3, Canada", "phone": "+1 604-694-0202", "tags": ["night_club", "bar", "restaurant", "food", "point_of_interest", "establishment"], "rating": 4, "website": "http://donnellygroup.ca/cinema/", "location": {"lat": 49.2803259, "lng": -123.1217404}, "google_id": "ChIJly1h039xhlQRnhSTiM4GOfI"},{"name": "Alpha Sushi Bar", "address": "1265 Granville St, Vancouver, BC V6Z 3B4, Canada", "phone": "+1 604-633-0355", "tags": ["restaurant", "food", "point_of_interest", "establishment"], "rating": 4.5, "website": "http://www.alphasushibar.com/", "location": {"lat": 49.2765216, "lng": -123.1274632}, "google_id": "ChIJpzOu1dVzhlQRPZ-fVVdKsQE"},{"name": "White Spot Granville & Drake", "address": "718 Drake St, Vancouver, BC V6Z 2W6, Canada", "phone": "+1 604-605-0045", "tags": ["restaurant", "food", "point_of_interest", "establishment"], "rating": 3.5, "website": "http://www.whitespot.ca/", "location": {"lat": 49.2761059, "lng": -123.1281917}, "google_id": "ChIJWUoK7tNzhlQR9inDtjC8lc8"},{"name": "Romano's Pizza", "address": "995 Granville St, Vancouver, BC V6Z 1L3, Canada", "phone": "+1 604-568-5470", "tags": ["meal_delivery", "grocery_or_supermarket", "meal_takeaway", "restaurant", "food", "point_of_interest", "store", "establishment"], "rating": 4.4, "website": "https://www.romanospizza.ca/", "location": {"lat": 49.2794945, "lng": -123.1229894}, "google_id": "ChIJ0_WB039xhlQR5T1hWsUKec4"},{"name": "Grade A Steaks & Seafoods Restaurant", "address": "1175 Granville St, Vancouver, BC V6Z 1M1, Canada", "phone": "+1 604-669-7495", "tags": ["restaurant", "food", "point_of_interest", "establishment"], "rating": 4.2, "website": "", "location": {"lat": 49.27746310000001, "lng": -123.1260016}, "google_id": "ChIJ3XhpQNRzhlQRUfXaowBchgg"},{"name": "The Mexican Antojitos y Cantina", "address": "1049 Granville St, Vancouver, BC V6Z 1L4, Canada", "phone": "+1 604-569-0955", "tags": ["restaurant", "food", "point_of_interest", "establishment"], "rating": 4.5, "website": "http://www.themexican.ca/", "location": {"lat": 49.27885699999999, "lng": -123.12407}, "google_id": "ChIJSa1PpdVzhlQRmKSfG7q1eYQ"},{"name": "McDonald's", "address": "891 Granville St, Vancouver, BC V6Z 1K7, Canada", "phone": "+1 604-718-1062", "tags": ["cafe", "restaurant", "food", "point_of_interest", "establishment"], "rating": 3.4, "website": "https://www.mcdonalds.com/ca/en-ca/restaurant-locator.html", "location": {"lat": 49.2805317, "lng": -123.121369}, "google_id": "ChIJs0Fi0n9xhlQRFNqcc3koAIE"},{"name": "The Morrissey", "address": "1227 Granville St, Vancouver, BC V6Z 1M5, Canada", "phone": "+1 604-682-0909", "tags": ["bar", "restaurant", "food", "point_of_interest", "establishment"], "rating": 4, "website": "http://themorrisseypub.ca/", "location": {"lat": 49.276912, "lng": -123.1268604}, "google_id": "ChIJ3zv7EtRzhlQRPaN-KmydHiM"},{"name": "Noodlebox", "address": "839 Homer St, Vancouver, BC V6B 2W2, Canada", "phone": "+1 604-734-1316", "tags": ["restaurant", "food", "point_of_interest", "establishment"], "rating": 3.8, "website": "http://www.noodlebox.ca/", "location": {"lat": 49.279134, "lng": -123.11768}, "google_id": "ChIJd7PvANZzhlQRV6EPtlS1W0w"},{"name": "Simply Thai", "address": "1211 Hamilton St, Vancouver, BC V6B 6K3, Canada", "phone": "+1 604-642-0123", "tags": ["restaurant", "food", "point_of_interest", "establishment"], "rating": 3.8, "website": "http://www.simplythairestaurant.com/", "location": {"lat": 49.2748962, "lng": -123.1230955}, "google_id": "ChIJ97xhw9ZzhlQRd9UBfM2mt5I"},{"name": "Tokyo Joe's", "address": "955 Helmcken St, Vancouver, BC V6Z 2S5, Canada", "phone": "+1 604-689-0073", "tags": ["restaurant", "food", "point_of_interest", "establishment"], "rating": 4.4, "website": "http://www.tokyo-joes.com/", "location": {"lat": 49.2797478, "lng": -123.1267408}, "google_id": "ChIJxe0X3tRzhlQRVnT15TlsW3w"},{"name": "Freshslice Pizza", "address": "771 Davie St, Vancouver, BC V6Z 2S7, Canada", "phone": "+1 604-669-0001", "tags": ["meal_delivery", "meal_takeaway", "restaurant", "food", "point_of_interest", "establishment"], "rating": 4, "website": "http://www.freshslice.com/", "location": {"lat": 49.277638, "lng": -123.1266791}, "google_id": "ChIJN2oub9RzhlQR218WSMvc5pI"},{"name": "Giardino Restaurant", "address": "1328 Hornby St, Vancouver, BC V6Z 1W5, Canada", "phone": "+1 604-669-2422", "tags": ["bar", "restaurant", "food", "point_of_interest", "establishment"], "rating": 4.6, "website": "http://www.umberto.com/giardino", "location": {"lat": 49.27697819999999, "lng": -123.1300609}, "google_id": "ChIJdd9ipdNzhlQRTeCkanpMc8s"},{"name": "Basil Pasta Bar", "address": "636 Davie St, Vancouver, BC V6B 2G5, Canada", "phone": "+1 604-568-3106", "tags": ["meal_delivery", "meal_takeaway", "bar", "restaurant", "food", "point_of_interest", "store", "establishment"], "rating": 4, "website": "http://www.basilpastabar.com/", "location": {"lat": 49.27676109999999, "lng": -123.1258767}, "google_id": "ChIJl53YENRzhlQRgKUXfBQ9VLE"},{"name": "Homer St. Cafe and Bar", "address": "898 Homer St, Vancouver, BC V6B 2W5, Canada", "phone": "+1 604-428-4299", "tags": ["restaurant", "bar", "food", "point_of_interest", "establishment"], "rating": 4.4, "website": "http://homerstreetcafebar.com/", "location": {"lat": 49.2784175, "lng": -123.1182845}, "google_id": "ChIJG_9jCH5xhlQRtcDS3SP5k_U"},{"name": "Kaide Sushi Bar", "address": "1375 Richards St, Vancouver, BC V6B 6M6, Canada", "phone": "+1 604-681-5886", "tags": ["restaurant", "food", "point_of_interest", "establishment"], "rating": 4.4, "website": "http://vancouverkaidesushi.com/", "location": {"lat": 49.27425580000001, "lng": -123.1270414}, "google_id": "ChIJQ5DHFNFzhlQRqUKDK5SHZhQ"},{"name": "Guu Garden", "address": "888 Nelson St m101, Vancouver, BC V6Z 2H2, Canada", "phone": "+1 604-899-0855", "tags": ["restaurant", "food", "point_of_interest", "establishment"], "rating": 4.2, "website": "http://guu-izakaya.com/garden", "location": {"lat": 49.2800364, "lng": -123.1252786}, "google_id": "ChIJvzgBQNVzhlQRBgxEakaQcjk"},{"name": "Subway", "address": "1000 Mainland St, Vancouver, BC V6B 2T4, Canada", "phone": "+1 604-682-5595", "tags": ["restaurant", "food", "point_of_interest", "establishment"], "rating": 4.1, "website": "http://www.subway.com/", "location": {"lat": 49.2764771, "lng": -123.1189377}, "google_id": "ChIJSRSjPdZzhlQRfzwPVqdqCbI"},{"name": "TWB - The Wine Bar", "address": "1167 Marinaside Crescent, Vancouver, BC V6Z 2Y2, Canada", "phone": "+1 604-681-4144", "tags": ["bar", "restaurant", "food", "point_of_interest", "establishment"], "rating": 4.2, "website": "http://thewinebar.ca/", "location": {"lat": 49.2733765, "lng": -123.1194802}, "google_id": "ChIJ3eBabtdzhlQRGlvqoQg7tUQ"},{"name": "Shizenya", "address": "965 Hornby St, Vancouver, BC V6Z 3G5, Canada", "phone": "+1 604-568-0013", "tags": ["restaurant", "food", "point_of_interest", "establishment"], "rating": 4.4, "website": "http://shizenya.ca/", "location": {"lat": 49.28102070000001, "lng": -123.1247524}, "google_id": "ChIJ3WSkQdVzhlQRf-936T0TOv0"},{"name": "One Saigon", "address": "979 Hornby St, Vancouver, BC V6Z 1V3, Canada", "phone": "+1 604-669-6764", "tags": ["restaurant", "food", "point_of_interest", "establishment"], "rating": 4, "website": "http://www.onesaigon.com/", "location": {"lat": 49.2808894, "lng": -123.1248595}, "google_id": "ChIJUUNlQdVzhlQRehIWk6iytc0"},{"name": "Kamei Baru", "address": "990 Smithe St, Vancouver, BC V6Z 0A4, Canada", "phone": "+1 604-559-8588", "tags": ["restaurant", "food", "point_of_interest", "establishment"], "rating": 4, "website": "https://kameibaru.ca/", "location": {"lat": 49.28190499999999, "lng": -123.1241268}, "google_id": "ChIJ_VZd_n9xhlQRP_yUAqtTiLo"},{"name": "The Keg Steakhouse + Bar - Yaletown", "address": "1011 Mainland St, Vancouver, BC V6B 5P9, Canada", "phone": "+1 604-633-2534", "tags": ["bar", "restaurant", "food", "point_of_interest", "establishment"], "rating": 4.3, "website": "https://www.kegsteakhouse.com/locations/yaletown-keg/", "location": {"lat": 49.27655060000001, "lng": -123.1194088}, "google_id": "ChIJq69lPtZzhlQROZR50xKXYQw"},{"name": "Mucho Burrito Fresh Mexican Grill", "address": "988 Davie St, Vancouver, BC V6Z 1B8, Canada", "phone": "+1 604-669-6666", "tags": ["restaurant", "food", "point_of_interest", "establishment"], "rating": 3.9, "website": "https://locations.muchoburrito.com/ll/CA/BC/Vancouver/988-Davie-St", "location": {"lat": 49.278727, "lng": -123.1289479}, "google_id": "ChIJLSmGkNRzhlQRemSQRV00Ir4"},{"name": "Honjin Yaletown Sushi Restaurant", "address": "138 Davie St, Vancouver, BC V6Z 2V4, Canada", "phone": "+1 604-688-8808", "tags": ["restaurant", "food", "point_of_interest", "establishment"], "rating": 3.8, "website": "http://www.honjinsushi.com/", "location": {"lat": 49.27314499999999, "lng": -123.1210885}, "google_id": "ChIJuVaZFddzhlQReTsgxjUFeLo"},{"name": "Kingston Taphouse & Grille", "address": "755 Richards St, Vancouver, BC V6B 3A6, Canada", "phone": "+1 604-681-7011", "tags": ["bar", "restaurant", "food", "point_of_interest", "establishment"], "rating": 4, "website": "http://www.kingstontaphouse.com/", "location": {"lat": 49.28085369999999, "lng": -123.1172788}, "google_id": "ChIJ8b3N8H5xhlQReEClTNTtCAI"},{"name": "Medina", "address": "780 Richards St, Vancouver, BC V6B 3A4, Canada", "phone": "+1 604-879-3114", "tags": ["restaurant", "food", "point_of_interest", "establishment"], "rating": 4.5, "website": "http://www.medinacafe.com/", "location": {"lat": 49.2805145, "lng": -123.1168509}, "google_id": "ChIJEa8g6HtxhlQRa_lcrLrlVQw"},{"name": "The Beaver Taphouse", "address": "1018 Granville St, Vancouver, BC V6Z 1L5, Canada", "phone": "+1 604-682-8226", "tags": ["bar", "restaurant", "food", "point_of_interest", "establishment"], "rating": 4.1, "website": "https://www.thebeaverbar.ca/", "location": {"lat": 49.278863, "lng": -123.123053}, "google_id": "ChIJX78Do9VzhlQRkFDgsxvpMjc"},{"name": "The Flying Pig Yaletown", "address": "1168 Hamilton St, Vancouver, BC V6B 2S2, Canada", "phone": "+1 604-568-1344", "tags": ["restaurant", "bar", "food", "point_of_interest", "establishment"], "rating": 4.2, "website": "http://theflyingpigvan.com/", "location": {"lat": 49.2751698, "lng": -123.1220945}, "google_id": "ChIJR-oj79ZzhlQRPxQ0DJ-fZRI"},{"name": "Medley's Restaurant", "address": "1110 Howe St, Vancouver, BC V6Z 1R2, Canada", "phone": "+1 604-623-6862", "tags": ["restaurant", "food", "point_of_interest", "establishment"], "rating": "", "website": "http://www.holidayinnvancouverdowntown.com/", "location": {"lat": 49.2784324, "lng": -123.125628}, "google_id": "ChIJ617TVtRzhlQRYWPsgeYSGO4"},{"name": "Johnnie Fox's Irish Snug", "address": "1033 Granville St, Vancouver, BC V6Z 1L4, Canada", "phone": "+1 604-685-4946", "tags": ["bar", "restaurant", "food", "point_of_interest", "establishment"], "rating": 4.4, "website": "http://www.johnniefox.ca/", "location": {"lat": 49.2789829, "lng": -123.1237709}, "google_id": "ChIJ41mdpNVzhlQRfZXSoI7IBSs"},{"name": "Cavo Bar+Kitchen", "address": "911 Granville St, Vancouver, BC V6Z 1L3, Canada", "phone": "+1 604-568-3454", "tags": ["bar", "restaurant", "food", "point_of_interest", "establishment"], "rating": 4.2, "website": "", "location": {"lat": 49.280241, "lng": -123.1218722}, "google_id": "ChIJr_sx1X9xhlQRp4tzpU6COLo"},{"name": "Tavern at The New Oxford", "address": "1141 Hamilton St, Vancouver, BC V6B 5P6, Canada", "phone": "+1 604-609-0901", "tags": ["bar", "night_club", "restaurant", "food", "point_of_interest", "establishment"], "rating": 4, "website": "http://donnellygroup.ca/tavern/", "location": {"lat": 49.2755933, "lng": -123.1221579}, "google_id": "ChIJJ_tB8tZzhlQRZz5EI-BsyTs"},{"name": "Hapa Izakaya Yaletown", "address": "1193 Hamilton St, Vancouver, BC V6B 5P6, Canada", "phone": "+1 604-681-4272", "tags": ["restaurant", "food", "point_of_interest", "establishment"], "rating": 4.2, "website": "https://hapaizakaya.com/", "location": {"lat": 49.2751446, "lng": -123.1225872}, "google_id": "ChIJW8fi6NZzhlQRjKvR2NBsVkc"},{"name": "LeafyBox", "address": "1155 Pacific Blvd, Vancouver, BC V6Z 2R8, Canada", "phone": "+1 604-605-1155", "tags": ["restaurant", "food", "point_of_interest", "establishment"], "rating": 4.3, "website": "http://leafybox.ca/", "location": {"lat": 49.274489, "lng": -123.120303}, "google_id": "ChIJAVsJBNdzhlQRqeht8CcT1N8"},{"name": "Glory Juice Co.", "address": "437 Davie St, Vancouver, BC V6B 2G2, Canada", "phone": "+1 604-428-0324", "tags": ["cafe", "grocery_or_supermarket", "restaurant", "food", "point_of_interest", "store", "establishment"], "rating": 4, "website": "http://gloryjuiceco.com/", "location": {"lat": 49.2755563, "lng": -123.1234708}, "google_id": "ChIJDRy8ltZzhlQRObYvhtsjEBU"}]